{"city": "Guaruja", "areaId": "65082f98c873db1c2687f981", "count": 391, "parkings": [{"id": "6a32f0d374335b025baea4a1", "name": "Av. Prestes Maia, 560 - Tombo, Guarujá", "lat": -24.013037119829033, "lng": -46.27165675163269}, {"id": "6a29654fd62e327d7bf9b22f", "name": "Restaurante e Pizzaria Rei da Capadocia", "lat": -23.9898669, "lng": -46.242888}, {"id": "69f550f7bc0eccf5a5c2e297", "name": "Ponto praça do livro", "lat": -23.9979775, "lng": -46.2580744}, {"id": "69ed13a5981bf8b8a0e616a3", "name": "Praça do Livro - Pitangueiras Guarujá", "lat": -23.9978853, "lng": -46.2582377}, {"id": "69c8492a3a6aef7465a5f3d0", "name": "Av. Mal. Deodoro da Fonseca, 661 - Centro, Guarujá - SP, 11410-221", "lat": -23.9963342, "lng": -46.2552902}, {"id": "69c230553819fb6455a8494d", "name": "Av. Mal. Deodoro da Fonseca, 1050 - Centro, Guarujá (2)", "lat": -23.998165176439773, "lng": -46.25818153055694}, {"id": "69bf05d85d0a8b62a5fc3946", "name": "Barra Funda- padaria", "lat": -23.9980829, "lng": -46.2640715}, {"id": "69aae681c2385f0351d88dba", "name": "Bluefit - Av. Dom Pedro, Guarujá", "lat": -23.982361, "lng": -46.230379}, {"id": "69a4c645d03fbdc1d0bb3cf6", "name": "Maram Schutz - Av. Mal. Deodoro da Fonseca, 885", "lat": -23.9976332, "lng": -46.2576291}, {"id": "69a38c8d16603dea7d6fb0fe", "name": "Fonte de Agua Interativa", "lat": -23.996463839076167, "lng": -46.255961805582054}, {"id": "69a3389216603dea7d2b95bd", "name": "Av. Leomil, 259 - Centro", "lat": -23.994312, "lng": -46.25583}, {"id": "69a3387016603dea7d2b6188", "name": "R. Antônio de Souza, Vila Maia", "lat": -23.9964167, "lng": -46.2598963}, {"id": "69a3385316603dea7d2b57f8", "name": "Don Domênico - Av. Puglisi - Centro,", "lat": -23.9937319, "lng": -46.2574669}, {"id": "6963a8550f27fdf5dc990743", "name": "R. Paraguai, 620 - Jardim Belmar, Guarujá - SP, 11441-000", "lat": -23.9815943, "lng": -46.2338104}, {"id": "694ee8220f27fdf5dcaa93e5", "name": "guar_ novo ponto", "lat": -23.97092192937968, "lng": -46.19292318770103}, {"id": "694ee7fa0f27fdf5dcaa5853", "name": "guar_ novo ponto", "lat": -23.960955479934324, "lng": -46.18744611600039}, {"id": "694ee7d80f27fdf5dcaa0c31", "name": "guar_ novo ponto", "lat": -23.96187683363337, "lng": -46.18796110018547}, {"id": "694ee7cc0f27fdf5dcaa0a73", "name": "guar_ novo ponto", "lat": -23.962611902508375, "lng": -46.18841171132917}, {"id": "694ee7a50f27fdf5dcaa0490", "name": "guar_ novo ponto", "lat": -23.964209437743442, "lng": -46.18911981455498}, {"id": "694ee7990f27fdf5dcaa029f", "name": "guar_ novo ponto", "lat": -23.964856286870106, "lng": -46.189420221984115}, {"id": "694ee78c0f27fdf5dcaa00c8", "name": "guar_ novo ponto", "lat": -23.965483531408093, "lng": -46.18958115453544}, {"id": "694ee7810f27fdf5dca9fee5", "name": "guar_ novo ponto", "lat": -23.96614997538531, "lng": -46.18974208708677}, {"id": "694ee7750f27fdf5dca9fd09", "name": "guar_ novo ponto", "lat": -23.966904621022927, "lng": -46.18984937545431}, {"id": "694ee75b0f27fdf5dca9f901", "name": "guar_ novo ponto", "lat": -23.96757885775995, "lng": -46.18989229146031}, {"id": "694ee74f0f27fdf5dca9f755", "name": "guar_ novo ponto", "lat": -23.968269792055832, "lng": -46.19002640191976}, {"id": "694ee7440f27fdf5dca9f5a2", "name": "guar_ novo ponto", "lat": -23.96887251894854, "lng": -46.1903053516754}, {"id": "694ee7380f27fdf5dca9f1e8", "name": "guar_ novo ponto", "lat": -23.969470342838072, "lng": -46.190664767706664}, {"id": "694ee72c0f27fdf5dca9f016", "name": "guar_ novo ponto", "lat": -23.970073064116043, "lng": -46.19102954815634}, {"id": "694ee6f20f27fdf5dca9d959", "name": "guar_ novo ponto", "lat": -23.97066213988243, "lng": -46.19138494126756}, {"id": "694ee6cb0f27fdf5dca978e0", "name": "guar_ novo ponto", "lat": -23.971319263028573, "lng": -46.19176179168767}, {"id": "694ee6b30f27fdf5dca964b9", "name": "guar_ novo ponto", "lat": -23.97196389968303, "lng": -46.19204878796049}, {"id": "694ee6a30f27fdf5dca95e3a", "name": "guar_ novo ponto", "lat": -23.972571509364865, "lng": -46.192279457950725}, {"id": "6946b019e75b8fc69043388b", "name": "Estacionamento Chácara na Praia - R. São Paulo, 95 - Lot. Joao Batista Juliao, Guarujá - SP", "lat": -23.9856384, "lng": -46.2065103}, {"id": "693b39695d1d946499c3131c", "name": "Название Av. Puglisi, 712 - Centro, Guarujá - SP, 11410-002", "lat": -23.9908951, "lng": -46.2592116}, {"id": "691ee21c1e5b9615e425b3d4", "name": "SP-061, 1535 - Balneario Praia do Pernambuco, Guarujá", "lat": -23.9653422, "lng": -46.1881696}, {"id": "691ee1eb1e5b9615e425528b", "name": "Próximo a Jardim Acapulco Beach Club - R. dos Manacás, 21 - Balneario Praia do Pernambuco, Guarujá", "lat": -23.96478, "lng": -46.18544}, {"id": "691ee1d71e5b9615e424e597", "name": "Pousada Navega - Av. Marjory da Silva Prado, 1175 - Balneário Pernambuco, Guarujá", "lat": -23.9694721, "lng": -46.187936}, {"id": "691ee1c31e5b9615e424ca67", "name": "SP-061, 1091 - Balneario Praia do Pernambuco, Guarujá", "lat": -23.9705489, "lng": -46.1880473}, {"id": "691ee1ac1e5b9615e42490cf", "name": "Av. Marjory da Silva Prado, 1111 - Balneario Praia do Pernambuco, Guarujá", "lat": -23.9702113, "lng": -46.1879675}, {"id": "691ee19c1e5b9615e42418b2", "name": "Av. Marjory da Silva Prado, 977 - Balneario Praia do Pernambuco, Guarujá", "lat": -23.9710685, "lng": -46.1883383}, {"id": "691ee1771e5b9615e4239c0e", "name": "Balneario Praia do Pernambuco, Guarujá", "lat": -23.9708341, "lng": -46.1881968}, {"id": "691ee1671e5b9615e4236e23", "name": "Av. Marjory da Silva Prado, 980 - Balneario Praia do Pernambuco - Balneario Praia do Pernambuco, Guarujá", "lat": -23.971339, "lng": -46.1884734}, {"id": "691ee1561e5b9615e4234b26", "name": "Próximo a R. dos Coqueiros, 124-244 - Balneario Praia do Pernambuco, Guarujá", "lat": -23.963091, "lng": -46.187039}, {"id": "691ee1441e5b9615e4231e4d", "name": "Av. das Américas, 64 - Balneario Praia do Pernambuco, Guarujá", "lat": -23.9720737, "lng": -46.1890618}, {"id": "691ee1211e5b9615e4230ccc", "name": "Av. das Américas, 49-1 - Balneario Praia do Pernambuco, Guarujá", "lat": -23.9723353, "lng": -46.1885596}, {"id": "691ee1131e5b9615e4230a17", "name": "Av. Marjory da Silva Prado, 930 - Balneario Praia do Pernambuco, Guarujá", "lat": -23.9717747, "lng": -46.1885566}, {"id": "691ee1011e5b9615e423057d", "name": "Próximo a Av. Jomar, 210 - Balneario Praia do Pernambuco, Guarujá", "lat": -23.961433, "lng": -46.186038}, {"id": "691ee0f11e5b9615e422fefd", "name": "Próximo a R. das Seringueiras Balneario Praia do Pernambuco, Guarujá", "lat": -23.961202, "lng": -46.183695}, {"id": "691ee0881e5b9615e4217bf4", "name": "Próximo a Millah Eventos- Casamentos e eventos - Av. Jomar - Balneario Praia do Pernambuco, Guarujá", "lat": -23.962668, "lng": -46.184473}, {"id": "691ee0601e5b9615e4211fe1", "name": "SP-061, 969-939 - Balneario Praia do Pernambuco, Guarujá", "lat": -23.9714263, "lng": -46.188351}, {"id": "691ee04e1e5b9615e4210036", "name": "Eletroposto Sofitel Guarujá Jequitimar - Av. Marjory da Silva Prado, 1100 - Balneario Praia do Pernambuco, Guarujá", "lat": -23.9686372, "lng": -46.1879001}, {"id": "691ee0151e5b9615e420a371", "name": "SP-061, 1167-1129 - Balneario Praia do Pernambuco, Guarujá", "lat": -23.9695919, "lng": -46.1877153}, {"id": "691623635f7a45854cf870a1", "name": "Porto Bello Av. Ademar de Barros", "lat": -23.991387, "lng": -46.269212}, {"id": "691622b65f7a45854cf8362c", "name": "Centro de Cuidados Vida Paz R. José Ferreira Canaes", "lat": -23.991112, "lng": -46.268302}, {"id": "69161f279e36612406535d27", "name": "Av. Santos Dumont 5 ", "lat": -23.985384, "lng": -46.266186}, {"id": "69161f079e36612406534848", "name": "Av. Santos Dumont 4 ", "lat": -23.986959, "lng": -46.265252}, {"id": "6916170f9e3661240640ec06", "name": "Av. Santos Dumont 1 ", "lat": -23.986745, "lng": -46.265403}, {"id": "691613e39e366124063d49f7", "name": "Av. Santos Dumont", "lat": -23.987408, "lng": -46.264857}, {"id": "6916135f9e366124063bca4f", "name": "Av. Ademar de Barros", "lat": -23.989962, "lng": -46.263958}, {"id": "69160bd2f0412aa3c53485d5", "name": "Av. Santos Dumont", "lat": -23.988335, "lng": -46.263913}, {"id": "69160baef0412aa3c5346d6c", "name": "Rua Augusto Simões", "lat": -23.988925, "lng": -46.262134}, {"id": "69160b51f0412aa3c5342718", "name": "Rua Augusto Simões", "lat": -23.989023, "lng": -46.263175}, {"id": "68c0dbe12c2e1501ee60c95b", "name": "Píer Tony Villela - Alameda Mal. Floriano Peixoto, 312 - Morro do Maluf, Guarujá - SP, 11410-240", "lat": -23.9963367, "lng": -46.2509048}, {"id": "68c0dbe12c2e1501ee60c95a", "name": "Av. Mal. Deodoro da Fonseca, 1071-929 - Centro, Guarujá - SP, 11410-222", "lat": -24.0012894, "lng": -46.26433}, {"id": "68c0dbe12c2e1501ee60c957", "name": "Av. Gen. Rondon, 59 - Vila Alzira - Vila Luis Antonio, Guarujá - SP, 11420-030", "lat": -24.0050643, "lng": -46.2685943}, {"id": "68c09713c15a52d915a5708e", "name": "Farmácias São João Balneário Camboriú", "lat": -23.9876519, "lng": -46.2051044}, {"id": "68c08fdbc15a52d9158fcec3", "name": "R. Uruguai, 562 - Balneario Guarujá, Guarujá - SP, 11442-020", "lat": -23.9806471, "lng": -46.2231329}, {"id": "68bf0939461dd47f52c1621f", "name": "Colégio Adventista - José Silva", "lat": -23.983813, "lng": -46.2404999}, {"id": "68bf081f461dd47f52bb50c2", "name": "Duda Treton Nails - Av. Dom Pedro I, 1616 - Jardim Tres Marias, Guarujá - SP, 11440-001", "lat": -23.983499, "lng": -46.236269}, {"id": "68bf041c461dd47f52a9c997", "name": "R. Mario Ribeiro, 305", "lat": -23.9950989, "lng": -46.2551806}, {"id": "68bf02fb461dd47f52a458ab", "name": "R. Rio de Janeiro, 87", "lat": -23.997866, "lng": -46.2603268}, {"id": "68bf00725c6bb2dd6bbb86ed", "name": "R. das Galhetas, 200", "lat": -24.0114779, "lng": -46.2663785}, {"id": "68beffe55c6bb2dd6bb8922f", "name": "R. das Galhetas, 69-55 - Jardim Asturias, Guarujá - SP, 11420-100", "lat": -24.0112623, "lng": -46.2677424}, {"id": "68befed75c6bb2dd6bb4e8af", "name": "Condomínio Edifício Claudia Flávia - Av. Prestes Maia, 125 - Tombo, Guarujá - SP, 11420-170", "lat": -24.013714, "lng": -46.2726639}, {"id": "68befe485c6bb2dd6bb1f94d", "name": "Estr. Alexandre Migues Rodrigues, 604-644 - Jardim Las Palmas, Guarujá - SP, 11420-120", "lat": -24.0125422, "lng": -46.2731662}, {"id": "68befe115c6bb2dd6bb088aa", "name": "Estr. Alexandre Migues Rodrigues, 471-381 - Jardim Las Palmas, Guarujá - SP, 11420-120", "lat": -24.0119465, "lng": -46.271646}, {"id": "68befa1c5c6bb2dd6b98b858", "name": " Av. dos Caiçaras, 226 - Jardim Las Palmas, Guarujá - SP, 11420-440", "lat": -24.011349, "lng": -46.2773621}, {"id": "68b890facf44b454c8773913", "name": "Burger King", "lat": -23.9915176, "lng": -46.2776233}, {"id": "689de33a540a89827e051c9b", "name": "R. Santo Antônio, 30 - Jardim Sao Miguel, Guarujá - SP, 11440-080", "lat": -23.983435533631432, "lng": -46.24540865421296}, {"id": "689c8163d27f03b2aac40510", "name": "Mirante do Morro das Galhetas - R. Dr. Roberto Vinhas, 577 - Jardim Asturias, Guarujá - SP, 11420-110", "lat": -24.012194444444443, "lng": -46.26730555555555}, {"id": "6891a5492c295489e2ec53bb", "name": "Av. Dom Pedro I, 195 - Jardim Tejereba, Guarujá - SP", "lat": -23.988861111111113, "lng": -46.248472222222226}, {"id": "688f7bfd15019cedbf4897f3", "name": "Condomínio Tortugas - Venda de apartamentos do", "lat": -23.994055555555555, "lng": -46.199666666666666}, {"id": "688c6611374190421f525aeb", "name": "R. Pres. Kennedy, 80 - Jardim Helena Maria, Guarujá - SP, 11431-000", "lat": -23.991583333333335, "lng": -46.28086111111111}, {"id": "688c65f4374190421f519ce2", "name": "Av. Manuel Albino, 709 - Jardim Helena Maria, Guarujá - SP, 11431-030", "lat": -23.994694444444445, "lng": -46.27627777777778}, {"id": "688c65bc374190421f50d7b5", "name": "R. Áureo Guenaga de Castro, 149 - Parque Enseada - Jardim Mar e Ceu, Guarujá - SP, 11443-410", "lat": -23.98466666666667, "lng": -46.201638888888894}, {"id": "688c654f374190421f4f9a8a", "name": "R. Canto da Enseada, 5585 - Lot. Joao Batista Juliao, Guarujá - SP, 11440-530", "lat": -23.994, "lng": -46.201972222222224}, {"id": "687913a99b4e418bb8c03da0", "name": "Rua Marivaldo Fernandes, 144 Enseada – Guarujá – SP", "lat": -23.989833333333333, "lng": -46.24622222222222}, {"id": "68783e0cea36d36cff785a35", "name": "Cond. Atlantica Ocean View R. Hermenegildo Azevedo, 90", "lat": -23.980833333333333, "lng": -46.20825}, {"id": "68782b13ea36d36cff39e05c", "name": "Rua Hermenegildo Azevedo, 90 - Pq Enseada, Guaruja Sp 11443-240", "lat": -23.98108333333333, "lng": -46.20769444444445}, {"id": "68706568d930970c53573990", "name": "Rua 53", "lat": -23.99266666666667, "lng": -46.19713888888889}, {"id": "6870654ad930970c53572b81", "name": " Rua 21", "lat": -23.992694444444446, "lng": -46.19897222222222}, {"id": "6870652bd930970c53572043", "name": "Ed. Albatroz", "lat": -23.985, "lng": -46.24877777777778}, {"id": "68706500d930970c53570d04", "name": "Av. Dom Pedro I, 2442 - Jardim Belmar", "lat": -23.981638888888888, "lng": -46.22813888888889}, {"id": "687064bfd930970c5356eff7", "name": "Av. Dom Pedro I, 1541 - Jardim Tres Marias", "lat": -23.983138888888888, "lng": -46.23488888888889}, {"id": "6870649dd930970c5356e2a7", "name": "Av. Dom Pedro I, 1568 - Jardim Tres Marias", "lat": -23.983583333333335, "lng": -46.236694444444446}, {"id": "68706470d930970c5356cdaa", "name": "Av. Dom Pedro I, 1224 - Jardim Tres Marias", "lat": -23.98477777777778, "lng": -46.239666666666665}, {"id": "6870644bd930970c5356bb8e", "name": "Av. Dom Pedro I, 1774 - Jardim Vitoria", "lat": -23.986666666666668, "lng": -46.24333333333333}, {"id": "687060b5d930970c53551e9b", "name": "Av. dos Caiçaras, 1614 - Jardim Las Palmas, Guarujá - SP, 11420-440", "lat": -23.999592873582497, "lng": -46.27398759126663}, {"id": "6870609ad930970c5355108f", "name": "R. Valéria Ciccone, 17-3 - Jardim Primavera, Guarujá - SP, 11431-270", "lat": -23.99588888888889, "lng": -46.270805555555555}, {"id": "68706081d930970c5355067f", "name": "Av. Ademar de Barros, 1281 - Vila Santa Rosa, Guarujá - SP, 11430-003", "lat": -23.992333333333335, "lng": -46.272444444444446}, {"id": "68706064d930970c5354f985", "name": "R. dos Gerânios, 6 - Jardim Primavera, Guarujá - SP, 11432-330", "lat": -23.991472222222225, "lng": -46.26986111111111}, {"id": "68706048d930970c5354eae2", "name": "Av. Ademar de Barros - Vila Santo Antônio, Guarujá - SP, 11430-005", "lat": -23.98988888888889, "lng": -46.26275}, {"id": "6870602ed930970c5354dd2b", "name": "R. Benjamin Constant, 532 - Centro, Guarujá - SP, 11410-270", "lat": -23.99266666666667, "lng": -46.25972222222222}, {"id": "68706013d930970c5354ce01", "name": "R. Silvia Valadão Azevedo, 124 - Barra Funda", "lat": -23.997611111111112, "lng": -46.26438888888889}, {"id": "68705ffed930970c5354c429", "name": "Av. Gen. Rondon, 192 - Vila Alzira", "lat": -24.005194444444445, "lng": -46.26883333333333}, {"id": "68705fe3d930970c5354b7fa", "name": "Av. Gen. Rondon, 722 - Vila Alzira", "lat": -24.009444444444444, "lng": -46.271}, {"id": "68705fcad930970c5354a8cb", "name": "Av. Gen. Rondon, 938 - Vila Alzira, Guarujá - SP, 11420-000", "lat": -24.011694444444444, "lng": -46.271499999999996}, {"id": "68705fb7d930970c5354a128", "name": "Estr. Alexandre Migues Rodrigues, 775 - Jardim Las Palmas", "lat": -24.01372222222222, "lng": -46.274499999999996}, {"id": "68705fa5d930970c535498af", "name": "Praça Ivete Vargas, 81 - Jardim Guaiuba, Guarujá - SP, 11421-020", "lat": -24.014972222222223, "lng": -46.27619444444444}, {"id": "68705f73d930970c5354831f", "name": "Praça Dr. Walter Belian - Jardim Guaiuba, Guarujá - SP, 11421-000", "lat": -24.012944444444443, "lng": -46.281055555555554}, {"id": "686cb86a0b355903adad03a6", "name": "R. Santa Rosa", "lat": -23.9891711, "lng": -46.2432205}, {"id": "686cb86a0b355903adad03a5", "name": "R. Marivaldo Fernandes, 252 - Enseada", "lat": -23.9857809, "lng": -46.2483373}, {"id": "686cb86a0b355903adad03a4", "name": "R. Buenos Aires, 221", "lat": -23.9901058, "lng": -46.2549335}, {"id": "686cb86a0b355903adad03a3", "name": "Atlas Schindler - R. Comendador Vicente Gagliano, 190", "lat": -23.9943129, "lng": -46.2539619}, {"id": "686cb86a0b355903adad03a2", "name": "Av. Puglisi, 537", "lat": -23.9921287, "lng": -46.2586095}, {"id": "686cb86a0b355903adad03a1", "name": "Av. Puglisi, 201", "lat": -23.9949298, "lng": -46.2569515}, {"id": "686cb4d80b355903ad9979ec", "name": "115", "lat": -24.0098, "lng": -46.2723}, {"id": "686cb4d80b355903ad9979eb", "name": "Mercado Extra - Ademar de Barros", "lat": -23.9912, "lng": -46.2784}, {"id": "686cb4d80b355903ad9979ea", "name": "DrogaRaia - Emilio Carlos", "lat": -23.9913, "lng": -46.2549}, {"id": "686cb4d80b355903ad9979e9", "name": "Restaurante Ninos", "lat": -23.9909, "lng": -46.2543}, {"id": "686cb4d80b355903ad9979e8", "name": "R. Quinto Bertoldi, 110 - Vila Maia, Guarujá - SP, 11410-130", "lat": -23.9897, "lng": -46.2542}, {"id": "686cb4d80b355903ad9979e7", "name": "Hospital Santo Amaro", "lat": -23.9905, "lng": -46.2537}, {"id": "686cb4d80b355903ad9979e6", "name": "Doutor Dpvat - Av. Dep. Emílio Carlos, 34 - Vila Maia, Guarujá - SP, 11410-140", "lat": -23.9901, "lng": -46.2532}, {"id": "686cb4d80b355903ad9979e5", "name": "Smart Fit - Enseada", "lat": -23.9892, "lng": -46.2499}, {"id": "686cb4d80b355903ad9979e4", "name": "Taxi Guarujá - Pão de Açucar", "lat": -23.9886, "lng": -46.248}, {"id": "686cb4d80b355903ad9979e3", "name": "R. Campos Sáles, 35 - Vila Julia - Vila Julia, Guarujá - SP, 11440-110", "lat": -23.9852, "lng": -46.2475}, {"id": "686cb4d80b355903ad9979e2", "name": "R. Dois de Junho, 88", "lat": -23.9855, "lng": -46.2453}, {"id": "686cb4d80b355903ad9979e1", "name": "R. João Henrique do Nascimento - Jardim Tejereba, Guarujá - SP, 11440-040", "lat": -23.9864, "lng": -46.2485}, {"id": "686cb4d80b355903ad9979df", "name": "R. Mario Ribeiro, 563 - Centro, Guarujá - SP, 11410-192", "lat": -23.9963, "lng": -46.2593}, {"id": "686cb4d80b355903ad9979de", "name": "R. Benjamin Constant, 248 - Centro, Guarujá - SP,11410-270", "lat": -23.9955, "lng": -46.2579}, {"id": "686cb4d80b355903ad9979dd", "name": "Banco do Brasil - Mario Ribeiro", "lat": -23.9983, "lng": -46.2614}, {"id": "686cb4d80b355903ad9979dc", "name": "R. Cavalheiro Nami Jafet, 100-194 - Centro, Guarujá - SP, 11410-280", "lat": -23.996, "lng": -46.2589}, {"id": "686cb4d80b355903ad9979da", "name": "R. Santos, 92", "lat": -23.9989, "lng": -46.2622}, {"id": "686cb4d80b355903ad9979d9", "name": "Edifício Trinidad E Tobago - Av. Leomil, 195 - Centro, Guarujá - SP, 11410-161", "lat": -23.9975, "lng": -46.2619}, {"id": "686cb4d80b355903ad9979d8", "name": "R. Mario Ribeiro, 89", "lat": -23.9995, "lng": -46.2633}, {"id": "686cb4d80b355903ad9979d7", "name": "R. Santos, 209-101 - Barra Funda, Guarujá - SP, 11410-330", "lat": -23.9981, "lng": -46.2629}, {"id": "686cb4d80b355903ad9979d6", "name": "Av. Leomil, 1387", "lat": -24.0, "lng": -46.2646}, {"id": "686cb4d80b355903ad9979d5", "name": "Av. Leomil, 1460 - Centro, Guarujá - SP, 11410-162", "lat": -24.0002, "lng": -46.2648}, {"id": "686cb4d80b355903ad9979d4", "name": "R. Cubatão, 155", "lat": -24.0011, "lng": -46.2666}, {"id": "686cb4d80b355903ad9979d2", "name": "R. Costa Esmeralda, 61-13 - Jardim Asturias, Guarujá - SP, 11420-105", "lat": -24.0104, "lng": -46.2657}, {"id": "686cb4d80b355903ad9979d0", "name": "R. Emilio Portela, 69", "lat": -24.0103, "lng": -46.2693}, {"id": "686cb4d80b355903ad9979ce", "name": "Av. Prestes Maia - Jardim Las Palmas, Guarujá - SP, 11420-170", "lat": -24.0154, "lng": -46.2766}, {"id": "686cb4d80b355903ad9979cc", "name": "Tombo, Гуаружа - Сан-Паулу", "lat": -24.0147, "lng": -46.2744}, {"id": "686cb4d80b355903ad9979cb", "name": "Guarujá, Гуаружа - Сан-Паулу, 11420-170", "lat": -24.0143, "lng": -46.2738}, {"id": "686cb4d80b355903ad9979ca", "name": "R. Waibo Chamas, 65", "lat": -24.0103, "lng": -46.2704}, {"id": "686cb4d80b355903ad9979c9", "name": "OXXO - Ferramigues", "lat": -24.0112, "lng": -46.2698}, {"id": "686cb4d80b355903ad9979c8", "name": "R. Jorge Chaddad, 27", "lat": -24.0112, "lng": -46.2719}, {"id": "686cb4d80b355903ad9979c7", "name": "Feira de Artesanato - Asturias", "lat": -24.009, "lng": -46.2705}, {"id": "686cb4d80b355903ad9979c6", "name": "Suzuki do Guarujá Construções - R. Dr. Gervásio Bonavides, 36 - Vila Luis Antonio, Guarujá - SP, 11420-210", "lat": -24.0055, "lng": -46.2714}, {"id": "686cb4d80b355903ad9979c5", "name": "R. José da Silva Rainho, 900", "lat": -24.0059, "lng": -46.2724}, {"id": "686cb4d80b355903ad9979c4", "name": "R. Osvaldo Rubéns Lourenço, 118-150 - Jardim Las Palmas, Guarujá - SP, 11420-430", "lat": -24.0072, "lng": -46.2731}, {"id": "686cb4d80b355903ad9979c3", "name": "Edifício Ubirama - R. José da Silva Rainho - Jardim Las Palmas, Guarujá - SP, 11420-220", "lat": -24.0086, "lng": -46.2746}, {"id": "686cb4d80b355903ad9979c2", "name": "R. José da Silva Rainho, 775", "lat": -24.0101, "lng": -46.2745}, {"id": "686cb4d80b355903ad9979c1", "name": "R. José da Silva Rainho, 811-777 - Jardim Las Palmas, Guarujá - SP, 11420-390", "lat": -24.0115, "lng": -46.2754}, {"id": "686cb4d80b355903ad9979c0", "name": "R. Rosendo Amado, 131", "lat": -24.0125, "lng": -46.2766}, {"id": "686cb4d80b355903ad9979bf", "name": "R. José da Silva Rainho, 909 - Jardim Las Palmas, Guarujá - SP, 11420-390", "lat": -24.0121, "lng": -46.276}, {"id": "686cb4d80b355903ad9979be", "name": "Av. dos Caiçaras, 263", "lat": -24.0115, "lng": -46.278}, {"id": "686cb4d80b355903ad9979bd", "name": "Av. dos Caiçaras, 425", "lat": -24.0094, "lng": -46.2757}, {"id": "686cb4d80b355903ad9979bc", "name": "Av. dos Caiçaras - Jardim Las Palmas, Guarujá - SP, 11420-440", "lat": -24.0102, "lng": -46.2764}, {"id": "686cb4d80b355903ad9979bb", "name": "Av. dos Caiçaras, 653 - Jardim Las Palmas, Guarujá - SP, 11420-440", "lat": -24.0087, "lng": -46.2756}, {"id": "686cb4d80b355903ad9979ba", "name": "Supermercado Ilha Las Palmas", "lat": -24.008, "lng": -46.2753}, {"id": "686cb4d80b355903ad9979b9", "name": "Mini Extra - R. Osvaldo Rubéns Lourenço, 268 - Jardim Las Palmas, Guarujá - SP, 11420-430", "lat": -24.0064, "lng": -46.2741}, {"id": "686cb4d80b355903ad9979b8", "name": "Av. dos Caiçaras, 1005", "lat": -24.0055, "lng": -46.274}, {"id": "686cb4d80b355903ad9979b7", "name": "QI'Maravilha - Av. dos Caiçaras, 1145 - sala 02 - Jardim Las Palmas, Guarujá - SP, 11420-440", "lat": -24.0045, "lng": -46.2737}, {"id": "686cb4d80b355903ad9979b6", "name": "Av. Dom Pedro I, 1530 - Jardim Vitoria, Guarujá - SP, 11440-001", "lat": -23.9833, "lng": -46.2353}, {"id": "686cb4d80b355903ad9979b5", "name": "MB3 luxury - Av. Dom Pedro I, 1782 - Balneario Cidade Atlantica, Guarujá - SP, 11440-003", "lat": -23.983, "lng": -46.2343}, {"id": "686cb4d80b355903ad9979b4", "name": "Condomínio Edifício Mônica - Av. Dom Pedro I, 1825 - Jardim Vitoria, Guarujá - SP, 11440-002", "lat": -23.9829, "lng": -46.2355}, {"id": "686cb4d80b355903ad9979b3", "name": "R. Colômbia, 619", "lat": -23.9818, "lng": -46.2346}, {"id": "686cb4d80b355903ad9979b2", "name": "Av. Dom Pedro I, 2000 - Jardim Belmar, Guarujá - SP, 11440-002", "lat": -23.9824, "lng": -46.2297}, {"id": "686cb4d80b355903ad9979b1", "name": "R. Paraguai, 16", "lat": -23.9817, "lng": -46.2279}, {"id": "686cb4d80b355903ad9979b0", "name": "Av. Dom Pedro I, 2232 - Jardim Belmar, Guarujá - SP, 11440-002", "lat": -23.9821, "lng": -46.2297}, {"id": "686cb4d80b355903ad9979af", "name": "Av. Dom Pedro I, 2360 - Jardim Belmar, Guarujá - SP, 11440-002", "lat": -23.9817, "lng": -46.2283}, {"id": "686cb4d80b355903ad9979ae", "name": "R. Norberto de Freitas, 235", "lat": -23.98, "lng": -46.2325}, {"id": "686cb4d80b355903ad9979ad", "name": "Dia Supermercado - Av. Dom Pedro I, 2618 - Jardim Vitoria, Guarujá - SP, 11440-002", "lat": -23.981, "lng": -46.2267}, {"id": "686cb4d80b355903ad9979ac", "name": "Av. Dom Pedro I - Jardim Belmar, Guarujá - SP, 11440-002", "lat": -23.9806, "lng": -46.2263}, {"id": "686cb4d80b355903ad9979ab", "name": "Rocaz Construtora - R. José Ferreira Canaes Filho, 789 - Enseada, Guarujá - SP, 11441-300", "lat": -23.9792, "lng": -46.2247}, {"id": "686cb4d80b355903ad9979aa", "name": "PONTO DE ÔNIBUS - Av. Dom Pedro I - Balneário Guarujá, Guarujá - SP, 11442-010", "lat": -23.9786, "lng": -46.2242}, {"id": "686cb4d80b355903ad9979a9", "name": "Av. Dom Pedro I, 382 - Enseada II, Guarujá - SP, 11442-010", "lat": -23.9782, "lng": -46.2237}, {"id": "686cb4d80b355903ad9979a8", "name": "Estância Das Carnes - Enseada Guarujá - Av. Atlântica, 895 - Enseada, Guarujá - SP, 11442-070", "lat": -23.9773, "lng": -46.2229}, {"id": "686cb4d80b355903ad9979a7", "name": "Av. Atlântica, 113 - Balneário Guarujá, Guarujá - SP, 11442-070", "lat": -23.9769, "lng": -46.2223}, {"id": "686cb4d80b355903ad9979a6", "name": "R. Mario Ribeiro, 261 - Centro, Guarujá - SP, 11410-190", "lat": -23.9948, "lng": -46.2546}, {"id": "686cb4d80b355903ad9979a3", "name": "Av. Dom Pedro I, 618 - Enseada - Vila Julia, Guarujá - SP, 11440-200", "lat": -23.9877, "lng": -46.245}, {"id": "686cb4d80b355903ad9979a2", "name": "Condomínio Edifício RHODES - R. Ignácio Miguel Estefno, 371 - Jardim Tres Marias, Guarujá - SP, 11440-160", "lat": -23.9864, "lng": -46.2409}, {"id": "686cb4d80b355903ad9979a1", "name": "R. Ciro Alves, 272", "lat": -23.9835, "lng": -46.2398}, {"id": "686cb4d80b355903ad9979a0", "name": "Av. Dom Pedro I - Jardim Tres Marias, Guarujá - SP, 11440-001", "lat": -23.986, "lng": -46.2421}, {"id": "686cb4d80b355903ad99799f", "name": "Ed. Karla - Av. Dom Pedro I, 1150 - Jardim Tres Marias, Guarujá - SP, 11440-001", "lat": -23.9852, "lng": -46.2401}, {"id": "686cb4d80b355903ad99799e", "name": "R. José Silva Figueiredo, 638", "lat": -23.9824, "lng": -46.2377}, {"id": "686cb4d80b355903ad99799d", "name": "Oggi Sorvetes Dom Pedro - Av. Dom Pedro I, 1308 - Jardim Tres Marias, Guarujá - SP, 11440-002", "lat": -23.9845, "lng": -46.2391}, {"id": "686cb4d80b355903ad99799c", "name": "Av. Dom Pedro I - Jardim Tres Marias, Guarujá - SP, 11440-002", "lat": -23.9841, "lng": -46.2381}, {"id": "686cb4d80b355903ad99799b", "name": "Attila Consultoria - Guarujá - Av. Dom Pedro I, 1502 - Jardim Tres Marias, Guarujá - SP, 11440-001", "lat": -23.9837, "lng": -46.2373}, {"id": "686cb4d80b355903ad99799a", "name": "Santa Bola Futebol Society", "lat": -23.982, "lng": -46.2357}, {"id": "686cb4d80b355903ad997994", "name": "R. Marivaldo Fernandes, 147-73 - Jardim Tejereba, Guarujá - SP, 11440-050", "lat": -23.9854, "lng": -46.2482}, {"id": "686cb4d80b355903ad997993", "name": "Av. da Saudade, 600", "lat": -23.9852, "lng": -46.2443}, {"id": "686cb4d80b355903ad997992", "name": "R. Marivaldo Fernandes, 252 - Enseada, Guarujá - SP, 11440-050", "lat": -23.9858, "lng": -46.2438}, {"id": "686cb4d80b355903ad997991", "name": "R. Marivaldo Fernandes, 102 - Jardim Tejereba, Guarujá - SP, 11440-050", "lat": -23.9872, "lng": -46.2476}, {"id": "686cb4d80b355903ad997990", "name": "R. Ignacio Miguel Estefno, 564", "lat": -23.9851, "lng": -46.2432}, {"id": "686cb4d80b355903ad99798f", "name": "R. Marivaldo Fernandes, 290 - Enseada, Guarujá - SP, 11440-050", "lat": -23.9885, "lng": -46.247}, {"id": "686cb4d80b355903ad99798e", "name": "R. José Silva Figueiredo, 78", "lat": -23.9847, "lng": -46.2426}, {"id": "686cb4d80b355903ad99798d", "name": "R. José Silva Figueiredo, 122", "lat": -23.9844, "lng": -46.2419}, {"id": "686c4043ba3bb3d759edf1a6", "name": "Av. Miguel Estefno, 142-244 – Jardim Tejereba", "lat": -23.995, "lng": -46.24919444444445}, {"id": "686487e6f56745bfca051501", "name": "R. Manoel Hipólito do Rego, 200 – Jardim Boa Esperança, Guarujá/SP (Duplicado 28)", "lat": -23.978694444444443, "lng": -46.22933333333334}, {"id": "686487d4f56745bfca050eab", "name": "Próx. Supermercado Krill – Jardim Boa Esperança, Guarujá/SP (Duplicado 27)", "lat": -23.977999999999998, "lng": -46.229194444444445}, {"id": "686487b1f56745bfca04ff4a", "name": "R. Manoel Hipólito do Rego, 51 – Jardim Boa Esperança, Guarujá/SP (Duplicado 26)", "lat": -23.977027777777778, "lng": -46.228388888888894}, {"id": "6864879cf56745bfca04f718", "name": "Próx. EMEF Dirce Valério Gracia – Jardim Boa Esperança, Guarujá/SP (Duplicado 25)", "lat": -23.977249999999998, "lng": -46.22613888888889}, {"id": "6864878bf56745bfca04f149", "name": "Av. Áurea Gonzalez de Conde, 600 – Jardim Boa Esperança, Guarujá/SP (Duplicado 24)", "lat": -23.977833333333333, "lng": -46.22686111111111}, {"id": "68648776f56745bfca04e815", "name": "R. D. João VI, 280 – Jardim Boa Esperança, Guarujá/SP (Duplicado 23)", "lat": -23.97986111111111, "lng": -46.22794444444445}, {"id": "68648764f56745bfca04e172", "name": "R. D. João VI, 132 – Jardim Boa Esperança, Guarujá/SP (Duplicado 22)", "lat": -23.98122222222222, "lng": -46.22925}, {"id": "68648749f56745bfca04d7a0", "name": "Próx. EMEF Maria Aparecida Ramos – Vila Ballena, Guarujá/SP (Duplicado 21)", "lat": -23.983666666666668, "lng": -46.226444444444446}, {"id": "6864872bf56745bfca04ca73", "name": "R. São José, 70 – Vila Ballena, Guarujá/SP (Duplicado 20)", "lat": -23.982333333333333, "lng": -46.22466666666667}, {"id": "68648719f56745bfca04c3f1", "name": "Próx. Padaria Ideal – Vila Ballena, Guarujá/SP (Duplicado 19)", "lat": -23.981805555555553, "lng": -46.22413888888889}, {"id": "686486fff56745bfca04ba9d", "name": "R. São Vicente, 299 – Vila Ballena, Guarujá/SP (Duplicado 18)", "lat": -23.982249999999997, "lng": -46.22377777777778}, {"id": "686486eaf56745bfca04af8a", "name": "R. São Vicente, 202 – Vila Ballena, Guarujá/SP (Duplicado 17)", "lat": -23.982166666666664, "lng": -46.222861111111115}, {"id": "686486d0f56745bfca04a512", "name": "R. São João, 401 – Vila Ballena, Guarujá/SP (Duplicado 16)", "lat": -23.984638888888888, "lng": -46.223305555555555}, {"id": "6864869cf56745bfca048d84", "name": "R. Washington, 150 – Vila Ballena, Guarujá/SP (Duplicado 14)", "lat": -23.985722222222222, "lng": -46.22727777777778}, {"id": "68648686f56745bfca04840a", "name": "R. Uape, 68 - Balneario Cidade Atlantica", "lat": -23.985264971666222, "lng": -46.22810578941424}, {"id": "68648635f56745bfca04653c", "name": "Próx. Supermercado Pague Menos – Centro, Guarujá/SP (Duplicado 11)", "lat": -23.985666666666667, "lng": -46.23130555555556}, {"id": "6864861df56745bfca045b98", "name": "R. Santo Amaro, 492 – Guarujá Centro (Duplicado 10)", "lat": -23.98438888888889, "lng": -46.230361111111115}, {"id": "68648601f56745bfca0451e9", "name": "R. Santo Amaro, 292 – Guarujá Centro (Duplicado 9)", "lat": -23.984, "lng": -46.23258333333334}, {"id": "686485e8f56745bfca044653", "name": "Próx. Restaurante Maré Alta – Santo Antônio, Guarujá/SP (Duplicado 8)", "lat": -23.985555555555557, "lng": -46.22438888888889}, {"id": "686485d0f56745bfca043d29", "name": "Bairro Santo Antônio – Guarujá/SP (Duplicado 7)", "lat": -23.984583333333333, "lng": -46.2215}, {"id": "686485b7f56745bfca043397", "name": "Próx. Escola Municipal João da Silva – Santo Antônio, Guarujá/SP (Duplicado 6)", "lat": -23.98402777777778, "lng": -46.21933333333334}, {"id": "686485a4f56745bfca042ae1", "name": "Av. Adhemar de Barros, 230 – Santo Antônio, Guarujá/SP (Duplicado 5)", "lat": -23.98402777777778, "lng": -46.21736111111111}, {"id": "6864858cf56745bfca0421db", "name": "R. Dom Pedro II, 200 – Centro, Guarujá/SP (Duplicado 4)", "lat": -23.980083333333333, "lng": -46.212944444444446}, {"id": "68648571f56745bfca041785", "name": "R. Vera Cruz, 45 – Centro, Guarujá/SP (Duplicado 3)", "lat": -23.98247222222222, "lng": -46.21441666666667}, {"id": "68648559f56745bfca040c8a", "name": "Estação Rodoviária de Guarujá, Av. Santos Dumont, 840 – Santo Antônio, Guarujá/SP (Duplicado 2)", "lat": -23.982555555555553, "lng": -46.21222222222222}, {"id": "68648540f56745bfca0403ba", "name": "Prefeitura Municipal de Guarujá, Av. Santos Dumont, 800 – Santo Antônio, Guarujá/SP (Duplicado 1)", "lat": -23.981583333333333, "lng": -46.21338888888889}, {"id": "6864852bf56745bfca03faa2", "name": "Praça da República – Centro, Guarujá – SP", "lat": -23.978666666666665, "lng": -46.22069444444445}, {"id": "6864851af56745bfca03f142", "name": "Rua Vera Cruz, 250 – Centro, Guarujá – SP", "lat": -23.97861111111111, "lng": -46.21286111111112}, {"id": "6864850af56745bfca03eb71", "name": "Escola Estadual – Santo Antônio, Guarujá – SP", "lat": -23.97883333333333, "lng": -46.21127777777778}, {"id": "686484f1f56745bfca03e119", "name": "Av. Santos Dumont, 1350 – Santo Antônio, Guarujá – SP", "lat": -23.978638888888888, "lng": -46.21402777777778}, {"id": "686484dcf56745bfca03d7db", "name": "Próx. Estação de Ônibus – Centro, Guarujá – SP", "lat": -23.97861111111111, "lng": -46.21472222222223}, {"id": "686484c8f56745bfca03d088", "name": "Rua Dom Pedro II, 400 – Centro, Guarujá – SP", "lat": -23.97861111111111, "lng": -46.21588888888889}, {"id": "686484b5f56745bfca03c9e5", "name": "Praça da Bandeira – Santo Antônio, Guarujá – SP", "lat": -23.978777777777776, "lng": -46.21752777777778}, {"id": "68648470f56745bfca03adb0", "name": "Hospital Santo Antônio – Guarujá – SP", "lat": -23.983666666666668, "lng": -46.23066666666667}, {"id": "68648458f56745bfca03a4b7", "name": "Av. Santos Dumont, 1300 – Santo Antônio, Guarujá – SP", "lat": -23.98477777777778, "lng": -46.23211111111112}, {"id": "68648448f56745bfca039c10", "name": "Próx. Banco Bradesco – Santo Antônio, Guarujá – SP", "lat": -23.985861111111113, "lng": -46.23211111111112}, {"id": "68648411f56745bfca03871b", "name": "Rua Vera Cruz, 200 – Centro, Guarujá – SP", "lat": -23.986, "lng": -46.236916666666666}, {"id": "686483f8f56745bfca037aba", "name": "Escola Municipal – Santo Antônio, Guarujá – SP", "lat": -23.98627777777778, "lng": -46.233472222222225}, {"id": "686483dcf56745bfca037057", "name": "Av. Santos Dumont, 1250 – Santo Antônio, Guarujá – SP", "lat": -23.98675, "lng": -46.23569444444445}, {"id": "686483c1f56745bfca036475", "name": "Próx. Praça da Matriz – Centro, Guarujá – SP", "lat": -23.985777777777777, "lng": -46.236000000000004}, {"id": "686483a9f56745bfca035c2f", "name": "Rua Dom Pedro II, 300 – Centro, Guarujá – SP", "lat": -23.98552777777778, "lng": -46.235}, {"id": "6864838ef56745bfca035264", "name": "Hospital Santo Antônio – Guarujá – SP", "lat": -23.985166666666668, "lng": -46.233666666666664}, {"id": "68648376f56745bfca034711", "name": "Av. Santos Dumont, 1100 – Santo Antônio, Guarujá – SP", "lat": -23.984972222222222, "lng": -46.23302777777778}, {"id": "68648358f56745bfca033c18", "name": "Próx. Câmara Municipal – Centro, Guarujá – SP", "lat": -23.984861111111112, "lng": -46.23619444444444}, {"id": "68648340f56745bfca033233", "name": "Estação Rodoviária – Centro, Guarujá – SP", "lat": -23.984555555555556, "lng": -46.235055555555554}, {"id": "6864832df56745bfca032b03", "name": "Rua Rui Barbosa, 450 – Centro, Guarujá – SP", "lat": -23.984222222222222, "lng": -46.23383333333334}, {"id": "68648317f56745bfca032263", "name": "Próx. Mercado Municipal – Centro, Guarujá – SP", "lat": -23.984, "lng": -46.23305555555556}, {"id": "686482fcf56745bfca0313ed", "name": "Praça da Bíblia – Centro, Guarujá – SP", "lat": -23.981111111111108, "lng": -46.216750000000005}, {"id": "686482e6f56745bfca030b8d", "name": "Rua Vera Cruz, 120 – Centro, Guarujá – SP", "lat": -23.981111111111108, "lng": -46.21588888888889}, {"id": "686482bff56745bfca02f820", "name": "Av. Santos Dumont, 950 – Santo Antônio, Guarujá – SP", "lat": -23.98386111111111, "lng": -46.214333333333336}, {"id": "686482a8f56745bfca02eea1", "name": "Próx. Escola Municipal – Santo Antônio, Guarujá – SP", "lat": -23.982805555555554, "lng": -46.21527777777778}, {"id": "68648290f56745bfca02e39a", "name": "Praça Madre Teresa – Santo Antônio, Guarujá – SP", "lat": -23.982833333333332, "lng": -46.22113888888889}, {"id": "68648279f56745bfca02d8af", "name": "Rua Dom Pedro II, 50 – Santo Antônio, Guarujá – SP", "lat": -23.98286111111111, "lng": -46.22288888888889}, {"id": "68648259f56745bfca02ccd2", "name": "Próx. Hospital Santo Antônio – Guarujá – SP", "lat": -23.981027777777776, "lng": -46.22252777777778}, {"id": "68648240f56745bfca02c173", "name": "Av. Santos Dumont, 900 – Santo Antônio, Guarujá – SP", "lat": -23.981055555555553, "lng": -46.223194444444445}, {"id": "68648229f56745bfca02b8a1", "name": "Estação de Trem (Guarujá) – Centro, Guarujá – SP", "lat": -23.98108333333333, "lng": -46.219944444444444}, {"id": "68648213f56745bfca02afbf", "name": "Rua Rui Barbosa, 300 – Centro, Guarujá – SP", "lat": -23.98338888888889, "lng": -46.21944444444445}, {"id": "68648201f56745bfca02a75c", "name": "Próx. Banco Itaú – Centro, Guarujá – SP", "lat": -23.983361111111112, "lng": -46.218250000000005}, {"id": "686481e9f56745bfca029e29", "name": "Praça da Bandeira – Centro, Guarujá – SP", "lat": -23.983333333333334, "lng": -46.21705555555556}, {"id": "686481d4f56745bfca0295d5", "name": "Rua Anchieta, 120 – Centro, Guarujá – SP", "lat": -23.982499999999998, "lng": -46.21947222222222}, {"id": "686481b8f56745bfca028844", "name": "Avenida Paulo Matarazzo, prox. ao nº 1000 – Jardim Virgínia, Guarujá – SP, 11442-450", "lat": -23.982444444444443, "lng": -46.21816666666667}, {"id": "68648199f56745bfca0238c1", "name": "Avenida Paulo Matarazzo, 894 – Jardim Virgínia, Guarujá – SP, 11442-450", "lat": -23.982388888888888, "lng": -46.217083333333335}, {"id": "68648180f56745bfca022f6e", "name": "Avenida Paulo Matarazzo, 365 – Jardim Virgínia, Guarujá – SP, 11442-450", "lat": -23.982444444444443, "lng": -46.215333333333334}, {"id": "6864815cf56745bfca021f30", "name": "Avenida Paulo Matarazzo, 70 – Jardim Virgínia, Guarujá – SP, 11442-450", "lat": -23.983666666666668, "lng": -46.212833333333336}, {"id": "68648140f56745bfca021397", "name": "Avenida Dom Pedro I, 2800 – Enseada, Guarujá – SP, 11440-003", "lat": -23.982249999999997, "lng": -46.209722222222226}, {"id": "68648126f56745bfca0205c8", "name": "Rua Armando Salles de Oliveira, 170 – Jardim Três Marias (Enseada), Guarujá – SP", "lat": -23.98386111111111, "lng": -46.209722222222226}, {"id": "686480f7f56745bfca01f34d", "name": "Morro da Campina (canto leste da Praia da Enseada) – Guarujá – SP", "lat": -23.98136111111111, "lng": -46.21052777777778}, {"id": "686480e2f56745bfca01ea44", "name": "Av. Miguel Estefano, 4900 – Praia da Enseada, Guarujá – SP (Chaveiro/serviços)", "lat": -23.979138888888887, "lng": -46.20966666666667}, {"id": "686480c5f56745bfca01df7d", "name": "Rua Acre, s/n – Jardim Virgínia, Guarujá – SP, 11442-190", "lat": -23.979694444444444, "lng": -46.20933333333333}, {"id": "686480aff56745bfca01d6a7", "name": "Av. Prof. João Batista Julião, 100 – Jardim Virgínia (Praia da Enseada), Guarujá – SP, 11442-330", "lat": -23.979611111111108, "lng": -46.21022222222223}, {"id": "68648094f56745bfca01c999", "name": "Av. Prof. João Batista Julião, 200 – Jardim Virgínia, Guarujá – SP, 11442-330", "lat": -23.979388888888888, "lng": -46.21113888888889}, {"id": "6864806df56745bfca01ba66", "name": "Av. Prof. João Batista Julião, 300 – Jardim Virgínia, Guarujá – SP, 11442-330", "lat": -23.979277777777774, "lng": -46.21205555555556}, {"id": "68647fbcf56745bfca01752e", "name": "Av. Prof. João Batista Julião, prox. ao nº 700 – Jardim Virgínia, Guarujá – SP, 11442-330", "lat": -23.98086111111111, "lng": -46.21458333333334}, {"id": "68647fa5f56745bfca0169d0", "name": "Rua Vítor Delamare, 299 – Jardim Virgínia, Guarujá – SP, 11442-320", "lat": -23.981805555555553, "lng": -46.21797222222222}, {"id": "68647f89f56745bfca015dc0", "name": "Rua Vítor Delamare, 230 – Jardim Virgínia, Guarujá – SP, 11442-320", "lat": -23.980916666666666, "lng": -46.21763888888889}, {"id": "68647f59f56745bfca014931", "name": "Av. Prof. João Batista Julião, prox. ao nº 950 – Jardim Virgínia, Guarujá – SP, 11442-330", "lat": -23.979166666666664, "lng": -46.216722222222224}, {"id": "68647f3df56745bfca013d73", "name": "Rua Abdala Daige, 450 – Balneário Cidade Atlântica, Guarujá – SP, 11442-370", "lat": -23.980083333333333, "lng": -46.215250000000005}, {"id": "686474e8f56745bfcafce609", "name": "R. da Paz, 119 – Jardim Boa Esperança, Guarujá/SP", "lat": -23.987664106593765, "lng": -46.205088347196586}, {"id": "686474cef56745bfcafcdbba", "name": "R. Vinte e Oito, 180 – Jardim Boa Esperança, Guarujá/SP", "lat": -23.987472222222223, "lng": -46.20419444444445}, {"id": "686474bbf56745bfcafcd229", "name": "Próx. UBS Jardim Boa Esperança – Guarujá/SP", "lat": -23.988194444444446, "lng": -46.20269444444445}, {"id": "686474aaf56745bfcafccb35", "name": "R. Campos Sales, 32 – Jardim Boa Esperança, Guarujá/SP", "lat": -23.98638888888889, "lng": -46.23863888888889}, {"id": "6864749df56745bfcafcc601", "name": "Próx. Colégio Objetivo – Jardim Boa Esperança, Guarujá/SP", "lat": -23.985333333333333, "lng": -46.237}, {"id": "6864748cf56745bfcafcbeb9", "name": "R. Guarujá, 15 – Jardim Boa Esperança, Guarujá/SP", "lat": -23.983361111111112, "lng": -46.23630555555555}, {"id": "6864747cf56745bfcafcb68c", "name": "Terminal Rodoviário Dom Pedro I – Jardim Boa Esperança, Guarujá/SP", "lat": -23.98147222222222, "lng": -46.234861111111115}, {"id": "6864746df56745bfcafcaf90", "name": "Av. Dom Pedro I, 230 – Jardim Boa Esperança, Guarujá/SP", "lat": -23.980444444444444, "lng": -46.23275}, {"id": "6864745df56745bfcafca8a2", "name": "Av. Dom Pedro I, 101 – Jardim Boa Esperança, Guarujá/SP", "lat": -23.980444444444444, "lng": -46.23275}, {"id": "6864744cf56745bfcafca155", "name": "Próx. Praça 14 Bis – Jardim Boa Esperança, Guarujá/SP", "lat": -23.980361111111108, "lng": -46.23122222222222}, {"id": "6864743af56745bfcafc970f", "name": "R. Manoel Hipólito do Rego, 333 – Jardim Boa Esperança, Guarujá/SP", "lat": -23.979944444444442, "lng": -46.22902777777778}, {"id": "6852d4867e7863ef179dd112", "name": "Banca Roxa - Av. Ademar de Barros", "lat": -23.989555555555558, "lng": -46.28963888888889}, {"id": "6852d46d7e7863ef179cfd8d", "name": "Av. Puglisi - Av. Ademar de Barros", "lat": -23.989250000000002, "lng": -46.26075}, {"id": "6852d4567e7863ef179c6a5a", "name": "Da Vera Praia da Enseada", "lat": -23.985611111111112, "lng": -46.22119444444445}, {"id": "6852d43e7e7863ef179c3881", "name": "Luna Praia da Enseada", "lat": -23.98502777777778, "lng": -46.21238888888889}, {"id": "6852d4277e7863ef179bf4b3", "name": "Dunas Praia da Enseada", "lat": -23.98488888888889, "lng": -46.21463888888889}, {"id": "6852d40e7e7863ef179bcca0", "name": "Posto Salva Vidas Praia da Enseada", "lat": -23.98488888888889, "lng": -46.216972222222225}, {"id": "6852d3f87e7863ef179baea0", "name": "Mar Show Praia da Enseada", "lat": -23.984944444444444, "lng": -46.21886111111111}, {"id": "6852d3e27e7863ef179b8750", "name": "Pérola da Ilha Praia da Enseada", "lat": -23.986, "lng": -46.22358333333334}, {"id": "6852d3cb7e7863ef179b66ad", "name": "Queiroz Praia da Enseada", "lat": -23.988611111111112, "lng": -46.236805555555556}, {"id": "6852d3b47e7863ef179af557", "name": "Delphin Praia da Enseada", "lat": -23.989083333333333, "lng": -46.23863888888889}, {"id": "6852d3967e7863ef179a3aff", "name": "Casagrande Praia da Enseada", "lat": -23.990083333333335, "lng": -46.24175}, {"id": "6852d3687e7863ef1798cd6f", "name": "Tejereba Praia da Enseada", "lat": -23.99113888888889, "lng": -46.2455}, {"id": "6852d3507e7863ef17988b45", "name": "Praça Praia da Enseada", "lat": -23.99188888888889, "lng": -46.24713888888889}, {"id": "6852d32d7e7863ef17976226", "name": "Entrada Praia da Enseada", "lat": -23.992833333333333, "lng": -46.24841666666667}, {"id": "6852d3117e7863ef1796ee21", "name": "Quiosque da Nete - Enseada", "lat": -23.9865, "lng": -46.20716666666667}, {"id": "6852d2f97e7863ef17966a13", "name": "Rufino’s Restaurant", "lat": -23.988166666666668, "lng": -46.20488888888889}, {"id": "6852d2dd7e7863ef1795e4ab", "name": "Empório Baruck - Enseada", "lat": -23.989555555555558, "lng": -46.20333333333333}, {"id": "6852d2c07e7863ef17958e36", "name": "Fim da Ciclovia - Praia da Enseada", "lat": -23.990583333333333, "lng": -46.202555555555556}, {"id": "6852d28c7e7863ef1793d804", "name": "Quiosque da Tereza - Enseada", "lat": -23.987916666666667, "lng": -46.23436111111111}, {"id": "6852d2737e7863ef17931028", "name": "Jerônimo Track - Praia da Enseada", "lat": -23.987111111111112, "lng": -46.23097222222222}, {"id": "6852d25b7e7863ef1792bf91", "name": "Av. Miguel Estefno - Praia da Enseada", "lat": -23.986694444444446, "lng": -46.229083333333335}, {"id": "6852d2457e7863ef1791fedb", "name": "Corpo de Bombeiros - Enseada", "lat": -23.986361111111112, "lng": -46.22655555555556}, {"id": "6852d2147e7863ef1790b3ed", "name": "Morada do Sol - Enseada", "lat": -23.98613888888889, "lng": -46.22502777777778}, {"id": "6852d1827e7863ef178f571a", "name": "Entrada da Praia das Astúrias", "lat": -24.010694444444443, "lng": -46.26694444444444}, {"id": "6852d10c7e7863ef178d21fe", "name": "Terceira Entrada Praia das Astúria", "lat": -24.009, "lng": -46.26875}, {"id": "6852d0ef7e7863ef178bdc53", "name": "Posto de Salva Vidas - Praia das Astúrias", "lat": -24.00836111111111, "lng": -46.26888888888889}, {"id": "6852d0897e7863ef178808eb", "name": "Forte dos Astúrias", "lat": -24.007, "lng": -46.26872222222222}, {"id": "6852d03d7e7863ef178610c2", "name": "Bicicletário Praia das Astúrias", "lat": -24.005583333333334, "lng": -46.26811111111111}, {"id": "6852d0247e7863ef178593f0", "name": "Piquiu - Praia das Astúrias", "lat": -24.004805555555556, "lng": -46.26766666666666}, {"id": "6852cff17e7863ef1784bcd5", "name": "Final Praia das Astúrias", "lat": -24.004305555555554, "lng": -46.26741666666666}, {"id": "6852cfd77e7863ef17845007", "name": "Sobre as ondas - Praia das Pitangueiras", "lat": -24.002666666666666, "lng": -46.26580555555555}, {"id": "6852cf897e7863ef1782a987", "name": "Posto de Bombeiros - Praia das Astúrias", "lat": -24.001583333333333, "lng": -46.26466666666666}, {"id": "6852cf6d7e7863ef17823b33", "name": "Academia Poliesportiva - Praia das Pitangueiras", "lat": -24.00113888888889, "lng": -46.26402777777778}, {"id": "6852cf4d7e7863ef1781bd8c", "name": "Pinhal - Praia das Astúrias", "lat": -24.000722222222223, "lng": -46.263416666666664}, {"id": "6852cf1d7e7863ef1780a117", "name": "Umuarama - Praia das Pitangueiras", "lat": -23.999972222222222, "lng": -46.262027777777774}, {"id": "6852cefe7e7863ef177ff9d8", "name": "Monduba Praia das Pitangueiras", "lat": -23.99961111111111, "lng": -46.26138888888889}, {"id": "6852ce707e7863ef177b8406", "name": "Ilha do Sol - Praia das Pitangueiras", "lat": -23.999194444444445, "lng": -46.260555555555555}, {"id": "6852ce577e7863ef177b1602", "name": "Copacabana Praia das Pitangueiras", "lat": -23.99886111111111, "lng": -46.25991666666667}, {"id": "6852ce367e7863ef177aa40f", "name": "Golfinho Praia das Pitangueiras", "lat": -23.998583333333336, "lng": -46.25925}, {"id": "6852cdeb7e7863ef177956d4", "name": "Shopping La Plage Praia das Pitangueiras", "lat": -23.99727777777778, "lng": -46.25702777777778}, {"id": "6852cd337e7863ef17761406", "name": "Pesca Astúrias", "lat": -24.009916666666665, "lng": -46.26616666666666}, {"id": "685268217e7863ef178d74bf", "name": "R. José Ferreira Canaes Filho, 402-510 - Balneario Cidade Atlantica, Guarujá - SP, 11441-300", "lat": -23.979444444444443, "lng": -46.224944444444446}, {"id": "685267e27e7863ef178c57d9", "name": "R. Marivaldo Fernandes, 835-681 - Jardim Tejereba, Guarujá - SP, 11440-050", "lat": -23.990916666666667, "lng": -46.24577777777778}, {"id": "685267c27e7863ef178ba3a7", "name": "R. Silvio Daige, 215 - Jardim Tejereba, Guarujá - SP, 11440-550", "lat": -23.989055555555556, "lng": -46.248083333333334}, {"id": "6852679e7e7863ef178ab37f", "name": "Jardim Tejereba, Гуаружа - Сан-Паулу", "lat": -23.99105555555556, "lng": -46.247166666666665}, {"id": "685267007e7863ef1788f22d", "name": "Rua Silvia Constantino de Souza, 78-144 - Vila Maia, Guarujá - SP, 11410-170", "lat": -23.99361111111111, "lng": -46.253083333333336}, {"id": "685266c67e7863ef178889c4", "name": "R. Quintino Bocaiuva - Centro, Guarujá - SP, 11410-161", "lat": -23.994305555555556, "lng": -46.255833333333335}, {"id": "685266a97e7863ef178866fc", "name": "Para Raios Prevetec - Av. Leomil, 375 - Pitangueiras, Guarujá - SP, 11410-161", "lat": -23.994833333333336, "lng": -46.25675}, {"id": "685266817e7863ef1788379e", "name": "R. Santo Amaro, 245 - Vila Maia, Guarujá - SP, 11410-070", "lat": -23.993555555555556, "lng": -46.255}, {"id": "6852661f7e7863ef17867a77", "name": "R. Santo Amaro, 463-439 - Vila Maia, Guarujá - SP, 11410-070", "lat": -23.991861111111113, "lng": -46.256}, {"id": "685266017e7863ef178596a9", "name": "R. Montenegro, 173 - Vila Maia, Guarujá - SP, 11410-040", "lat": -23.992361111111112, "lng": -46.25688888888889}, {"id": "685265df7e7863ef17841c12", "name": "Rei Clinic - Buenos Aires, n 535, Sala 81 - Centro, Guarujá - SP, 11410-010", "lat": -23.990944444444445, "lng": -46.25658333333333}, {"id": "685265c07e7863ef17836550", "name": "Consultório Odontológico - R. Buenos Aires, 544 - Vila Maia, Guarujá - SP, 11410-010", "lat": -23.991444444444447, "lng": -46.257444444444445}, {"id": "685265a07e7863ef1782eb39", "name": ". Helena Maria - Jardim Helena Maria, Guarujá - SP, 11431-080", "lat": -23.994861111111113, "lng": -46.27319444444444}, {"id": "6852657f7e7863ef1782326c", "name": "Av. Manuel Albino, 497 - Jardim Helena Maria, Guarujá - SP, 11431-030", "lat": -23.995916666666666, "lng": -46.27475}, {"id": "6852655e7e7863ef1781dc96", "name": "Av. Manuel Albino, 771-713 - Jardim Helena Maria, Guarujá - SP, 11431-030", "lat": -23.995444444444445, "lng": -46.27558333333333}, {"id": "6852653b7e7863ef1780fbe6", "name": "Av. Manuel Albino, 686 - Jardim Helena Maria, Guarujá - SP, 11431-030", "lat": -23.99488888888889, "lng": -46.27622222222222}, {"id": "6852651b7e7863ef17805e92", "name": "Av. Manuel Albino, 574-678 - Jardim Helena Maria, Guarujá - SP, 11431-030", "lat": -23.994333333333334, "lng": -46.276777777777774}, {"id": "685264fc7e7863ef1780424a", "name": "Rua Antonio Miguel dos Santos, 240 - Vila Santa Rosa, Guarujá - SP, 11431-050", "lat": -23.993472222222223, "lng": -46.27802777777778}, {"id": "685264dc7e7863ef177ff6da", "name": "Av. Ademar de Barros, 2439-2369 - Jardim dos Passaros, Guarujá - SP, 11430-003", "lat": -23.991, "lng": -46.281}, {"id": "685264ba7e7863ef177faf84", "name": "Hospital do Celular Guarujá - Av. Ademar de Barros, 2715 - Vila Santa Rosa, Guarujá - SP, 11430-005", "lat": -23.9905, "lng": -46.28391666666666}, {"id": "6852648c7e7863ef177f2e83", "name": "Av. Antônio Correia - Vila Ligya, Guarujá - SP, 11430-030", "lat": -23.989722222222223, "lng": -46.288555555555554}, {"id": "685264637e7863ef177e9021", "name": "Av. Ademar de Barros, 228-248 - Vila Ligya, Guarujá - SP, 11430-010", "lat": -23.989333333333335, "lng": -46.29044444444444}, {"id": "6624e6acc5312dd81beb3b60", "name": "Avenida Marechal Deodoro da Fonseca, 430 - Barra Funda (Promo)", "lat": -23.995205628506007, "lng": -46.25310127118099}, {"id": "6624e6acc5312dd81beb3b5f", "name": "Praça Horacio Laffer - Jardim Tejereba (Promo)", "lat": -23.991149, "lng": -46.246373}, {"id": "6624e6acc5312dd81beb3b5d", "name": "R. do Contorno, 718 - Barra Funda", "lat": -23.995803, "lng": -46.261004}, {"id": "6624e6acc5312dd81beb3b5c", "name": "R. São Carlos, 147 - Barra Funda", "lat": -23.998067, "lng": -46.264688}, {"id": "6624e6acc5312dd81beb3b5b", "name": "R. Washington, 510 - Vila Maia", "lat": -23.994045, "lng": -46.257867}, {"id": "6624e6acc5312dd81beb3b5a", "name": "R. Washington - Centro", "lat": -23.994186, "lng": -46.258272}, {"id": "6624e6acc5312dd81beb3b59", "name": "R. Washington, 666 - Vila Maia", "lat": -23.994737, "lng": -46.259297}, {"id": "6624e6acc5312dd81beb3b58", "name": "Av. Miguel Alonso Gonzáles, 44 - Jardim Asturias", "lat": -24.009262, "lng": -46.271625}, {"id": "6624e6acc5312dd81beb3b56", "name": "R. César Ferragi, 179 - Vila Alzira", "lat": -24.009967, "lng": -46.271062}, {"id": "6624e6acc5312dd81beb3b55", "name": "R. Mario Ribeiro, 886 - Apartamento 101 - Pitangueiras", "lat": -23.997597, "lng": -46.260318}, {"id": "6624e6acc5312dd81beb3b54", "name": "R. Mario Ribeiro, 823 - Barra Funda", "lat": -23.997408, "lng": -46.259614}, {"id": "6624e6acc5312dd81beb3b53", "name": "R. Santo Amaro, 240 - Vila Maia", "lat": -23.993742, "lng": -46.254661}, {"id": "6624e6acc5312dd81beb3b52", "name": "R. Mario Ribeiro, 357 - Centro", "lat": -23.995209, "lng": -46.255366}, {"id": "6624e6acc5312dd81beb3b51", "name": "Av. Puglisi, 201 - Centro", "lat": -23.995499, "lng": -46.256519}, {"id": "6624e6acc5312dd81beb3b50", "name": "R. Benjamin Constant, 154 - Centro", "lat": -23.995831, "lng": -46.257598}, {"id": "6624e6acc5312dd81beb3b4f", "name": "R. Benjamin Constant, 90a - Centro", "lat": -23.996382, "lng": -46.257194}, {"id": "6624e6acc5312dd81beb3b4e", "name": "Av. Gen. Rondon, 938 - Vila Alzira", "lat": -24.011871, "lng": -46.271659}, {"id": "6624e6acc5312dd81beb3b4d", "name": "R. Mario Ribeiro, 992 - Pitangueiras", "lat": -23.998153, "lng": -46.261045}, {"id": "6624e6acc5312dd81beb3b4c", "name": "Barra Funda", "lat": -23.997049, "lng": -46.261242}, {"id": "6624e6acc5312dd81beb3b4b", "name": "Av. Leomil, 1191 - Centro", "lat": -23.998598, "lng": -46.263957}, {"id": "6624e6acc5312dd81beb3b4a", "name": "R. México - Barra Funda", "lat": -23.999306, "lng": -46.264554}, {"id": "6624e6acc5312dd81beb3b49", "name": "Av. Gen. Rondon, 50-118 - Vila Alzira", "lat": -24.004636, "lng": -46.268492}, {"id": "6624e6acc5312dd81beb3b48", "name": "Av. Gen. Rondon, 1285-1235 - Vila Alzira", "lat": -24.00617, "lng": -46.269244}, {"id": "6624e6acc5312dd81beb3b47", "name": "Av. Gen. Rondon, 643 - Jardim Asturias", "lat": -24.008648, "lng": -46.270375}, {"id": "6624e6acc5312dd81beb3b45", "name": "R. Alexandre M Rodrigues, 113 - Tombo", "lat": -24.011974, "lng": -46.271959}, {"id": "6624e6acc5312dd81beb3b43", "name": "R. Mario Ribeiro, 764 - Centro", "lat": -23.997118, "lng": -46.259131}, {"id": "6624e6acc5312dd81beb3b42", "name": "Av. Puglisi, 290 - Centro", "lat": -23.994113, "lng": -46.257184}, {"id": "6624e6acc5312dd81beb3b41", "name": "Av. Leomil, 725 - Centro", "lat": -23.996881, "lng": -46.260107}, {"id": "6624e6acc5312dd81beb3b3d", "name": "Av. Mal. Deodoro da Fonseca, 1050 - Centro, Guarujá", "lat": -23.99810554183933, "lng": -46.25861182810571}, {"id": "6624e6acc5312dd81beb3b3c", "name": "Av. Mal. Deodoro da Fonseca, 1771 - Centro, Guarujá", "lat": -24.00178, "lng": -46.26498}, {"id": "6624e6acc5312dd81beb3b3a", "name": "Av. Prestes Maia, 385 - Jardim Las Palmas, Guarujá", "lat": -24.01353, "lng": -46.27279}, {"id": "6624e6acc5312dd81beb3b39", "name": "Av. Leomil, 1078 - Centro, Guarujá", "lat": -23.997981, "lng": -46.263526}, {"id": "6624e6acc5312dd81beb3b38", "name": "Av. Artur Costa Filho, 794 - Vila Maia, Guarujá", "lat": -23.994961, "lng": -46.252831}, {"id": "6624e6acc5312dd81beb3b35", "name": "Av. Mal. Deodoro da Fonseca, 61 - Praia das Pitangueiras, Guarujá", "lat": -23.993722, "lng": -46.249529}, {"id": "6624e6acc5312dd81beb3b33", "name": "Av. Mal. Deodoro da Fonseca, 4 - Centro, Guarujá", "lat": -23.995542, "lng": -46.253708}, {"id": "6624e6acc5312dd81beb3b31", "name": "R. Cavalheiro Nami Jafet, 37 - Centro, Guarujá", "lat": -23.99725, "lng": -46.257974}, {"id": "6624e6acc5312dd81beb3b2b", "name": "Av. Gen. Monteiro de Barros, 854 - Vila Luis Antonio, Guarujá", "lat": -24.01078, "lng": -46.267153}, {"id": "6624e6acc5312dd81beb3b2a", "name": "R. das Galhetas, 179 - Box 13 - Jardim Asturias, Guarujá", "lat": -24.011338, "lng": -46.266423}, {"id": "6624e6acc5312dd81beb3b28", "name": "R. das Galhetas, Box 9 - Jardim Asturias, Guarujá", "lat": -24.011214, "lng": -46.267863}, {"id": "6624e6acc5312dd81beb3b25", "name": "R. Benedito Pinto de Abreu, 80 - Jardim Las Palmas, Guarujá", "lat": -24.012437, "lng": -46.27325}]}