{"city": "Сaraguatatuba", "areaId": "65e07af95847eddefbc54984", "count": 188, "parkings": [{"id": "6a2da9716c268024417f4803", "name": "Praia do Camaroeiro", "lat": -23.6278355, "lng": -45.3968379}, {"id": "69fe4be73f716e66ace6a681", "name": "Próximo a Av. Dr. Arthur da Costa Filho, 25 - Centro, Caraguatatuba - SP, 11660-005", "lat": -23.6244069, "lng": -45.4097725}, {"id": "69f26d35c75ac24b011823fe", "name": "R. Manoel Henrique de Oliveira, 390 - Martim de Sá, Caraguatatuba - SP, 11662-210", "lat": -23.6155998, "lng": -45.3877549}, {"id": "69f26c29c75ac24b01174999", "name": "Prac Padre José Porfílio de deus Filho, 10 - Martim", "lat": -23.6161825, "lng": -45.3889377}, {"id": "69f26bfcc75ac24b0117310d", "name": "R. Bragança Paulista, 382 - Martim de Sá, Caraguatatuba - SP, 11662-330", "lat": -23.6160363, "lng": -45.3895788}, {"id": "69f26b16c75ac24b0116c13d", "name": "R. Bartolomeu Bueno da Silva, 1481-1453 - Martim de Sá, Caraguatatuba - SP, 11662-300", "lat": -23.6165764, "lng": -45.3913028}, {"id": "69f26acac75ac24b01168c8e", "name": "Av. Jundiaí, 499 - Caraguatatuba, SP, 11661-260", "lat": -23.6167991, "lng": -45.392198}, {"id": "69ec09bcda2fd8bba1d300fe", "name": "Kadu Lanches", "lat": -23.6212177, "lng": -45.4066091}, {"id": "69ea08a41a7ae509be638744", "name": " Caraguatatuba - SP", "lat": -23.6185639, "lng": -45.3993605}, {"id": "69b872f0b7006d3923272766", "name": "Av. Ipiranga, 421 - Jardim Casa Branca, Caraguatatuba - SP, 11663-200", "lat": -23.6142503, "lng": -45.380011}, {"id": "69b872d6b7006d39232714e3", "name": "R. Cabreúva - Caraguatatuba, SP, 11663-240", "lat": -23.6134439, "lng": -45.3797981}, {"id": "69b872c2b7006d39232709a9", "name": "R. Cabreúva, 94-188 - Jardim Casa Branca, Caraguatatuba - SP, 11663-240", "lat": -23.6138749, "lng": -45.3795969}, {"id": "69b872afb7006d392326fb51", "name": "Av. Ipiranga, Av. Casa Branca, 535, Caraguatatuba - SP, 11663-200", "lat": -23.6150822, "lng": -45.3804315}, {"id": "69b448aa380616c73d8c96dc", "name": "Av. Rio Branco, 780 - Indaiá, Caraguatatuba - SP, 11665-600", "lat": -23.6293554, "lng": -45.4258419}, {"id": "69b44699380616c73d882ae1", "name": "Av. Sergipe, 65-1 - Indaiá, Caraguatatuba - SP, 11665-600", "lat": -23.6301169, "lng": -45.4267391}, {"id": "69b4456b380616c73d85a313", "name": "- Indaiá, Caraguatatuba - SP, 11665-600", "lat": -23.6322697, "lng": -45.4274298}, {"id": "69b4442d380616c73d845754", "name": "Parque Balneario Poiares, Caraguatatuba - SP, 11665-600", "lat": -23.6377954, "lng": -45.4302163}, {"id": "69b44376380616c73d820896", "name": "Av. Rio Branco, 1800 - Indaiá, Caraguatatuba - SP, 11665-600", "lat": -23.63814, "lng": -45.4303641}, {"id": "69b442e9380616c73d81504f", "name": "R. Benedita Martins Cruz, 105-35 - Poiares, Caraguatatuba - SP, 11673-100", "lat": -23.6393683, "lng": -45.4309901}, {"id": "69b442ca380616c73d811188", "name": "Av. Mal. Floriano Peixoto, 10-76 - Poiares, Caraguatatuba - SP, 11673-000", "lat": -23.6401014, "lng": -45.4313817}, {"id": "69b442ad380616c73d80c9c7", "name": "R. João Café Filho, 21-1 - Poiares, Caraguatatuba - SP, 11673-110", "lat": -23.6414105, "lng": -45.4314903}, {"id": "69b4427e380616c73d8026ec", "name": "Av. José Herculano, 50 - Pontal de Santa Marina, Caraguatatuba - SP, 11666-000", "lat": -23.6450285, "lng": -45.4320167}, {"id": "69b31c6e025e94e21d58cb10", "name": "R. Dom Antonio Barreiros, 69-9 - Prainha, Caraguatatuba - SP, 11661-590", "lat": -23.6250925, "lng": -45.3920846}, {"id": "697756737d475b55507222d9", "name": "Praça Sensorial", "lat": -23.614371, "lng": -45.3924032}, {"id": "6977564c7d475b555071e8c0", "name": "Academia do Edinho - Av. Siqueira Campos, 1121 - Sumaré, Caraguatatuba - SP, 11661-400", "lat": -23.6168753, "lng": -45.3996565}, {"id": "6967f0643e570c123469d481", "name": "Rua prainha - Caraguatatuba, SP, 11661-380", "lat": -23.6262118, "lng": -45.396511}, {"id": "6967b6624910c3a522551712", "name": "Rua prainha - Caraguatatuba, SP, 11661-380", "lat": -23.6282907, "lng": -45.3947682}, {"id": "6941d4bf062fc25ed6a344a7", "name": "Caraguatatuba - Av. Prisciliana de Castilho, 767 - Centro, Caraguatatuba - SP, 11660-330", "lat": -23.6236564, "lng": -45.4194579}, {"id": "6941978119320078257737af", "name": "Rua Luiz Passo Júnior, 50", "lat": -23.6192065, "lng": -45.4099793}, {"id": "6941962019320078257559af", "name": "Av. Frei Pacífico Wagner, 830 - Centro, Caraguatatuba - SP, 11660-280", "lat": -23.618986, "lng": -45.409751}, {"id": "693dc582e75b8fc6902515ec", "name": "Av. Dr. Arthur da Costa Filho, 25 - Centro", "lat": -23.6245555, "lng": -45.4102368}, {"id": "6939c80b062fc25ed6ea948b", "name": "R. Peruíbe, 270 - Martim de Sá, Caraguatatuba - SP, 11662-450", "lat": -23.6233643, "lng": -45.38323}, {"id": "6939c7d0062fc25ed6ea656e", "name": "- R. Itanhaém - Martim de Sá, Caraguatatuba - SP, 11662-520", "lat": -23.6239876, "lng": -45.3830238}, {"id": "6939c7b0062fc25ed6ea6199", "name": "R. Itapuã, 200 - Martim de Sá, Caraguatatuba - SP, 11662-520", "lat": -23.6245396, "lng": -45.3827154}, {"id": "6939c773062fc25ed6e9fef9", "name": "Tv. Águeda L Ruíz, 5 - Martim de Sá, Caraguatatuba - SP, 11662-530", "lat": -23.6250998, "lng": -45.3815674}, {"id": "6939a176617b40207935cf4b", "name": "R. Pitangueiras, 355 - Martim de Sá, Caraguatatuba - SP, 11662-570", "lat": -23.6212678, "lng": -45.3820113}, {"id": "6939a14d617b4020793556e6", "name": "R. Pitangueiras, 76-2 - Martim de Sá, Caraguatatuba - SP, 11662-570", "lat": -23.620521, "lng": -45.3804848}, {"id": "6939a12f617b40207934c2dd", "name": "Av. Fioravante Paschoalim, 985 - Sobaio, Caraguatatuba - SP, 11662-690", "lat": -23.6203754, "lng": -45.3799111}, {"id": "69399d88617b40207931b02a", "name": "R. Guanandy, 270-348 - Martim de Sá, Caraguatatuba - SP", "lat": -23.6208804, "lng": -45.3786495}, {"id": "69399d6e617b40207931a141", "name": "R. Cabreúva, 305 - Martim de Sá, Caraguatatuba - SP, 11663-240", "lat": -23.6210767, "lng": -45.3793442}, {"id": "69399d40617b4020793188f7", "name": "R. Cabreúva, 219-215 - Martim de Sá, Caraguatatuba - SP, 11663-240", "lat": -23.6215645, "lng": -45.3800419}, {"id": "69399d27617b402079318625", "name": "Av. Nilo Braga Garcez - Martim de Sá, Caraguatatuba - SP, 11662-630", "lat": -23.6217178, "lng": -45.3806568}, {"id": "69388ae92373de78f2f17569", "name": "R Jardim Britania, Caraguatatuba - SP", "lat": -23.6611622, "lng": -45.4297251}, {"id": "69384c1c3067ec2a1aff4478", "name": "Av. Irineu Mendes de Souza, 260 - Martim de Sá, Caraguatatuba - SP, 11662-100", "lat": -23.6277554, "lng": -45.3862029}, {"id": "69384c003067ec2a1aff3f64", "name": "R. Bartolomeu Bueno da Silva, 97 - Martim de Sá, Caraguatatuba - SP, 11662-300", "lat": -23.6281842, "lng": -45.3850663}, {"id": "69384bcd3067ec2a1aff2eea", "name": "R. Ana Francisca Fachini, 60-132 - Martim de Sá, Caraguatatuba - SP, 11662-500", "lat": -23.6274599, "lng": -45.3838392}, {"id": "69384b9a3067ec2a1afef656", "name": "R. Bartolomeu Bueno da Silva, 250 - Martim de Sá, Caraguatatuba - SP, 11662-300", "lat": -23.6271078, "lng": -45.3855397}, {"id": "69384b503067ec2a1afe6114", "name": "R. Caetés, 16 - Martim de Sá, Caraguatatuba - SP, 11662-020", "lat": -23.6282226, "lng": -45.3849198}, {"id": "69384b033067ec2a1afe3717", "name": "Av. dos Bandeirantes, 1438-1450 - Martim de Sá, Caraguatatuba - SP, 11662-020", "lat": -23.6289892, "lng": -45.3855092}, {"id": "69384adb3067ec2a1afe2e1f", "name": "R. dos Guaranís, 2 - Caraguatatuba, SP, 11662-020", "lat": -23.6292215, "lng": -45.3856688}, {"id": "692e2a176b1fad4fd9c67f61", "name": "Av. Rio Branco, 161 - Indaiá, Caraguatatuba - SP, 11675-050", "lat": -23.6422189, "lng": -45.431485}, {"id": "692e29f46b1fad4fd9c67898", "name": "Centro esportivo - Av. José Herculano, 50 - Pontal de Santa Marina, Caraguatatuba - SP, 11666-000", "lat": -23.6450635, "lng": -45.4319895}, {"id": "68f569d34a51c49c7a9fa11c", "name": "Av. Serrgipe, 541", "lat": -23.631549, "lng": -45.424224}, {"id": "68f569b04a51c49c7a9f8e13", "name": "Av. Sergipe, 479", "lat": -23.631914, "lng": -45.42362}, {"id": "68f5698e4a51c49c7a9f7ed7", "name": "Av. Sergipe, 377", "lat": -23.632295, "lng": -45.422931}, {"id": "68f55b2f4a51c49c7a89ff9a", "name": "Av. Sergipe, 343", "lat": -23.632542, "lng": -45.422225}, {"id": "68f55b064a51c49c7a89df32", "name": "Av. Sergipe, 225", "lat": -23.633015, "lng": -45.421656}, {"id": "68f55aed4a51c49c7a89cb94", "name": "Av. Sergipe, 161", "lat": -23.633391, "lng": -45.421004}, {"id": "68f55ac74a51c49c7a89a485", "name": "Av. Sergipe, 150", "lat": -23.633589, "lng": -45.420354}, {"id": "68f55a8e4a51c49c7a893b37", "name": "Av. São Paulo, 328", "lat": -23.632717, "lng": -45.419465}, {"id": "68f55a724a51c49c7a88f427", "name": "Av. Alagoas, 169", "lat": -23.632254, "lng": -45.420238}, {"id": "68f55a564a51c49c7a88acd1", "name": "Av. Alagoas, 243", "lat": -23.63187, "lng": -45.420885}, {"id": "68f558f44a51c49c7a860c5a", "name": "Av. Rio de Janeiro, 1030", "lat": -23.631122, "lng": -45.422144}, {"id": "68f558584a51c49c7a85001d", "name": "Av. Bahia, 1063", "lat": -23.630729, "lng": -45.422814}, {"id": "68f558394a51c49c7a84ec04", "name": "Av. Alagoas, 570", "lat": -23.630178, "lng": -45.423477}, {"id": "68f5580e4a51c49c7a84d4fc", "name": "Av. Alagoas, 689", "lat": -23.629914, "lng": -45.424159}, {"id": "68f557e04a51c49c7a847c8a", "name": "Av. Alagoas, 734", "lat": -23.629415, "lng": -45.424717}, {"id": "68f557c64a51c49c7a83fd3e", "name": "Av. Ver. Aristides Anizio dos Santos, 729", "lat": -23.628313, "lng": -45.423717}, {"id": "68f557a44a51c49c7a83a54a", "name": "Av. Ver. Aristides Anizio dos Santos, 586", "lat": -23.62901, "lng": -45.422614}, {"id": "68f557844a51c49c7a836c1d", "name": "Av. Ver. Aristides Anizio dos Santos, 465", "lat": -23.629582, "lng": -45.421955}, {"id": "68f557594a51c49c7a82d82c", "name": "Av. Rio de Janeiro, 443", "lat": -23.629992, "lng": -45.421294}, {"id": "68f557384a51c49c7a827c92", "name": "Av. Ver. Aristides Anizio dos Santos, 349", "lat": -23.630257, "lng": -45.420601}, {"id": "68f556fa4a51c49c7a8176b9", "name": "Av. Ver. Aristides Anizio dos Santos, 242", "lat": -23.630656, "lng": -45.419965}, {"id": "68f556d04a51c49c7a80f177", "name": "Av. Minas Gerais, 756", "lat": -23.631105, "lng": -45.419535}, {"id": "68f556ad4a51c49c7a806308", "name": "Av. Ver. Aristides Anizio dos Santos, 105", "lat": -23.631524, "lng": -45.418563}, {"id": "68f5567e4a51c49c7a800b67", "name": "Av. Goiás, 320", "lat": -23.629153, "lng": -45.419733}, {"id": "68f556144a51c49c7a7fd186", "name": "Av. Goiás, 503", "lat": -23.628367, "lng": -45.421188}, {"id": "68f555f54a51c49c7a7fa274", "name": "Av. Goiás, 565", "lat": -23.628025, "lng": -45.421812}, {"id": "68f555d34a51c49c7a7f6b9f", "name": "Av. Goiás, 70", "lat": -23.627472, "lng": -45.422313}, {"id": "68f3c8b4ad3f09a2bb99f6aa", "name": "Av. Mal. Deodoro da Fonseca, 82 - Tingá, Caraguatatuba - SP, 11674-410", "lat": -23.6316766, "lng": -45.4314994}, {"id": "68f3c874ad3f09a2bb999473", "name": "Avenida Brasília, 784 - Indaiá, Caraguatatuba - SP, 11665-285", "lat": -23.6299946, "lng": -45.4301898}, {"id": "68f3c6cfad3f09a2bb948ca2", "name": "Av. Sergipe, 1186 - Caraguatatuba, SP, 11665-191", "lat": -23.6285454, "lng": -45.4292879}, {"id": "68f3c6acad3f09a2bb944ef7", "name": "Av. Brasília, 485 - Indaiá, Caraguatatuba - SP, 11665-285", "lat": -23.6276991, "lng": -45.428843}, {"id": "68f3c5caad3f09a2bb904d7a", "name": "Av. Brasília, 409-393 - Jardim Gaivotas, Caraguatatuba - SP, 11665-415", "lat": -23.6266876, "lng": -45.4285214}, {"id": "68f3c5a8ad3f09a2bb902dfa", "name": "Av. Ver. Aristides Anizio dos Santos, 1269 - Praia das Palmeiras, Caraguatatuba - SP, 11665-151", "lat": -23.6258957, "lng": -45.4277761}, {"id": "68f256ef7f3e502b27abe7ef", "name": "Próximo a Av. Dr. Arthur da Costa Filho, 2-80 - Sumaré, Caraguatatuba - SP", "lat": -23.6236232, "lng": -45.4088407}, {"id": "68f01118093d3807e7388645", "name": "Av. Pernambuco, 2000 - Indaiá", "lat": -23.637457, "lng": -45.427395}, {"id": "68f010fc093d3807e7382c6e", "name": "Av. Guarda Mirim Juarez, 509 - Indaiá, Caraguatatuba - SP, 11665-340", "lat": -23.638062, "lng": -45.427431}, {"id": "68f010e0093d3807e737e41a", "name": "Av. Rotary - Caraguatatuba, SP, 11660-720", "lat": -23.639424, "lng": -45.428168}, {"id": "68f00cd94860c68948be2f82", "name": "Av. Guarda Mirim Juarez, 167 - Indaiá, Caraguatatuba - SP, 11665-340", "lat": -23.639483, "lng": -45.424499}, {"id": "68f00ccd4860c68948be0a63", "name": "Av. Minas Gerais, 1760 - Indaiá, Caraguatatuba - SP, 11665-020", "lat": -23.63853, "lng": -45.423979}, {"id": "68f00cc34860c68948bded24", "name": "Av. Minas Gerais, 1505 - Indaiá, Caraguatatuba - SP, 11665-020", "lat": -23.636953, "lng": -45.423164}, {"id": "68f007724860c68948b3526f", "name": "Av. Goiás, 750 - Indaiá, Caraguatatuba - SP, 11665-120", "lat": -23.627131, "lng": -45.422789}, {"id": "68f007664860c68948b34bb9", "name": "Av. Espírito Santo, 174 - Jardim Primavera, Caraguatatuba - SP, 11660-730", "lat": -23.625665, "lng": -45.415867}, {"id": "68f0075a4860c68948b3405a", "name": "Av. Minas Gerais, 328 - Jardim Primavera, Caraguatatuba - SP, 11660-700", "lat": -23.627065, "lng": -45.416135}, {"id": "68f0074f4860c68948b333bc", "name": "Av. Paraná, 214 - Jardim Primavera, Caraguatatuba - SP, 11660-680", "lat": -23.626116, "lng": -45.417303}, {"id": "68f0073f4860c68948b328f3", "name": "Av. Maranhão, 457 - Jardim Primavera, Caraguatatuba - SP, 11660-690", "lat": -23.625984, "lng": -45.419896}, {"id": "68f0072b4860c68948b315cb", "name": "R. Dr. Bráulio Pereira Barreto, 132 - Indaiá, Caraguatatuba - SP, 11665-330", "lat": -23.639155, "lng": -45.423683}, {"id": "68f0071a4860c68948b303dc", "name": "Av. Guarda Mirim Juarez, 509 - Indaiá, Caraguatatuba - SP, 11665-340", "lat": -23.638063, "lng": -45.427427}, {"id": "68f0070c4860c68948b2fc12", "name": "Av. São Paulo, 1750 - Indaiá, Caraguatatuba - SP, 11665-010", "lat": -23.639357, "lng": -45.42351}, {"id": "68f006f24860c68948b2e9f8", "name": "R. Itapuã, 475 - Martim de Sá, Caraguatatuba - SP, 11662-520", "lat": -23.622307, "lng": -45.383965}, {"id": "68f003254860c68948a97c91", "name": "R. Francisco Nunes M. D'Eça, 470 - Martim de Sá, Caraguatatuba - SP, 11662-470", "lat": -23.623202, "lng": -45.386031}, {"id": "68f002fb4860c68948a8ea94", "name": "R. Caúna, 335 - Martim de Sá, Caraguatatuba - SP, 11662-640", "lat": -23.621501, "lng": -45.380109}, {"id": "68f002ed4860c68948a8e4d9", "name": "R. Itapuã, 115 - Martim de Sá, Caraguatatuba - SP, 11662-520", "lat": -23.62517, "lng": -45.382355}, {"id": "68f002d24860c68948a8d7ad", "name": "R. Bartolomeu Bueno da Silva, 363 - Martim de Sá, Caraguatatuba - SP, 11662-300", "lat": -23.626111, "lng": -45.386101}, {"id": "68ebd4abf92a988f9a1ddfff", "name": "Av. Pres. Castelo Branco, 237 - Sumaré, Caraguatatuba - SP, 11661-300", "lat": -23.6196105, "lng": -45.4043899}, {"id": "68ebd44af92a988f9a1d8064", "name": "Av. Pres. Castelo Branco, 151 - Balneário Forest, Caraguatatuba - SP, 11661-300", "lat": -23.6199355, "lng": -45.4052449}, {"id": "68eaa83dad3f09a2bb750ae6", "name": "Próximo a BR-101, 420-642 - Jardim Primavera, Caraguatatuba - SP, 11660-660", "lat": -23.6246216, "lng": -45.4179951}, {"id": "68eaa828ad3f09a2bb74d627", "name": "Av. Miguel Varlez, 375 - Jardim Primavera, Caraguatatuba - SP, 11660-660", "lat": -23.6244797, "lng": -45.4168223}, {"id": "68eaa813ad3f09a2bb7497e6", "name": "Jardim Primavera, 256 Caraguatatuba - SP, 11660-660", "lat": -23.6241814, "lng": -45.4162832}, {"id": "68eaa7fead3f09a2bb7451c1", "name": "Quiosque e Espetão do Ceara - Caputera, Caraguatatuba - SP, 11660-660", "lat": -23.6247279, "lng": -45.4197245}, {"id": "68de17b39748252a7076399a", "name": "IFSP 5 🛴", "lat": -23.6368746, "lng": -45.4261839}, {"id": "68dd5e780a7b6117140e3a35", "name": "Rodoviária Caraguatatuba 5 🛴", "lat": -23.6234552, "lng": -45.4268665}, {"id": "68dd5e2b0a7b6117140d3b80", "name": "Burguer King 5🛴", "lat": -23.634015, "lng": -45.4283206}, {"id": "68dd5e0d0a7b6117140c9f5b", "name": "Mc Donald’s 5 🛴", "lat": -23.6366762, "lng": -45.4293372}, {"id": "68dd5d240a7b611714078956", "name": "Shoping Serramar 10 🛴", "lat": -23.6542654, "lng": -45.4343781}, {"id": "68b13c8eb6652d8e6e81d071", "name": "Av. Amazonas", "lat": -23.623233, "lng": -45.418778}, {"id": "68b13c3cb6652d8e6e8147d0", "name": "Praça Esperanto", "lat": -23.622908, "lng": -45.415929}, {"id": "68b13c16b6652d8e6e80b389", "name": "Casa Bravo", "lat": -23.621293, "lng": -45.414007}, {"id": "68a08ec5917d728479c9f2ed", "name": "Sapê Hawaiian Bar", "lat": -23.64125, "lng": -45.42352}, {"id": "68a08ec5917d728479c9f2ec", "name": "Quiosque 35 Canoas", "lat": -23.6415, "lng": -45.42302}, {"id": "68a08ec5917d728479c9f2eb", "name": "Av. Geraldo Nogueira da Silva, 33 - Indaiá", "lat": -23.64023, "lng": -45.42239}, {"id": "68a08ec5917d728479c9f2ea", "name": "Indaiá Beach", "lat": -23.63896, "lng": -45.4217}, {"id": "68a08ec5917d728479c9f2e9", "name": "Av. Geraldo Nogueira da Silva, 970", "lat": -23.63878, "lng": -45.42216}, {"id": "68a08ec5917d728479c9f2e8", "name": "Kioske da Soninha", "lat": -23.63786, "lng": -45.42113}, {"id": "68a08ec5917d728479c9f2e7", "name": "Av. Geraldo Nogueira da Silva", "lat": -23.63659, "lng": -45.4203}, {"id": "68a08ec5917d728479c9f2e6", "name": "Av. Sergipe, 50 - Indaiá", "lat": -23.63445, "lng": -45.41861}, {"id": "68a08ec5917d728479c9f2e5", "name": "Av. Geraldo Nogueira da Silva, 250 - Praia das Palmeiras", "lat": -23.63251, "lng": -45.41744}, {"id": "68a08ec5917d728479c9f2e4", "name": "Guaruçá", "lat": -23.62897, "lng": -45.41471}, {"id": "68a08ec5917d728479c9f2e3", "name": "Arena Centro Beach Tennis", "lat": -23.62817, "lng": -45.41401}, {"id": "68a08ec5917d728479c9f2e2", "name": "Av. Dr. Arthur da Costa Filho - Caraguatatuba", "lat": -23.62744, "lng": -45.41331}, {"id": "68a08ec5917d728479c9f2e1", "name": "Kiosque Coconut", "lat": -23.62609, "lng": -45.41197}, {"id": "68a08ec5917d728479c9f2e0", "name": "Clube do espetinho", "lat": -23.62527, "lng": -45.411}, {"id": "68a08ec5917d728479c9f2dd", "name": "Av. Dr. Arthur Costa Filho, 1", "lat": -23.62298, "lng": -45.40696}, {"id": "68a08ec5917d728479c9f2dc", "name": "Morango / Chocolate & Cia", "lat": -23.62238, "lng": -45.40485}, {"id": "68a08ec5917d728479c9f2db", "name": "Av. Dr. Arthur da Costa 1", "lat": -23.6223, "lng": -45.40408}, {"id": "68a08ec5917d728479c9f2da", "name": "Av. Dr. Arthur Costa Filho, 1889", "lat": -23.6223, "lng": -45.40236}, {"id": "68a08ec5917d728479c9f2d9", "name": "Av. Dr. Arthur da Costa Filho, 540-1192 - Sumaré", "lat": -23.62262, "lng": -45.40131}, {"id": "68a08ec5917d728479c9f2d8", "name": "Chama o Fabiano Veiculos - Loja 2", "lat": -23.62314, "lng": -45.40025}, {"id": "68a08ec5917d728479c9f2d7", "name": "Camaroeiro", "lat": -23.62392, "lng": -45.39865}, {"id": "68a08ec5917d728479c9f2d6", "name": "Quiosque ponto 4", "lat": -23.62377, "lng": -45.37669}, {"id": "68a08ec5917d728479c9f2d5", "name": "Av. Aldino Schiavi, 1205", "lat": -23.62387, "lng": -45.37731}, {"id": "68a08ec5917d728479c9f2d4", "name": "Av. Dr. Aldino Schiavi, 1149-1119 - Martim de Sá", "lat": -23.62423, "lng": -45.37825}, {"id": "68a08ec5917d728479c9f2d3", "name": "Av. Dr. Aldino Schiavi, 1072-1090 - Martim de Sá", "lat": -23.62456, "lng": -45.37897}, {"id": "68a08ec5917d728479c9f2d2", "name": "Av. Dr. Aldino Schiavi, 999-979 - Martim de Sá", "lat": -23.62499, "lng": -45.37969}, {"id": "68a08ec5917d728479c9f2d1", "name": "Av. Dr. Aldino Schiavi, 924 - Martim de Sá, Caraguatatuba - SP", "lat": -23.62562, "lng": -45.3806}, {"id": "68a08ec5917d728479c9f2d0", "name": "Av. Dr. Aldino Schiavi, 770 - Martim de Sá, Caraguatatuba - SP, 11662-000", "lat": -23.62626, "lng": -45.38146}, {"id": "68a08ec5917d728479c9f2cf", "name": "Av. Dr. Aldino Schiavi, 690 - Martim de Sá, Caraguatatuba - SP, 11662-000", "lat": -23.62688, "lng": -45.38211}, {"id": "68a08ec5917d728479c9f2ce", "name": "Av. Dr. Aldino Schiavi, 35 - Martim de Sá, Caraguatatuba - SP, 11662-000", "lat": -23.62717, "lng": -45.38309}, {"id": "68a08ec5917d728479c9f2cd", "name": "M Sa - Av. Dr. Aldino Schiavi, 545 - Martim de Sá, Caraguatatuba - SP, 11662-000", "lat": -23.62755, "lng": -45.38297}, {"id": "68a08ec5917d728479c9f2cc", "name": "Av. Dr. Aldino Schiavi, 398 - Martim de Sá, Caraguatatuba - SP, 11662-000", "lat": -23.62851, "lng": -45.38374}, {"id": "68a08ec5917d728479c9f2cb", "name": "Av. Dr. Aldino Schiavi, 14 - Martim de Sá, Caraguatatuba - SP, 11662-000", "lat": -23.62926, "lng": -45.38436}, {"id": "68a08ec5917d728479c9f2ca", "name": "Av. Irineu Mendes de Souza, 16 - Martim de Sá, Caraguatatuba - SP, 11662-100", "lat": -23.62985, "lng": -45.38478}, {"id": "68a08ec5917d728479c9f2c9", "name": "Av. Dr. Aldino Schiavi, 57 - Martim de Sá, Caraguatatuba - SP, 11662-000", "lat": -23.63107, "lng": -45.38567}, {"id": "68a08ec5917d728479c9f2c8", "name": "Av. Paulo Ferraz da Silva Porto X Av. Aldino Schiavi, 1500", "lat": -23.63183, "lng": -45.38637}, {"id": "68a08ec5917d728479c9f2c7", "name": "R. Lindóia, 48 - Prainha, Caraguatatuba - SP, 11661-740", "lat": -23.63029, "lng": -45.39041}, {"id": "68a08ec5917d728479c9f2c6", "name": "Rua Professora Adali Coelho Passos, 690 - Prainha, Caraguatatuba - SP, 11661-575", "lat": -23.63056, "lng": -45.38913}, {"id": "68a08ec5917d728479c9f2c5", "name": "Av. Paulo Ferraz da Silva Porto, 952 - Prainha, Caraguatatuba - SP, 11661-570", "lat": -23.62717, "lng": -45.38922}, {"id": "68a08ec5917d728479c9f2c4", "name": "Av. Paulo Ferraz da Silva Porto, 1250 - Prainha, Caraguatatuba - SP, 11661-570", "lat": -23.62932, "lng": -45.38791}, {"id": "68a08ec5917d728479c9f2c3", "name": "Av. Dr. Arthur da Costa Filho, 499 - Centro, Caraguatatuba - SP, 11660-005", "lat": -23.62684, "lng": -45.41342}, {"id": "68a08ec5917d728479c9f2c2", "name": "Av. Prestes Maia, 74 - Centro, Caraguatatuba - SP, 11660-400", "lat": -23.62637, "lng": -45.41376}, {"id": "68a08ec5917d728479c9f2c1", "name": "Av. Prestes Maia, 260 - Centro, Caraguatatuba - SP, 11660-400", "lat": -23.62482, "lng": -45.41478}, {"id": "68a08ec5917d728479c9f2c0", "name": "Av. Minas Gerais, 2 - Jardim Primavera, Caraguatatuba - SP, 11660-700", "lat": -23.62548, "lng": -45.41468}, {"id": "68a08ec5917d728479c9f2bf", "name": "Av. Miguel Varlez, 227 - Jardim Primavera, Caraguatatuba - SP, 11660-650", "lat": -23.62422, "lng": -45.41557}, {"id": "68a08ec5917d728479c9f2be", "name": "Rodovia SP 55, Km 55, 2500 - Vila Nossa Sra. Aparecida, Caraguatatuba - SP, 11660-660", "lat": -23.62392, "lng": -45.41352}, {"id": "68a08ec5917d728479c9f2bd", "name": "Praça / sem número, Av. Miguel Varlez - Centro, Caraguatatuba - SP, 11675-000", "lat": -23.62373, "lng": -45.41337}, {"id": "68a08ec5917d728479c9f2bc", "name": "Av. Washington Luís, 151 - Centro, Caraguatatuba - SP, 11660-660", "lat": -23.62521, "lng": -45.41292}, {"id": "68a08ec5917d728479c9f2bb", "name": "R. Guarulhos, 113 - Centro, Caraguatatuba - SP, 11660-070", "lat": -23.62434, "lng": -45.41204}, {"id": "68a08ec5917d728479c9f2b8", "name": "R. Altino Arantes, 182 - Centro, Caraguatatuba", "lat": -23.62247, "lng": -45.41182}, {"id": "68a08ec5917d728479c9f2b7", "name": "Praia Shopping - Av. Dr. Arthur da Costa Filho, 937 - Loja 3A - Centro, Caraguatatuba - SP, 11660-005", "lat": -23.62343, "lng": -45.41128}, {"id": "68a08ec5917d728479c9f2b6", "name": "Ria São Benedito, centro, Caraguatatuba - SP, 11670-340", "lat": -23.62307, "lng": -45.41071}, {"id": "68a08ec5917d728479c9f2b5", "name": "R. Altino Arantes, 72 - Centro, Caraguatatuba - SP, 11660-090", "lat": -23.62235, "lng": -45.41116}, {"id": "68a08ec5917d728479c9f2b4", "name": "Praça Cândido Mota, 193 - Centro, Caraguatatuba - SP, 11660-060", "lat": -23.622, "lng": -45.41139}, {"id": "68a08ec5917d728479c9f2b3", "name": "Av. Miguel Varlez, 404 - Centro, Caraguatatuba - SP, 11660-650", "lat": -23.62173, "lng": -45.41056}, {"id": "68a08ec5917d728479c9f2b1", "name": "R. Padre Anchieta, 57 - Centro, Caraguatatuba - SP, 11660-010", "lat": -23.62215, "lng": -45.40924}, {"id": "68a08ec5917d728479c9f2b0", "name": "R. Maj. Aires, 39 - Centro, Caraguatatuba - SP, 11660-220", "lat": -23.62184, "lng": -45.40857}, {"id": "68a08ec5917d728479c9f2af", "name": "R. Padre Anchieta, 931 - Centro, Caraguatatuba - SP, 11660-010", "lat": -23.62128, "lng": -45.40765}, {"id": "68a08ec5917d728479c9f2ae", "name": "R. Altino Arantes, 80 - Centro, Caraguatatuba - SP, 11660-020", "lat": -23.62078, "lng": -45.40781}, {"id": "68a08ec5917d728479c9f2ad", "name": "Praça Dr. Diógenes Ribeiro de Lima, 29 - Centro, Caraguatatuba - SP, 11660-170", "lat": -23.62241, "lng": -45.40846}, {"id": "68a08ec5917d728479c9f2ac", "name": "R. Ivan Micheletto Rossi, 77 - Centro, Caraguatatuba - SP, 11660-180", "lat": -23.62208, "lng": -45.40738}, {"id": "68a08ec5917d728479c9f2ab", "name": "Rod. Dr. Manoel Hipólito do Rêgo, 11 - Sumaré, Caraguatatuba - SP, 11662-700", "lat": -23.62035, "lng": -45.40668}, {"id": "68a08ec5917d728479c9f2aa", "name": "Av. Paulo Ferraz da Silva Porto, 54 - Prainha, Caraguatatuba - SP, 11661-570", "lat": -23.62448, "lng": -45.39534}, {"id": "68a08ec5917d728479c9f2a9", "name": "Rua Professora Adali Coelho Passos, 46 - Prainha, Caraguatatuba - SP, 11661-570", "lat": -23.62589, "lng": -45.39134}, {"id": "68a08ec5917d728479c9f2a8", "name": "R. Carijós, 93 - Vila Atlântica, Caraguatatuba - SP, 11662-060", "lat": -23.62481, "lng": -45.38857}, {"id": "68a08ec5917d728479c9f2a7", "name": "Asas Marketing", "lat": -23.62444, "lng": -45.38935}, {"id": "68a08ec5917d728479c9f2a6", "name": "Av. Paulo Ferraz da Silva Porto, 1351 - Prainha, Caraguatatuba - SP, 11661-570", "lat": -23.62995, "lng": -45.38714}, {"id": "68a08ec5917d728479c9f2a5", "name": "R. Francisco Nunes M. D'Eça, 60 - Martim de Sá, Caraguatatuba - SP, 11662-470", "lat": -23.62622, "lng": -45.38441}, {"id": "68a08ec5917d728479c9f2a4", "name": "Av. Horácio Rodrigues, 50b - Martim de Sá, Caraguatatuba - SP, 11662-400", "lat": -23.62598, "lng": -45.38329}]}