{"city": "Fortaleza", "areaId": "66ee85c1a70885bbb9a4787a", "count": 545, "parkings": [{"id": "6a0e2e0a3f3a32f570a6c1a4", "name": "Av Humberto monte 703", "lat": -3.752308, "lng": -38.557901}, {"id": "6a0e2da53f3a32f570a66ff3", "name": " Academia Askadep", "lat": -3.749877, "lng": -38.559845}, {"id": "6a0e14f0e3101a74dfb43486", "name": "Ponto av Humberto monte 1691 Em frente ao curso delta", "lat": -3.745984, "lng": -38.563258}, {"id": "69fe6759392e267bc2178a84", "name": "AV. HUMBERTO MONTE próximo à(o) N 1691", "lat": -3.746, "lng": -38.563}, {"id": "69b94e817b2d2906d0dcf2ff", "name": " Galpão Kenedy", "lat": -3.728216, "lng": -38.570665}, {"id": "699cba3c5c314059f41384ac", "name": "R. Ary Barroso - Papicu, Fortaleza - CE, 60175-705", "lat": -3.739964, "lng": -38.471721}, {"id": "69459f845d1d946499c3fc25", "name": "R. BELA CRUZ próximo à(o) PRACA(8)", "lat": -3.734045, "lng": -38.542017}, {"id": "69459f845d1d946499c3fc24", "name": "R. CARAPINIMA próximo à(o) PROXIMO AO VIADUTO(10)", "lat": -3.7429298892131806, "lng": -38.54315578937531}, {"id": "69459f845d1d946499c3fc23", "name": "R. CARAPINIMA próximo à(o) SHOPPING BENFICA(8)", "lat": -3.7398, "lng": -38.540157}, {"id": "69459f845d1d946499c3fc22", "name": "R. CARAPINIMA próximo à(o) SHOPPING BENFICA(8)", "lat": -3.738994, "lng": -38.53945}, {"id": "69459f845d1d946499c3fc21", "name": "AV. JOVITA FEITOSA próximo à(o) N 2733(12)", "lat": -3.740968, "lng": -38.561505}, {"id": "69459f845d1d946499c3fc1f", "name": "R. DOM MANUEL DE MEDEIROS (4)", "lat": -3.738529, "lng": -38.56116}, {"id": "69459f845d1d946499c3fc1e", "name": "R. DOM MANUEL DE MEDEIROS próximo à(o) N 1730(6)", "lat": -3.738178, "lng": -38.559528}, {"id": "69459f845d1d946499c3fc1d", "name": "R. DOM LINO próximo à(o) AV. JOVITA FEITOSA(6)", "lat": -3.73975, "lng": -38.556393}, {"id": "69459f845d1d946499c3fc1c", "name": "R. DOM LINO próximo à(o) R. PADRE GUERRA(6)", "lat": -3.738687, "lng": -38.556695}, {"id": "69459f845d1d946499c3fc1b", "name": "R. DOM MANUEL DE MEDEIROS próximo(4)", "lat": -3.737214, "lng": -38.554655}, {"id": "69459f845d1d946499c3fc1a", "name": "R. CRUZ SALDANHA próximo à(o) (4)", "lat": -3.737036, "lng": -38.553548}, {"id": "69459f845d1d946499c3fc19", "name": "R. PADRE GUERRA próximo à(o) R. RAIMUNDO ARRUDA(4)", "lat": -3.737683, "lng": -38.551308}, {"id": "69459f845d1d946499c3fc18", "name": "R. DOM MANUEL DE MEDEIROS próximo à(o) N 878(6)", "lat": -3.736682, "lng": -38.551942}, {"id": "69459f845d1d946499c3fc17", "name": "R. DOM MANUEL DE MEDEIROS próximo à(6)", "lat": -3.73626, "lng": -38.550431}, {"id": "69459f845d1d946499c3fc16", "name": "AV. JOVITA FEITOSA próximo à(o) N 674(6)", "lat": -3.73839, "lng": -38.549831}, {"id": "69459f845d1d946499c3fc15", "name": "R. PADRE GUERRA próximo à(o) N 655(4)", "lat": -3.737355, "lng": -38.550096}, {"id": "69459f845d1d946499c3fc14", "name": "AV. JOSE JATAHY próximo à(o) EM FRENTE AO N 739(6)", "lat": -3.736899, "lng": -38.54371}, {"id": "69459f845d1d946499c3fc13", "name": "AV. JOVITA FEITOSA próximo à(o) N 800(4)", "lat": -3.738681, "lng": -38.551043}, {"id": "69459f845d1d946499c3fc12", "name": "R. PADRE GUERRA próximo à(o) R. CARVALHO MOTA(8)", "lat": -3.736351, "lng": -38.544977}, {"id": "69459f845d1d946499c3fc11", "name": "R. PROFESSOR NOGUEIRA (4)", "lat": -3.737177, "lng": -38.549052}, {"id": "69459f845d1d946499c3fc10", "name": "R. DOM MANUEL DE MEDEIROS próximo à(4)", "lat": -3.73547, "lng": -38.546772}, {"id": "69459f845d1d946499c3fc0f", "name": "AV. JOSE JATAHY próximo à(12)", "lat": -3.735094, "lng": -38.544386}, {"id": "69459f845d1d946499c3fc0e", "name": "AV. JOSE JATAHY próximo à(12)", "lat": -3.732827, "lng": -38.544384}, {"id": "69459f845d1d946499c3fc0d", "name": "AV. SRG. HERMINIO SAMPAIO próximo à(6)", "lat": -3.72515, "lng": -38.554774}, {"id": "69459f845d1d946499c3fc0c", "name": "AV. SRG. HERMINIO SAMPAIO próximo à(o) TV. ISAURA(8)", "lat": -3.724518, "lng": -38.547928}, {"id": "69459f845d1d946499c3fc0b", "name": "AV. SRG. HERMINIO SAMPAIO próximo à(o) N 880(12)", "lat": -3.724477, "lng": -38.54895}, {"id": "69459f845d1d946499c3fc0a", "name": "AV. SRG. HERMINIO SAMPAIO próximo à(o) R. JOSE CANDIDO(12)", "lat": -3.724772, "lng": -38.550327}, {"id": "69459f845d1d946499c3fc09", "name": "AV. FRANCISCO SA próximo à(10)", "lat": -3.720003, "lng": -38.549028}, {"id": "69459f845d1d946499c3fc08", "name": "AV. FRANCISCO SA próximo à(o) R. JOAO SALGADO(12)", "lat": -3.720595, "lng": -38.547781}, {"id": "69459f845d1d946499c3fc07", "name": "AV. JOSE JATAHY próximo à(o) R. MONSENHOR DANTAS(12)", "lat": -3.720028, "lng": -38.546914}, {"id": "69459f845d1d946499c3fc06", "name": "AV. JOSE JATAHY próximo à(o) R. D. MAROQUINHA(8)", "lat": -3.71871, "lng": -38.545686}, {"id": "69459f845d1d946499c3fc05", "name": "R. JACINTO MATOS próximo à(o) AV. TEN. LISBOA(12)", "lat": -3.717861, "lng": -38.545384}, {"id": "69459f845d1d946499c3fc04", "name": "R. JACINTO MATOS próximo à(o) PROXIMO A ESCOLA SALES CAMPOS(8)", "lat": -3.717757, "lng": -38.546396}, {"id": "69459f845d1d946499c3fc03", "name": "AV. LESTE OESTE próximo à(o) MARINA PARK(10)", "lat": -3.71996, "lng": -38.530613}, {"id": "69459f845d1d946499c3fc02", "name": "AV. LESTE OESTE próximo à(o) PEFOCE(8)", "lat": -3.718384, "lng": -38.536406}, {"id": "69459f845d1d946499c3fc01", "name": "AV. LESTE OESTE próximo à(6)", "lat": -3.717796, "lng": -38.538543}, {"id": "69459f845d1d946499c3fc00", "name": "AV. LESTE OESTE próximo à(o) N 1379(6)", "lat": -3.716642, "lng": -38.540626}, {"id": "69459f845d1d946499c3fbff", "name": "AV. LESTE OESTE próximo à(o) PROXIMO A PEFOCE(8)", "lat": -3.718201, "lng": -38.537569}, {"id": "69459f845d1d946499c3fbfe", "name": "AV. JOSE JATAHY próximo à(o) N 1078(12)", "lat": -3.730564, "lng": -38.545373}, {"id": "69459f845d1d946499c3fbfd", "name": "AV. JOSE JATAHY próximo à(o) PROXIMO AO N 636 DA R. DR. SEBASTIAO FRANCO BAIMA(12)", "lat": -3.727137, "lng": -38.546212}, {"id": "69459f845d1d946499c3fbfc", "name": "AV. JOSE JATAHY próximo à(o) AV. SRG. HERMINIO SAMPAIO(10)", "lat": -3.724467, "lng": -38.546419}, {"id": "69459f845d1d946499c3fbfb", "name": "AV. JOSE JATAHY próximo à(o) PRACA CARLOS JEREISSATI(12)", "lat": -3.722525, "lng": -38.546916}, {"id": "69459f845d1d946499c3fbfa", "name": "AV. FRANCISCO SA próximo à(o) N 1834(8)", "lat": -3.722327, "lng": -38.542141}, {"id": "69459f845d1d946499c3fbf9", "name": "R. BRAGA TORRES próximo à(o) AV. FILOMENO GOMES(10)", "lat": -3.716615, "lng": -38.541768}, {"id": "69459f845d1d946499c3fbf8", "name": "AV. FILOMENO GOMES próximo à(8)", "lat": -3.718757, "lng": -38.541657}, {"id": "69459f845d1d946499c3fbf7", "name": "AV. FILOMENO GOMES próximo à(o) N 588(8)", "lat": -3.720093, "lng": -38.541466}, {"id": "69459f845d1d946499c3fbf6", "name": "AV. FILOMENO GOMES próximo à(o) PRACA JOSE DE ALENCAR (6)", "lat": -3.722901, "lng": -38.541078}, {"id": "69459f845d1d946499c3fbf5", "name": "R. OTO DE ALENCAR próximo à(o) PRACA JOSE DE ALENCAR (LICEU)(8)", "lat": -3.723204, "lng": -38.540178}, {"id": "69459f845d1d946499c3fbf4", "name": "R. OTO DE ALENCAR próximo à(o) AO LADO DO CORPO DE BOMBEIROS(12)", "lat": -3.724299, "lng": -38.540394}, {"id": "69459f845d1d946499c3fbf3", "name": "R. TEREZA CRISTINA próximo à(o) R. PEDRO PEREIRA(6)", "lat": -3.727093, "lng": -38.536728}, {"id": "69459f845d1d946499c3fbf2", "name": "AV. BEZERRA DE MENEZES próximo à(o) HAPCLINICA SAO GERARDO(6)", "lat": -3.733488, "lng": -38.553334}, {"id": "69459f845d1d946499c3fbf1", "name": "AV. BEZERRA DE MENEZES próximo à(o) R. PROFESSOR NOGUEIRA(8)", "lat": -3.732832, "lng": -38.550053}, {"id": "69459f845d1d946499c3fbf0", "name": "AV. JOSE JATAHY próximo à(o) AV. BEZERRA DE MENEZES(8)", "lat": -3.731379, "lng": -38.544813}, {"id": "69459f845d1d946499c3fbef", "name": "AV. BEZERRA DE MENEZES próximo à(o) R. CARIRE(8)", "lat": -3.730807, "lng": -38.541752}, {"id": "69459f845d1d946499c3fbee", "name": "R. PADRE IBIAPINA  próximo à(o) N 1253(6)", "lat": -3.726372, "lng": -38.540431}, {"id": "69459f845d1d946499c3fbed", "name": "R. PADRE IBIAPINA  próximo à(o) AO LADO DA DARLING(10)", "lat": -3.728812, "lng": -38.540185}, {"id": "69459f845d1d946499c3fbec", "name": "AV. DUQUE DE CAXIAS próximo à(o) AO LADO DO SESC(10)", "lat": -3.728946, "lng": -38.538781}, {"id": "69459f845d1d946499c3fbeb", "name": "AV. IMPERADOR  próximo à(o) N 1040(10)", "lat": -3.730282, "lng": -38.535237}, {"id": "69459f845d1d946499c3fbea", "name": "AV. TRISTAO GONCALVES próximo à(o) CALCADA DO HCF(12)", "lat": -3.733945, "lng": -38.53522}, {"id": "69459f845d1d946499c3fbe9", "name": "R. METON DE ALENCAR próximo à(o) ENTRADA PARA O METRO(14)", "lat": -3.73214, "lng": -38.535015}, {"id": "69459f845d1d946499c3fbe8", "name": "AV. TRISTAO GONCALVES próximo à(o) CALCADA DA ACAL(14)", "lat": -3.730849, "lng": -38.534347}, {"id": "69459f845d1d946499c3fbe7", "name": "AV. DUQUE DE CAXIAS próximo à(o) COLEGIO TIRADENTES(10", "lat": -3.729287, "lng": -38.537294}, {"id": "69459f845d1d946499c3fbe6", "name": "R. TEREZA CRISTINA próximo à(o) ESTACAO MERCADO SAO SEBASTIAO(10)", "lat": -3.731109, "lng": -38.538064}, {"id": "69459f845d1d946499c3fbe5", "name": "R. PADRE IBIAPINA  próximo à(o) MERCADO SAO SEBASTIAO(14)", "lat": -3.730536, "lng": -38.539707}, {"id": "69459f845d1d946499c3fbe4", "name": "R. JUSTINIANO DE SERPA  próximo à(o) ESTACAO DO BICICLETAR(10)", "lat": -3.731594, "lng": -38.542712}, {"id": "69459f845d1d946499c3fbe3", "name": "AV. DOMINGOS OLIMPIO próximo à(o) N 2086(12)", "lat": -3.7329727, "lng": -38.5417808}, {"id": "69459f845d1d946499c3fbe2", "name": "AV. DOMINGOS OLIMPIO próximo à(o) R. PADRE MORORO(12)", "lat": -3.733662, "lng": -38.539666}, {"id": "69459f845d1d946499c3fbe1", "name": "AV. DOMINGOS OLIMPIO próximo à(o) R. PRINCESA ISABEL(10)", "lat": -3.734395, "lng": -38.537717}, {"id": "69459f845d1d946499c3fbe0", "name": "AV. TRISTAO GONCALVES próximo à(8)", "lat": -3.725705, "lng": -38.532902}, {"id": "69459f845d1d946499c3fbdf", "name": "AV. GUILHERME ROCHA próximo à(8)", "lat": -3.725196, "lng": -38.533742}, {"id": "69459f845d1d946499c3fbde", "name": "R. AMANCIO FILOMENO próximo à(o) N 159(8)", "lat": -3.7084124109502126, "lng": -38.470958134606626}, {"id": "69459f845d1d946499c3fbdd", "name": "AV. VICENTE DE CASTRO próximo à(o) N 1431(8)", "lat": -3.711046, "lng": -38.472264}, {"id": "69459f845d1d946499c3fbdc", "name": "AV. VICENTE DE CASTRO próximo à(o) N 1305(8)", "lat": -3.71242, "lng": -38.472809}, {"id": "69459f845d1d946499c3fbdb", "name": "AV. VICENTE DE CASTRO próximo à(o) N 6101(10)", "lat": -3.713157, "lng": -38.473215}, {"id": "69459f845d1d946499c3fbda", "name": "AV. VICENTE DE CASTRO próximo à(o) N 973(8)", "lat": -3.714953, "lng": -38.474211}, {"id": "69459f845d1d946499c3fbd9", "name": "AV. VICENTE DE CASTRO próximo à(o) N 805(6)", "lat": -3.71606, "lng": -38.474996}, {"id": "69459f845d1d946499c3fbd8", "name": "AV. DA ABOLICAO próximo à(o) N 4917 (8)", "lat": -3.719657, "lng": -38.475937}, {"id": "69459f845d1d946499c3fbd7", "name": "AV. DA ABOLICAO próximo à(o) N 115 (PROXIMO AO IATE CLUBE)(10)", "lat": -3.721032, "lng": -38.478119}, {"id": "69459f845d1d946499c3fbd6", "name": "AV. DA ABOLICAO próximo à(5)", "lat": -3.721644, "lng": -38.478759}, {"id": "69459f845d1d946499c3fbd5", "name": "R. PRISCO BEZERRA próximo à(o) N 2180(10)", "lat": -3.737574, "lng": -38.470399}, {"id": "69459f845d1d946499c3fbd4", "name": "AV. ENG. ALBERTO SA próximo à(o) N 1401(10)", "lat": -3.736068, "lng": -38.470746}, {"id": "69459f845d1d946499c3fbd3", "name": "AV. SANTOS DUMONT próximo à(o) NA LATERAL DO MC DONALDS(4)", "lat": -3.742772, "lng": -38.478126}, {"id": "69459f845d1d946499c3fbd2", "name": "R. BATISTA DE OLIVEIRA próximo à(o) R. ENG. SAMIR HILUY(6)", "lat": -3.747496, "lng": -38.482976}, {"id": "69459f845d1d946499c3fbd1", "name": "AV. SANTOS DUMONT próximo à(o) NA LATERAL DO ANTARES(8)", "lat": -3.739058, "lng": -38.489366}, {"id": "69459f845d1d946499c3fbd0", "name": "R. NUNES VALENTE próximo à(o) R. PADRE QUINDERE(4)", "lat": -3.737335, "lng": -38.5041407}, {"id": "69459f845d1d946499c3fbcf", "name": "AV. GOV. PARSIFAL BARROSO (12)", "lat": -3.731822, "lng": -38.569251}, {"id": "69459f845d1d946499c3fbce", "name": "R. OLAVO BILAC próximo à(o) RIOMAR KENNEDY(12)", "lat": -3.725426, "lng": -38.565598}, {"id": "69459f845d1d946499c3fbcd", "name": "R. ZENILO ALMADA próximo à(o) PROXIMO A ENTRADA 4 DO RIOMAR(6)", "lat": -3.725362, "lng": -38.567208}, {"id": "69459f845d1d946499c3fbcc", "name": "DR. THEBERGE próximo à(o) PROXIMO A R. ZENILO ALMADA(10)", "lat": -3.725463, "lng": -38.568324}, {"id": "69459f845d1d946499c3fbcb", "name": "DR. THEBERGE próximo à(o) PROXIMO A ESTACAO DO BICICLETAR(12", "lat": -3.726905, "lng": -38.568765}, {"id": "69459f845d1d946499c3fbca", "name": "DR. THEBERGE próximo à(o) AV. SRG. HERMINIO SAMPAIO(12)", "lat": -3.727678, "lng": -38.569036}, {"id": "69459f845d1d946499c3fbc9", "name": "AV. CEARENSES próximo à(o) PRACINHA DO RIOMAR KENNEDY(12)", "lat": -3.730668, "lng": -38.56723}, {"id": "69459f845d1d946499c3fbc8", "name": "AV. CEARENSES próximo à(10)", "lat": -3.729733, "lng": -38.566902}, {"id": "69459f845d1d946499c3fbc7", "name": "AV. SRG. HERMINIO SAMPAIO próximo à(o) SHOPPING RIOMAR(12)", "lat": -3.727256, "lng": -38.566524}, {"id": "69459f845d1d946499c3fbc6", "name": "AV. SRG. HERMINIO SAMPAIO próximo à(o) N 2710(10)", "lat": -3.727066, "lng": -38.564735}, {"id": "69459f845d1d946499c3fbc5", "name": "R. CEL. MOZART GONDIM próximo à(o) N 1235(10)", "lat": -3.730312, "lng": -38.560101}, {"id": "69459f845d1d946499c3fbc4", "name": "R. CEL. MOZART GONDIM próximo à(6)", "lat": -3.732228, "lng": -38.559498}, {"id": "69459f845d1d946499c3fbc3", "name": "R. ERETIDES MARTINS próximo à(6)", "lat": -3.732007, "lng": -38.55843}, {"id": "69459f845d1d946499c3fbc2", "name": "R. ERETIDES MARTINS próximo à(14)", "lat": -3.730643, "lng": -38.559286}, {"id": "69459f845d1d946499c3fbc1", "name": "R. ERETIDES MARTINS próximo à(o) R. IPE(6)", "lat": -3.729986, "lng": -38.559176}, {"id": "69459f845d1d946499c3fbc0", "name": "AV. SRG. HERMINIO SAMPAIO (14)", "lat": -3.725837, "lng": -38.557691}, {"id": "69459f845d1d946499c3fbbf", "name": "AV. SRG. HERMINIO SAMPAIO próximo à(o) N 1723(8)", "lat": -3.725601, "lng": -38.556018}, {"id": "69459f845d1d946499c3fbbe", "name": "AV. GOV. PARSIFAL BARROSO próximo à(o) PARQUE RACHEL DE QUEIROZ(8)", "lat": -3.733543, "lng": -38.569079}, {"id": "69459f845d1d946499c3fbbd", "name": "R. LICURGO MONTENEGRO próximo à(o) PARQUE RACHEL DE QUEIROZ(14)", "lat": -3.734179090725953, "lng": -38.56980490145489}, {"id": "69459f845d1d946499c3fbbc", "name": "PARQUE RACHEL DE QUEIROZ próximo à(o) AO LADO DA ACADEMIA AO AR LIVRE(14)", "lat": -3.733715, "lng": -38.57064}, {"id": "69459f845d1d946499c3fbbb", "name": "R. FREI ODILON próximo à(o) PARQUE RACHEL DE QUEIROZ (ATRAS DO CAMPO)(14)", "lat": -3.73385, "lng": -38.572141}, {"id": "69459f845d1d946499c3fbba", "name": "R. EDGAR FALCAO  próximo à(o) PARQUE RACHEL DE QUEIROZ ¨(6)", "lat": -3.732422, "lng": -38.571503}, {"id": "69459f845d1d946499c3fbb9", "name": "AV. GOV. PARSIFAL  PARQUE RACHEL DE QUEIROZ(10)", "lat": -3.732239, "lng": -38.569191}, {"id": "69459f845d1d946499c3fbb8", "name": "R. 5 próximo à(o) R. BRAZ DE FRANCESCO(12)", "lat": -3.733103, "lng": -38.567537}, {"id": "69459f845d1d946499c3fbb7", "name": "R. BRAZ DE FRANCESCO próximo à(o) R. 3(12)", "lat": -3.734294, "lng": -38.567344}, {"id": "69459f845d1d946499c3fbb6", "name": "R. 3 próximo à(o) PRACA JONAS GOMES DE FREITAS(12)", "lat": -3.734534, "lng": -38.568628}, {"id": "69459f845d1d946499c3fbb5", "name": "R. DONA ALEXANDRINA próximo (10)", "lat": -3.73444, "lng": -38.58343}, {"id": "69459f845d1d946499c3fbb4", "name": "R. DONA ALEXANDRINA (8)", "lat": -3.733416, "lng": -38.583518}, {"id": "69459f845d1d946499c3fbb3", "name": "R. FREI ODILON próximo à(o) N 1416(6)", "lat": -3.732168, "lng": -38.572658}, {"id": "69459f845d1d946499c3fbb2", "name": "N2 PARQUE RACHEL DE QUEIROZ (10)", "lat": -3.734274, "lng": -38.570562}, {"id": "6918f34da51af10337b777d0", "name": "Parque", "lat": -3.734312961151194, "lng": -38.57106657741664}, {"id": "6910f0e1b233821195c79579", "name": "R. ALCANTARA BILHAR (8)", "lat": -3.735692, "lng": -38.58215}, {"id": "6910f0e1b233821195c79578", "name": "R. BANVARTH BEZERRA(PRACA) (10)", "lat": -3.73386, "lng": -38.580129}, {"id": "6910f0e1b233821195c79577", "name": "R. DOM MAURICIO próximo à(o) N 273 (6)", "lat": -3.730695, "lng": -38.576739}, {"id": "6910f0e1b233821195c79576", "name": "R. DOM MAURICIO (8)", "lat": -3.732672, "lng": -38.575983}, {"id": "6910f070b233821195c76824", "name": "AV. HUMBERTO MONTE (14)", "lat": -3.743668, "lng": -38.56494}, {"id": "6910f070b233821195c76823", "name": "AV. HUMBERTO MONTE próximo à(o) AV. JOVITA FEITOSA(8)", "lat": -3.742063, "lng": -38.5667}, {"id": "6910f070b233821195c76822", "name": "AV. HUMBERTO MONTE próximo à(o) R. PADRE GUERRA(8)", "lat": -3.740979, "lng": -38.567593}, {"id": "6910f070b233821195c76821", "name": "AV. HUMBERTO MONTE próximo à(o) N 2550(4)", "lat": -3.740328, "lng": -38.567684}, {"id": "6910f070b233821195c76820", "name": "AV. BEZERRA DE MENEZES próximo à(o) R. JOSE DE PONTES(4)", "lat": -3.736633, "lng": -38.568275}, {"id": "6910f070b233821195c7681f", "name": "AV. HUMBERTO MONTE próximo à(o) R. JOSE DE PONTES(6)", "lat": -3.739636, "lng": -38.568496}, {"id": "6910f070b233821195c7681e", "name": "R. ERICO MOTA próximo à(o) TV. ERICO MOTA(4)", "lat": -3.735953, "lng": -38.562775}, {"id": "6910f070b233821195c7681d", "name": "AV. BEZERRA DE MENEZES próximo à(o) N 1571(4)", "lat": -3.734593, "lng": -38.558632}, {"id": "6910f070b233821195c7681c", "name": "R. GENERAL PIRAGIBE próximo à(o) R. GUSTAVO SAMPAIO(6)", "lat": -3.735756, "lng": -38.558449}, {"id": "6910f070b233821195c7681b", "name": "R. AZEVEDO BOLAO próximo à(o) R. GENERAL PIRAGIBE(6)", "lat": -3.736779, "lng": -38.558205}, {"id": "6910f070b233821195c7681a", "name": "AV. GOV. PARSIFAL BARROSO (10)", "lat": -3.736298, "lng": -38.568929}, {"id": "6910f070b233821195c76819", "name": "R. BRAZ DE FRANCESCO (5)", "lat": -3.735964, "lng": -38.567231}, {"id": "6910f070b233821195c76818", "name": "AV. BEZERRA DE MENEZES (10)", "lat": -3.735356, "lng": -38.563619}, {"id": "6910f070b233821195c76817", "name": "AV. BEZERRA DE MENEZES (12)", "lat": -3.734738, "lng": -38.56131}, {"id": "6910f070b233821195c76816", "name": "AV. BEZERRA DE MENEZES próximo à(o) R. DOM LINO (6)", "lat": -3.734347, "lng": -38.557515}, {"id": "6910f070b233821195c76815", "name": "ANA ENTRADA DO NORTH SHOPPING (20)", "lat": -3.735821, "lng": -38.566121}, {"id": "6910f070b233821195c76814", "name": "R. OLAVO BILAC  próximo à(o) TV. INTERNACIONAL(6)", "lat": -3.730984, "lng": -38.564723}, {"id": "6910f070b233821195c76813", "name": "R. ALUISIO ELEUTERIO próximo à(o) N 610 (6)", "lat": -3.733682577125363, "lng": -38.56158925229504}, {"id": "6910f070b233821195c76812", "name": "R. OLAVO BILAC  próximo à(o) N 1600 (8)", "lat": -3.734092, "lng": -38.564464}, {"id": "6910f070b233821195c76811", "name": "R. ALUISIO ELEUTERIO (8)", "lat": -3.733921, "lng": -38.563686}, {"id": "6910f070b233821195c76810", "name": "R. OLAVO BILAC   N 1365 (EM FRENTE A IGREJA) (4)", "lat": -3.732941, "lng": -38.564576}, {"id": "6910f070b233821195c7680f", "name": "R. TABELIAO FABIAO próximo à(o) N 243 (20)", "lat": -3.733805, "lng": -38.566705}, {"id": "6910f070b233821195c7680e", "name": "R. DOM MAURICIO próximo à(o) N 566 (6)", "lat": -3.733636, "lng": -38.575533}, {"id": "6910f070b233821195c7680d", "name": "R. ANTONIO LAFAIETE próximo à(o) N 520 (6)", "lat": -3.73232, "lng": -38.57444}, {"id": "6910f070b233821195c7680c", "name": "R. TENENTE MARQUES próximo (5)", "lat": -3.736014, "lng": -38.573221}, {"id": "6910f070b233821195c7680b", "name": "R. HAROLDO TORRES próximo à(o) N 1305 (10)", "lat": -3.730334, "lng": -38.571043}, {"id": "6910f070b233821195c7680a", "name": "R. FREI ODILON próximo à(o) N 1416 (6)", "lat": -3.7324500244377563, "lng": -38.57259839547141}, {"id": "6910f070b233821195c76809", "name": "Q. J próximo à(o) Q. F (6)", "lat": -3.729622, "lng": -38.570421}, {"id": "6910f070b233821195c76808", "name": "R. FRANCISCO ALVES (8)", "lat": -3.736973, "lng": -38.57764}, {"id": "6910f070b233821195c76807", "name": "R. EVANDRO LUZ (8)", "lat": -3.737141, "lng": -38.576579}, {"id": "6910f070b233821195c76806", "name": "R. LICURGO MONTENEGRO (4)", "lat": -3.735488, "lng": -38.576868}, {"id": "6910f070b233821195c76805", "name": "R. PADRE MAXIMO FEITOSA próximo à(o) PRACA (6)", "lat": -3.735366, "lng": -38.575786}, {"id": "6910f070b233821195c76804", "name": "R. DR. EDSON DE CARVALHO LIMA (8)", "lat": -3.735674, "lng": -38.574148}, {"id": "690745d8993a0c4f739a7807", "name": "temporario", "lat": -3.7311693215508988, "lng": -38.5254022560431}, {"id": "68e3f207cd56f3fd3ff4e953", "name": "Believe Calistenia ☝️(6)", "lat": -3.7401129741221397, "lng": -38.4963217378333}, {"id": "68e049e7cd56f3fd3f676e5e", "name": "R. BENI CARVALHO (6)", "lat": -3.747545, "lng": -38.49045}, {"id": "68e049e7cd56f3fd3f676e5d", "name": "AV. ENG. SANTANA JR (6)", "lat": -3.739414, "lng": -38.48464}, {"id": "68e049e7cd56f3fd3f676e5b", "name": "R. DR. GILBERTO STUDART (8)", "lat": -3.742852, "lng": -38.483278}, {"id": "68e049e7cd56f3fd3f676e5a", "name": "R. SANTIAGO VASQUES FILHO (10)", "lat": -3.74696, "lng": -38.478421}, {"id": "68e049e7cd56f3fd3f676e59", "name": "R. HELENA FONTENELE (8)", "lat": -3.748686, "lng": -38.476342}, {"id": "68e049e7cd56f3fd3f676e58", "name": "R. JORN. NERTAN MACEDO próximo à(o) N 440(6)", "lat": -3.751474, "lng": -38.47721}, {"id": "68e049e7cd56f3fd3f676e57", "name": "R. DEUSDEDIT COSTA SOUSA (4)", "lat": -3.752313, "lng": -38.476918}, {"id": "68e049e7cd56f3fd3f676e56", "name": "R. BENTO ALBURQUERQUE próximo à(o) 447(6)", "lat": -3.743277, "lng": -38.484654}, {"id": "68e049e7cd56f3fd3f676e55", "name": "AV. BARAO DE STUDART próximo à(o) N 1165(8)", "lat": -3.735343, "lng": -38.506699}, {"id": "68e049e7cd56f3fd3f676e54", "name": "R. JOAQUIM NABUCO próximo à(o) R. CANUTO DE AGUIAR(4)", "lat": -3.729346, "lng": -38.49925}, {"id": "68e049e7cd56f3fd3f676e53", "name": "R. TORRES CAMARA próximo à(o) R. OSVALDO CRUZ(6)", "lat": -3.737644, "lng": -38.500914}, {"id": "68e049e7cd56f3fd3f676e52", "name": "R. TIBURCIO CAVALCANTE próximo à(o) R. ANA BILHAR(6)", "lat": -3.72807, "lng": -38.500001}, {"id": "68e049e7cd56f3fd3f676e51", "name": "AV. DA ABOLICAO (6)", "lat": -3.726298, "lng": -38.499381}, {"id": "68e049e7cd56f3fd3f676e50", "name": "R. TIBURCIO CAVALCANTE (8)", "lat": -3.727071, "lng": -38.499773}, {"id": "68e049e7cd56f3fd3f676e4f", "name": "R. NUNES VALENTE próximo à(o) R. SILVA JATAHY(4)", "lat": -3.726811, "lng": -38.500772}, {"id": "68e049e7cd56f3fd3f676e4e", "name": "R. JOSE VILAR próximo à(o) R. SILVA JATAHY (6)", "lat": -3.726429, "lng": -38.501654}, {"id": "68e049e7cd56f3fd3f676e4d", "name": "R. SILVA PAULET (4) ", "lat": -3.726741, "lng": -38.502954}, {"id": "68e049e7cd56f3fd3f676e4c", "name": "AV. BARAO DE STUDART (10)", "lat": -3.726433, "lng": -38.504072}, {"id": "68e049e7cd56f3fd3f676e4b", "name": "R. EDUARDO GARCIA (6)", "lat": -3.740154, "lng": -38.493084}, {"id": "68e049e7cd56f3fd3f676e4a", "name": "AV. PADRE ANTONIO TOMAS (6)", "lat": -3.741625, "lng": -38.494815}, {"id": "68e049e7cd56f3fd3f676e49", "name": "R. DES. LEITE ALBUQUERQUE (6)", "lat": -3.737837, "lng": -38.496739}, {"id": "68e049e7cd56f3fd3f676e48", "name": "R. DR. JOSE LOURENCO (4)", "lat": -3.727062, "lng": -38.505347}, {"id": "68e049e7cd56f3fd3f676e47", "name": "AV. RUI BARBOSA próximo à(o) R. TEN. AMAURI PIO (6)", "lat": -3.727353, "lng": -38.506604}, {"id": "68e049e7cd56f3fd3f676e46", "name": "R. ANTONELE BEZERRA (4)", "lat": -3.725037, "lng": -38.50593}, {"id": "68e049e7cd56f3fd3f676e45", "name": "R. DR. TOMÁS POMPEU (4)", "lat": -3.725918, "lng": -38.506234}, {"id": "68e049e7cd56f3fd3f676e44", "name": "R. CARLOS VASCONCELOS (4)", "lat": -3.7244, "lng": -38.508058}, {"id": "68e049e7cd56f3fd3f676e43", "name": "R. DEP. MOREIRA DA ROCHA (8)", "lat": -3.726572, "lng": -38.508641}, {"id": "68e049e7cd56f3fd3f676e42", "name": "AV. VILEBALDO AGUIAR (4)", "lat": -3.741881, "lng": -38.483864}, {"id": "68e049e7cd56f3fd3f676e41", "name": "R. BARAO DE ARACATI (4)", "lat": -3.726595, "lng": -38.509863}, {"id": "68e049e7cd56f3fd3f676e40", "name": "R. PAULA NEY próximo à(o) R. FONSECA LOBO (4)", "lat": -3.742054, "lng": -38.490534}, {"id": "68e049e7cd56f3fd3f676e3f", "name": "R. MARIA TOMASIA (10)", "lat": -3.737763, "lng": -38.490565}, {"id": "68e049e7cd56f3fd3f676e3e", "name": "AV. MONSENHOR TABOSA (12)", "lat": -3.723842, "lng": -38.514876}, {"id": "68e049e7cd56f3fd3f676e3d", "name": "R. IDELFONSO ALBANO (6)", "lat": -3.723497, "lng": -38.510104}, {"id": "68e049e7cd56f3fd3f676e3c", "name": "R. MARIA TOMASIA próximo à(o) R. CEL. LINHARES(5)", "lat": -3.736371, "lng": -38.494164}, {"id": "68e049e7cd56f3fd3f676e3b", "name": "R. GONCALVES LEDO (5)", "lat": -3.724974, "lng": -38.514127}, {"id": "68e049e7cd56f3fd3f676e3a", "name": "R. JOAQUIM ALVES (8)", "lat": -3.72322, "lng": -38.51171}, {"id": "68e049e7cd56f3fd3f676e39", "name": "R. MONSENHOR BRUNO (6)", "lat": -3.725658, "lng": -38.507306}, {"id": "68e049e7cd56f3fd3f676e38", "name": "R. TIBURCIO CAVALCANTE N 1324 (8)", "lat": -3.736622, "lng": -38.502841}, {"id": "68e049e7cd56f3fd3f676e37", "name": "AV. BARAO DE STUDART (6)", "lat": -3.742495, "lng": -38.508891}, {"id": "68e049e7cd56f3fd3f676e36", "name": "AV. ANTONIO SALES (5)", "lat": -3.744785, "lng": -38.504219}, {"id": "68bb3b238043e2d467420c80", "name": "R. DOS TABAJARAS N 575", "lat": -3.7195779, "lng": -38.5146463}, {"id": "68bb3b238043e2d467420c7f", "name": "R. DOS TABAJARAS N 451 (LARGO DOS TREMEMBES)", "lat": -3.7192720651498785, "lng": -38.51587235926315}, {"id": "68bb3b238043e2d467420c7e", "name": "R. DOS CARIRIS PROXIMO A PONTE DOS INGLESES", "lat": -3.7190835078874573, "lng": -38.51723626255648}, {"id": "68bb3b238043e2d467420c7d", "name": "R. DOS TABAJARAS AO LADO DO N 138", "lat": -3.7190245, "lng": -38.518348}, {"id": "68bb3b238043e2d467420c7c", "name": "AV. ALMIRANTE TAMANDARE PROXIMO A R. DOS TABAJARAS", "lat": -3.7186441, "lng": -38.5199503}, {"id": "68b2f223817acb579c41aac4", "name": "R. CASTRO E SILVA (6)", "lat": -3.722559, "lng": -38.530442}, {"id": "68b2f223817acb579c41aac3", "name": "R. LIBERATO BARROSO (8)", "lat": -3.72701, "lng": -38.53156}, {"id": "68b2f1aa817acb579c408f66", "name": "AV. DOS EXPEDICIONARIOS próximo à(o) R. COSTA SOUSA(6)", "lat": -3.747602, "lng": -38.536034}, {"id": "68b2f1aa817acb579c408f65", "name": "AV. DOS EXPEDICIONARIOS próximo à(o) R. PAULINO (6)", "lat": -3.745854, "lng": -38.535463}, {"id": "68b2f1aa817acb579c408f64", "name": "R. SENADOR POMPEU próximo à(o) FB CENTRAL(6)", "lat": -3.7413173026373734, "lng": -38.53405639529998}, {"id": "68b2f1aa817acb579c408f63", "name": "R. PADRE ROMA próximo à(o) R. SENADOR POMPEU(14)", "lat": -3.743573, "lng": -38.534522}, {"id": "68b2f1aa817acb579c408f62", "name": "R. SENADOR POMPEU próximo à(o) R. JOAQUIM MAGALHAES (6)", "lat": -3.738315, "lng": -38.533032}, {"id": "68b2f1aa817acb579c408f61", "name": "R. PADRE MIGUELINO próximo à(o) R. LEANDRO MONTEIRO(4)", "lat": -3.742493, "lng": -38.534636}, {"id": "68b2f1aa817acb579c408f60", "name": "AV. TREZE DE MAIO próximo à(o) N 1948 (DROGASIL)(8)", "lat": -3.744511, "lng": -38.534883}, {"id": "68b2f1aa817acb579c408f5f", "name": "AV. DOS EXPEDICIONARIOS próximo à(o) AV. EDUARDO (14)", "lat": -3.7502955506135724, "lng": -38.537020236265036}, {"id": "68b2f1aa817acb579c408f5e", "name": "R. COSTA SOUSA próximo à(o) ESTADIO PRESIDENTE VARGAS (8)", "lat": -3.747231, "lng": -38.53679}, {"id": "68b2f1aa817acb579c408f5d", "name": "R. MAL. DEODORO próximo à(o) GINASIO AECIO DE BORBA(10)", "lat": -3.744746, "lng": -38.537381}, {"id": "68b2f1aa817acb579c408f5c", "name": "R. MAL. DEODORO próximo à(o) PRACA DA GENTILANDIA(12)", "lat": -3.743751, "lng": -38.536941}, {"id": "68b2f1aa817acb579c408f5b", "name": "R. JOAO GENTIL próximo à(o) PRACA JOAO GENTIL(12)", "lat": -3.742796, "lng": -38.537313}, {"id": "68b2f1aa817acb579c408f5a", "name": "R. WALDERY UCHOA próximo à(o) PRACA JOAO GENTIL(16)", "lat": -3.743347, "lng": -38.538232}, {"id": "68b2f1aa817acb579c408f59", "name": "R. MAJOR LAURINDO próximo à(o) R. ANTENOR FROTA (6)", "lat": -3.747212257528624, "lng": -38.539387285712884}, {"id": "68b2f1aa817acb579c408f58", "name": "AV. EDUARDO GIRAO próximo à(o) N 317(10)", "lat": -3.748872, "lng": -38.53959}, {"id": "68b2f1aa817acb579c408f57", "name": "AV. EDUARDO GIRAO próximo à(o) EM FRENTE AO N 411(10)", "lat": -3.748053, "lng": -38.540144}, {"id": "68b2f1aa817acb579c408f56", "name": "AV. EDUARDO GIRAO próximo à(o) R. PADRE CICERO(6)", "lat": -3.747234, "lng": -38.54173}, {"id": "68b2f1aa817acb579c408f55", "name": "R. PADRE CICERO próximo à(o) R. CARLOS CAMARA(8)", "lat": -3.746462, "lng": -38.542527}, {"id": "68b2f1aa817acb579c408f54", "name": "R. PADRE CICERO próximo à(o) AV. DA UNIVERSIDADE(4)", "lat": -3.74572, "lng": -38.54331}, {"id": "68b2f1aa817acb579c408f53", "name": "AV. DA UNIVERSIDADE próximo à(o) N 2974 (10)", "lat": -3.742103, "lng": -38.540299}, {"id": "68b2f1aa817acb579c408f52", "name": "AV. DA UNIVERSIDADE próximo à(o) N 2700 - BIBLIOTECA UFC (12)", "lat": -3.740344, "lng": -38.538656}, {"id": "68b2f1aa817acb579c408f51", "name": "AV. DA UNIVERSIDADE próximo à(o) AV. 13 DE MAIO (12)", "lat": -3.741012, "lng": -38.539279}, {"id": "68b2f1aa817acb579c408f50", "name": "AV. DUQUE DE CAXIAS próximo à(o) APIGUANA(8)", "lat": -3.730879, "lng": -38.532442}, {"id": "68b2f1aa817acb579c408f4f", "name": "AV. DOMINGOS OLIMPIO próximo à(o) N 1200(8)", "lat": -3.735562, "lng": -38.533889}, {"id": "68b2f1aa817acb579c408f4e", "name": "R. SENADOR POMPEU próximo à(o) AV. DOMINGOS OLIMPIO (8)", "lat": -3.736365, "lng": -38.532444}, {"id": "68b2f1aa817acb579c408f4d", "name": "R. GENERAL SAMPAIO próximo à(o) ESTACAO (10)", "lat": -3.722145, "lng": -38.529584}, {"id": "68b2f1aa817acb579c408f4c", "name": "R. GENERAL SAMPAIO próximo à(o) (10)", "lat": -3.7263, "lng": -38.53092}, {"id": "68b2f1aa817acb579c408f4b", "name": "R. CARLOS VASCONCELOS próximo à(o) R. TOMAS ACIOLI(4)", "lat": -3.743456, "lng": -38.514025}, {"id": "68b2f1aa817acb579c408f4a", "name": "AV. ANTONIO SALES próximo à(o) R. IDELFONSO ALBANO (DROGASIL)(6)", "lat": -3.741484, "lng": -38.515882}, {"id": "68b2f1aa817acb579c408f49", "name": "R. GONCALVES LEDO (6)", "lat": -3.738462, "lng": -38.518692}, {"id": "68b2f1aa817acb579c408f48", "name": "R. GEN. CLARINDO DE QUEIROZ (8)", "lat": -3.732333, "lng": -38.531617}, {"id": "68b2f1aa817acb579c408f47", "name": "R. METON DE ALENCAR próximo à(o) (10)", "lat": -3.733094, "lng": -38.532307}, {"id": "68b2f1aa817acb579c408f46", "name": "R. ISRAEL BEZERRA próximo à(o) R. DOS MANGUEZAIS(6)", "lat": -3.750893, "lng": -38.491869}, {"id": "68b2f1aa817acb579c408f45", "name": "AV. ANTONIO SALES próximo à(o) R. JOAO CORDEIRO(5)", "lat": -3.740559, "lng": -38.518001}, {"id": "68b2f1aa817acb579c408f3f", "name": "R. EDUARDO BEZERRA próximo à(o) N 969 (6)", "lat": -3.753727, "lng": -38.511675}, {"id": "68b2f1aa817acb579c408f3e", "name": "R. EDUARDO BEZERRA (4)", "lat": -3.753231, "lng": -38.508061}, {"id": "68b2f1aa817acb579c408f3d", "name": "R. ANTONIO AUGUSTO próximo à(o) N 1965 (8)", "lat": -3.737369, "lng": -38.515835}, {"id": "68b2f1aa817acb579c408f3c", "name": "R. ILDEFONSO ALBANO próximo à(o) N 2050 (12)", "lat": -3.737985, "lng": -38.515024}, {"id": "68b2f1aa817acb579c408f3b", "name": "AV. AGUANAMBI  EM FRENTE A ESTACAO FATIMA (6)", "lat": -3.75341, "lng": -38.52359}, {"id": "68b2f1aa817acb579c408f39", "name": "PARQUE RIO BRANCO (ENTRADA LESTE) (12)", "lat": -3.7510851, "lng": -38.5176218}, {"id": "68b2f1aa817acb579c408f38", "name": " PARQUE RIO BRANCO (ENTRADA OESTE) (6)", "lat": -3.7514846, "lng": -38.5206671}, {"id": "68b04e27817acb579cd8216b", "name": "AV. PONTES VIEIRA (ALECE) (8)", "lat": -3.751236, "lng": -38.502031}, {"id": "68b04e27817acb579cd8216a", "name": "PRACA ARQUITETO ROGERIO DE SOUSA FROES(8)", "lat": -3.749158, "lng": -38.49911}, {"id": "6894d133570056dfb352ea3b", "name": "AV. SANTOS DUMONT  R. TAMISA(10)", "lat": -3.749188, "lng": -38.45787}, {"id": "6894d133570056dfb352ea3a", "name": "AV. CLOVIS ARRAIS MAIA  RESTAURANTE LITORAL(8)", "lat": -3.731807, "lng": -38.457513}, {"id": "6894d133570056dfb352ea39", "name": "AV. CLOVIS ARRAIS MAIA  ARENINHA PRAIA DO FUTURO I(8)", "lat": -3.724372, "lng": -38.461259}, {"id": "6894d133570056dfb352ea38", "name": "R. RENATO BRAGA  R. CEL. JOSE AURELIO CAMARA(10)", "lat": -3.732354, "lng": -38.463311}, {"id": "6894d133570056dfb352ea37", "name": "R. DOLOR BARREIRA  R. CEL JOSÉ AURELIO CAMARA(10)", "lat": -3.73587, "lng": -38.469549}, {"id": "6894d133570056dfb352ea36", "name": "R. DR GERARDO CAMILO DE AGUIAR(10)", "lat": -3.742349, "lng": -38.465306}, {"id": "6894d133570056dfb352ea35", "name": "AV. PE. JOAQUIM COLAÇO  N 1396(10)", "lat": -3.746531, "lng": -38.464102}, {"id": "6894d133570056dfb352ea34", "name": "R. CHARLES CHAPLIN (UNIFANOR)(8)", "lat": -3.748965, "lng": -38.463023}, {"id": "6894d133570056dfb352ea33", "name": "AV. SANTOS DUMONT  VIASUL FIAT DUNAS(20)", "lat": -3.74778, "lng": -38.462927}, {"id": "6894d133570056dfb352ea32", "name": "AV. SANTOS DUMONT  N 7650(6)", "lat": -3.747177, "lng": -38.464756}, {"id": "6894d133570056dfb352ea31", "name": "AV. CLOVIS ARRAIS MAIA  R. ISMAEL PORDEUS(6)", "lat": -3.720211, "lng": -38.463409}, {"id": "6894d133570056dfb352ea30", "name": "AV. CESAR CALS  N 420(6)", "lat": -3.721602, "lng": -38.464202}, {"id": "6894d133570056dfb352ea2f", "name": "AV. CESAR CALS  R. DR ANTÔNIO CARNEIRO(10)", "lat": -3.724739, "lng": -38.462678}, {"id": "6894d133570056dfb352ea2e", "name": "AV. CLOVIS MATOS  EEEP MARIA ANGELA(10)", "lat": -3.728835, "lng": -38.461517}, {"id": "6894d133570056dfb352ea2d", "name": "AV. CESAR CALS  N1654(6)", "lat": -3.73142, "lng": -38.458989}, {"id": "6894d133570056dfb352ea2c", "name": "R. RENATO BRAGA  AV. PINTOR ANTÔNIO BANDEIRA(8)", "lat": -3.732008, "lng": -38.460108}, {"id": "6894d133570056dfb352ea2b", "name": "AV. ENG. LUIZ VIEIRA  N 460(10)", "lat": -3.732093, "lng": -38.465234}, {"id": "6894d133570056dfb352ea2a", "name": "AV. ENG. LUIZ VIEIRA  N 556(8)", "lat": -3.732592, "lng": -38.466837}, {"id": "6894d133570056dfb352ea29", "name": "AV. DOLOR BARREIRA  N 1250(8)", "lat": -3.736869, "lng": -38.46896}, {"id": "6894d133570056dfb352ea28", "name": "AV. DOLOR BARREIRA  N 1350(8)", "lat": -3.738156, "lng": -38.468297}, {"id": "6894d133570056dfb352ea27", "name": "AV. CLOVIS ARRAIS MAIA  BARRACA ARPÃO(10)", "lat": -3.763835, "lng": -38.440364}, {"id": "6894d133570056dfb352ea26", "name": "ARENINHA DO CAÇA E PESCA(12)", "lat": -3.764836666278365, "lng": -38.439796863327814}, {"id": "6894d133570056dfb352ea25", "name": "AV. CLOVIS ARRAIS MAIA  N 6527(10)", "lat": -3.761676, "lng": -38.441666}, {"id": "6894d133570056dfb352ea24", "name": "AV. CLOVIS ARRAIS MAIA  N5765(10)", "lat": -3.762772, "lng": -38.441019}, {"id": "6894d133570056dfb352ea23", "name": "AV. CLOVIS ARRAIS MAIA  R. HILDEBRANDO POMPEU(10)", "lat": -3.760347, "lng": -38.442449}, {"id": "6894d133570056dfb352ea22", "name": "AV. CLOVIS ARRAIS MAIA  ITAPARIKA(20)", "lat": -3.759466411756602, "lng": -38.44292230904102}, {"id": "6894d133570056dfb352ea21", "name": "AV. CLOVIS ARRAIS MAIA  N6645(10)", "lat": -3.757737, "lng": -38.443691}, {"id": "6894d133570056dfb352ea20", "name": "AV. CLOVIS ARRAIS MAIA  N5700(6)", "lat": -3.75668, "lng": -38.444222}, {"id": "6894d133570056dfb352ea1f", "name": "AV. CLOVIS ARRAIS MAIA  N6421(10)", "lat": -3.754276682832542, "lng": -38.44516530632399}, {"id": "6894d133570056dfb352ea1e", "name": "AV. CLOVIS ARRAIS MAIA  N5531(10)", "lat": -3.753591, "lng": -38.44567}, {"id": "6894d133570056dfb352ea1d", "name": " R. SALUSTIANO DE AGUIAR(10)", "lat": -3.75247, "lng": -38.446281}, {"id": "6894d133570056dfb352ea1c", "name": "R. SALUSTIANO DE PINHO(10)", "lat": -3.751476, "lng": -38.446682}, {"id": "6894d133570056dfb352ea1b", "name": "AV. CLOVIS ARRAIS MAIA  N5205(20)", "lat": -3.750539, "lng": -38.447242}, {"id": "6894d133570056dfb352ea1a", "name": "AV. CLOVIS ARRAIS MAIA  N5025(10)", "lat": -3.74864, "lng": -38.448072}, {"id": "6894d133570056dfb352ea19", "name": "AV. CLOVIS ARRAIS MAIA  R. JOÃO ALENCAR(10)", "lat": -3.747834, "lng": -38.448563}, {"id": "6894d133570056dfb352ea18", "name": "AV. CLOVIS ARRAIS MAIA  N4709(6)", "lat": -3.746186, "lng": -38.449382}, {"id": "6894d133570056dfb352ea17", "name": "AV. CLOVIS ARRAIS MAIA  N4501(10)", "lat": -3.744586, "lng": -38.450208}, {"id": "6894d133570056dfb352ea16", "name": "AV. CLOVIS ARRAIS MAIA  N4395(10)", "lat": -3.743471, "lng": -38.450932}, {"id": "6894d133570056dfb352ea15", "name": "AV. CLOVIS ARRAIS MAIA próximo à N 3125(20)", "lat": -3.742630091527027, "lng": -38.45120698213578}, {"id": "6894d133570056dfb352ea14", "name": "AV. CLOVIS ARRAIS MAIA  R. DR TURBAY BARREIRA(10)", "lat": -3.741318, "lng": -38.45205}, {"id": "6894d133570056dfb352ea13", "name": "AV. CLOVIS ARRAIS MAIA  R. OSWALDO ARAÚJO(10)", "lat": -3.739853, "lng": -38.452916}, {"id": "6894d133570056dfb352ea12", "name": "AV. CLOVIS ARRAIS MAIA  R. DR ZELITO PAMPLONA(20)", "lat": -3.738572, "lng": -38.453635}, {"id": "6894d133570056dfb352ea11", "name": "AV. CLOVIS ARRAIS MAIA  R. PROF. MOZART SOLON(20)", "lat": -3.737615, "lng": -38.454118}, {"id": "6894d133570056dfb352ea10", "name": "R. FRANCISCO T DE ALCANTARA(10)", "lat": -3.736654, "lng": -38.454691}, {"id": "6894d133570056dfb352ea0f", "name": "AV. CLOVIS ARRAIS MAIA  N3335(10)", "lat": -3.735723, "lng": -38.455172}, {"id": "6894d133570056dfb352ea0e", "name": "AV. CLOVIS ARRAIS MAIA  N3007(10)", "lat": -3.733736, "lng": -38.456288}, {"id": "6894d133570056dfb352ea0d", "name": "AV. CLOVIS ARRAIS MAIA  N3005(10)", "lat": -3.732728, "lng": -38.456733}, {"id": "6894d133570056dfb352ea0c", "name": "AV. CLOVIS ARRAIS MAIA  N2685(6)", "lat": -3.731036, "lng": -38.45766}, {"id": "6894d133570056dfb352ea0b", "name": "AV. CLOVIS ARRAIS MAIA  N2605 (10)", "lat": -3.72876, "lng": -38.458692}, {"id": "6894d133570056dfb352ea0a", "name": "AV. CLOVIS ARRAIS MAIA  R. MIGUEL CALMOM(10)", "lat": -3.726102, "lng": -38.460521}, {"id": "6894d133570056dfb352ea09", "name": "AV. CLOVIS ARRAIS MAIA  N 3125(12)", "lat": -3.734787974134328, "lng": -38.455576325500296}, {"id": "6881732a9b4e418bb8220dc4", "name": "\"AV. ALMIRANTE BARROSO próximo à R. DOS ARARIUS\" (8)", "lat": -3.7199291883837415, "lng": -38.51353778409838}, {"id": "687cdd1b9b4e418bb8191692", "name": "Escola de Direçao ", "lat": -3.7440299237118033, "lng": -38.485378577371705}, {"id": "687aab7c9b4e418bb8d69cbb", "name": "AV. ALMIRANTE BARROSO próximo à R. ITAPIPOСА(6)", "lat": -3.720312, "lng": -38.516797}, {"id": "687aab7c9b4e418bb8d69cba", "name": "AV. ALMIRANTE BARROSO próximo à R. DOS GUANACES(8)", "lat": -3.720123, "lng": -38.514716}, {"id": "687aaa919b4e418bb8d2fcb2", "name": "AV. NILA GOMES DE SOAREZ próximo à ALAMEDA DAS VIOLETAS(10)", "lat": -3.752175, "lng": -38.4684}, {"id": "687aaa919b4e418bb8d2fcb1", "name": "AV. DAS GRAVIOLAS próximo à N160(6)", "lat": -3.751219, "lng": -38.472505}, {"id": "687aaa919b4e418bb8d2fcb0", "name": "AV. DAS ADENANTERAS N 129(8)", "lat": -3.753081, "lng": -38.474906}, {"id": "687aaa919b4e418bb8d2fcaf", "name": "AV. DES. ANTÔNIO CARLOS COSTA E SILVA próximo à N405(8)", "lat": -3.750501, "lng": -38.476212}, {"id": "687aaa919b4e418bb8d2fcae", "name": "R. DAS GOIABEIRAS próximo à N200(8)", "lat": -3.75012, "lng": -38.475158}, {"id": "687aaa919b4e418bb8d2fcad", "name": "AV. NILA GOMES DE SOAREZ próximo à ARENINHA CIDADE 2000(6)", "lat": -3.751148, "lng": -38.468012}, {"id": "687aaa919b4e418bb8d2fcac", "name": "AV. DAS GRAVIOLAS próximo à N195(4)", "lat": -3.751761, "lng": -38.47357}, {"id": "687aaa919b4e418bb8d2fcab", "name": "R. PASCHOAL DE CASTRO ALVES próximo à N767(7)", "lat": -3.733619, "lng": -38.474346}, {"id": "687aaa919b4e418bb8d2fcaa", "name": "R. PASCHOAL DE CASTRO ALVES próximo à N355(6)", "lat": -3.732501, "lng": -38.477807}, {"id": "687aaa0f9b4e418bb8d02cdc", "name": "R. DR GILBERTO STUDART próximo à N 2004 (PRAÇA FRANCISCO RODRIGUES SANCHO)(8)", "lat": -3.747907, "lng": -38.468613}, {"id": "687aaa0f9b4e418bb8d02cdb", "name": "R. ANDRADE FURTADO próximo à N 2401(6)", "lat": -3.749468, "lng": -38.46829}, {"id": "687aaa0f9b4e418bb8d02cda", "name": "R. ANDRADE FURTADO próximo à FRETE E MUDANÇAS CS(8)", "lat": -3.748765, "lng": -38.471216}, {"id": "687aaa0f9b4e418bb8d02cd9", "name": "AV. SANTOS DUMONT próximo à n 7050A(20)", "lat": -3.745639, "lng": -38.469484}, {"id": "687aaa0f9b4e418bb8d02cd8", "name": "AV. SANTOS DUMONT próximo à n 7396(20)", "lat": -3.746125, "lng": -38.468067}, {"id": "687aaa0f9b4e418bb8d02cd7", "name": "R. DR GILBERTO STUDART próximo à R. MANUEL QUEIROS(6)", "lat": -3.748029, "lng": -38.467137}, {"id": "687aaa0f9b4e418bb8d02cd6", "name": "R. ANDRADE FURTADO próximo à N2251(4)", "lat": -3.748878, "lng": -38.470248}, {"id": "687aaa0f9b4e418bb8d02cd5", "name": "AV. SANTOS DUMONT próximo à n 6740(7)", "lat": -3.744635, "lng": -38.472827}, {"id": "687aaa0f9b4e418bb8d02cd3", "name": "AV. ENG. SANTANA JR próximo à N 1240(6)", "lat": -3.738645, "lng": -38.484117}, {"id": "687aaa0f9b4e418bb8d02cd2", "name": "AV. ENG. SANTANA JR próximo à N 378(6)", "lat": -3.732673, "lng": -38.480274}, {"id": "687aaa0f9b4e418bb8d02cd1", "name": "R. VALDETARIO MOTA próximo à N 728(6)", "lat": -3.7358347, "lng": -38.4801281}, {"id": "687aaa0f9b4e418bb8d02cd0", "name": "R. SENADOR MACHADO próximo à N185(6)", "lat": -3.724333, "lng": -38.486184}, {"id": "687aaa0f9b4e418bb8d02ccf", "name": "R. ARQUITETO EMILIO HINKO próximo à N200(8)", "lat": -3.723852, "lng": -38.482836}, {"id": "687aaa0f9b4e418bb8d02cce", "name": "R. ALFREDO próximo à N 58(5)", "lat": -3.722897, "lng": -38.481077}, {"id": "687aaa0f9b4e418bb8d02ccd", "name": "AV. ENG. SANTANA JR próximo à N 889(4)", "lat": -3.735698, "lng": -38.481937}, {"id": "687aaa0f9b4e418bb8d02ccc", "name": "AV. ENG. SANTANA JR próximo à N 999(6)", "lat": -3.736824, "lng": -38.482672}, {"id": "687aaa0f9b4e418bb8d02ccb", "name": "R. ARY BARROSO próximo à N84(6)", "lat": -3.7403015729476046, "lng": -38.470707985542916}, {"id": "687aaa0f9b4e418bb8d02cca", "name": "R. ARY BARROSO próximo à N70(8)", "lat": -3.739734, "lng": -38.472638}, {"id": "687aaa0f9b4e418bb8d02cc9", "name": "R. ALMEIDA PRADO próximo à SHOPPING RIO MAR(12)", "lat": -3.740114, "lng": -38.473891}, {"id": "687aaa0f9b4e418bb8d02cc8", "name": "AV. SANTOS DUMONT próximo à n 6997(6)", "lat": -3.745164, "lng": -38.470409}, {"id": "687aaa0f9b4e418bb8d02cc7", "name": "R. GONCALVES LEDO próximo à N° 673(6)", "lat": -3.729595, "lng": -38.515608}, {"id": "687aaa0f9b4e418bb8d02cc6", "name": "R. GONCALVES LEDO próximo à MERCADO DOS PINHOES(10)", "lat": -3.727065, "lng": -38.515008}, {"id": "687aaa0f9b4e418bb8d02cc5", "name": "R. DOM JOAQUIM próximo à R. PEREIRA FILGUEIRAS(4)", "lat": -3.726969, "lng": -38.517101}, {"id": "687aaa0f9b4e418bb8d02cc4", "name": "R. RODRIGUES JUNIOR próximo à R. COSTA BARROS(10)", "lat": -3.727677, "lng": -38.519698}, {"id": "687aaa0f9b4e418bb8d02cc3", "name": "R. RODRIGUES JUNIOR próximo à R. TENENTE\nBENEVOLO(6)", "lat": -3.724942, "lng": -38.518974}, {"id": "687aaa0f9b4e418bb8d02cc2", "name": "AV. GAL BEZERRIL próximo à R. DR JOAO MOREIRA\n(6)", "lat": -3.723725, "lng": -38.525039}, {"id": "687aaa0f9b4e418bb8d02cc1", "name": "AV. PESSOA ANTA próximo à AV. ALBERTO\nNEPOMUCENO\n(8)", "lat": -3.721103, "lng": -38.522532}, {"id": "687aaa0f9b4e418bb8d02cc0", "name": "AV. PESSOA ANTA próximo à R. ALMIRANTE\nTAMANDARE(8)", "lat": -3.720757, "lng": -38.519777}, {"id": "687aaa0f9b4e418bb8d02cbf", "name": "AV. ALMIRANTE BARROSO próximo à ALMIRANTE\nJACEGUAI(6)", "lat": -3.72055, "lng": -38.518518}, {"id": "687aaa0f9b4e418bb8d02cbe", "name": "AV. DOMINGOS OLIMPIO próximo à R. SOLON\nPINHEIRO(8)", "lat": -3.737244, "lng": -38.528357}, {"id": "687aaa0f9b4e418bb8d02cbd", "name": "AV. ANTONIO SALES próximo à R. JOSE LOURENCO(6)", "lat": -3.742846, "lng": -38.510394}, {"id": "687aaa0f9b4e418bb8d02cbc", "name": "AV. ANTONIO SALES próximo à R. PEDRA BRANCA(4)", "lat": -3.740245, "lng": -38.518681}, {"id": "687aaa0f9b4e418bb8d02cbb", "name": "AV. HERACLITO GRACA próximo à R. DONA LEOPOLDINA(8)", "lat": -3.734786, "lng": -38.520953}, {"id": "687aaa0f9b4e418bb8d02cba", "name": "AV. DUQUE DE CAXIAS próximo à AV. DOM MANUEL(6)", "lat": -3.734165, "lng": -38.522878}, {"id": "687aaa0f9b4e418bb8d02cb9", "name": "AV. DUQUE DE CAXIAS próximo à R. JAIME\nBENEVOLO(12)", "lat": -3.733237, "lng": -38.525635}, {"id": "687aaa0f9b4e418bb8d02cb8", "name": "AV. DUQUE DE CAXIAS próximo à R. SOLON\nPINHEIRO(10)", "lat": -3.732785, "lng": -38.527064}, {"id": "687aaa0f9b4e418bb8d02cb7", "name": "R. FLORIANO PEIXOTO próximo à R. GUILHERME ROCHA(10)", "lat": -3.727279, "lng": -38.527253}, {"id": "687aaa0f9b4e418bb8d02cb6", "name": "R. FLORIANO PEIXOTO próximo à TV CRATO(10)", "lat": -3.724881, "lng": -38.526268}, {"id": "687aaa0f9b4e418bb8d02cb5", "name": "AV. PRES CASTELO BRANCO próximo à FORTE NOSSA SENHORA ASSUNCAО(6)", "lat": -3.722195, "lng": -38.525162}, {"id": "687aaa0f9b4e418bb8d02cb4", "name": "AV. ALBERTO NEPOMUCENO próximo à \nMERCADO CENTRAL(6)", "lat": -3.723329, "lng": -38.524222}, {"id": "687aaa0f9b4e418bb8d02cb3", "name": "R. ISAC AMARAL próximo à R. BARBOSA DE FREITAS(12)", "lat": -3.75319, "lng": -38.502683}, {"id": "687aaa0f9b4e418bb8d02caf", "name": "R. DOM SEBASTIAO LEME próximo à R. BONFIМ\nSOBRINHO\n(10)", "lat": -3.751513, "lng": -38.525381}, {"id": "687aaa0f9b4e418bb8d02cae", "name": "AV. AGUANAMBI próximo à R. CEL SOLON(12)", "lat": -3.743004, "lng": -38.52564}, {"id": "687aaa0f9b4e418bb8d02cad", "name": "AV. AGUANAMBI próximo à PRACA PRIMEIRO DE\nMAIO(8)", "lat": -3.739638, "lng": -38.524615}, {"id": "687aaa0f9b4e418bb8d02cac", "name": "R. JOAO BRIGIDO próximo à R. AV. ANTONIO SALES(8)", "lat": -3.738495, "lng": -38.523387}, {"id": "687aaa0f9b4e418bb8d02cab", "name": "R. MARIO MAMEDE próximo à R. CAMPO AMIR\nROCHА(8)", "lat": -3.754398, "lng": -38.525483}, {"id": "687aaa0f9b4e418bb8d02caa", "name": "R. MIN JOAQUIM BASTOS próximo à R. NAPOLEAO\nLAUREANO\n(4)", "lat": -3.751699, "lng": -38.530536}, {"id": "687aaa0f9b4e418bb8d02ca9", "name": "R. MIN JOAQUIM BASTOS próximo à R. DR\nRASTISBONA(8)", "lat": -3.753177, "lng": -38.528933}, {"id": "687aaa0f9b4e418bb8d02ca3", "name": "AV. LUCIANO CARNEIRO próximo à R. MIN JOAQUIM BASTOS(8)", "lat": -3.750294, "lng": -38.532034}, {"id": "687aaa0f9b4e418bb8d02ca2", "name": "AV. AGUANAMBI próximo à R. JOSE EUCLIDES(6)", "lat": -3.752166, "lng": -38.523227}, {"id": "687aaa0f9b4e418bb8d02ca1", "name": "AV. AGUANAMBI próximo à R. MANURL PADILHA(12)", "lat": -3.754764, "lng": -38.523156}, {"id": "687aaa0f9b4e418bb8d02ca0", "name": "Parque da Liberdade (Cidade da Criança)(10)", "lat": -3.7315186056506313, "lng": -38.52643892172113}, {"id": "687aaa0f9b4e418bb8d02c9f", "name": "R. PAULA RODRIGUES próximo à R. MIN JOAQUIM BASTOS(6)", "lat": -3.754274, "lng": -38.527684}, {"id": "687aaa0f9b4e418bb8d02c9e", "name": "R. DOMINGO GOMES próximo à AV. DEP OSWALDO STUDART(10)", "lat": -3.753013, "lng": -38.527924}, {"id": "687aaa0f9b4e418bb8d02c9d", "name": "R. MARIO MAMEDE próximo à R. PE LEOPOLDO FERNANDES(4)", "lat": -3.751221, "lng": -38.529229}, {"id": "687aaa0f9b4e418bb8d02c9c", "name": "AV. LUCIANO CARNEIRO próximo à R. JAIME BENEVOLO(14)", "lat": -3.749264, "lng": -38.531847}, {"id": "687aaa0f9b4e418bb8d02c9b", "name": "R. PE BARBOSA DE JESUS próximo à R. NAPOLEAO \nLAUREANO(8)", "lat": -3.74892, "lng": -38.528603}, {"id": "687aaa0f9b4e418bb8d02c9a", "name": "AV. AGUANAMBI próximo à SUPERMERCADO PAО \nDE ACUCAR(6)", "lat": -3.748748, "lng": -38.523792}, {"id": "687aaa0f9b4e418bb8d02c99", "name": "AV. SORIANO ALBUQUERQUE próximo à AV. VISCONDE \nDO RIO BRANCO(10)", "lat": -3.747785, "lng": -38.521834}, {"id": "687aaa0f9b4e418bb8d02c98", "name": "AV. SORIANO ALBUQUERQUE próximo à PRACА JOAO \nTAVORA(8)", "lat": -3.747743, "lng": -38.51924}, {"id": "687aaa0f9b4e418bb8d02c97", "name": "AV. SORIANO ALBUQUERQUE próximo à R. CARLOS \nVASCONCELOS(5)", "lat": -3.748663, "lng": -38.515983}, {"id": "687aaa0f9b4e418bb8d02c96", "name": "AV. RUI BARBOSA próximo à R. LIVIO BARRETO(7)", "lat": -3.748774, "lng": -38.513517}, {"id": "687aaa0f9b4e418bb8d02c95", "name": "RUA JOSE VILAR próximo à RUA JOAQUIM SA(5)", "lat": -3.748028, "lng": -38.508755}, {"id": "687aaa0f9b4e418bb8d02c94", "name": "RUA OSAVALDO CRUZ próximo à RUA JULIO SIQUEIRA(4)", "lat": -3.750769, "lng": -38.505269}, {"id": "687aaa0f9b4e418bb8d02c93", "name": "RUA OLAVO DE OLIVEIRA DE ALBUQUERQUE próximo \nà SECRETARIA MUNICIPAL DE JUVENTUDE(5)", "lat": -3.751409, "lng": -38.492486}, {"id": "687aaa0f9b4e418bb8d02c92", "name": "RUA SANTA TEREZINHA DO MENINO JESUS próximo \nà COMUNIDADE FACE DE CRISTO(8)", "lat": -3.753973, "lng": -38.496312}, {"id": "687aaa0f9b4e418bb8d02c91", "name": "AV VIRGILIO TAVORA próximo à RUA ISRAEL BEZERRA(6)", "lat": -3.749122, "lng": -38.497184}, {"id": "687aaa0f9b4e418bb8d02c90", "name": "RUA JOAQUIM NABUCO próximo à RUA MARCONDES PEREIRA(4)", "lat": -3.749791, "lng": -38.505972}, {"id": "687aaa0f9b4e418bb8d02c8a", "name": "RUA EDUARDO BEZERRA próximo à RUA PROF CARVALHO(6)", "lat": -3.753929, "lng": -38.51472}, {"id": "687aaa0f9b4e418bb8d02c89", "name": "RU EDUARDO BEZERRA próximo à RUA JOSE VILAR (5)", "lat": -3.753584, "lng": -38.510321}, {"id": "687aaa0f9b4e418bb8d02c88", "name": "RUA JOAQUIM NABUCO próximo à RUA ISAC AMARAL (4)", "lat": -3.752071, "lng": -38.506647}, {"id": "687aaa0f9b4e418bb8d02c87", "name": "RUA GENERAL BEZERRIL próximo à POLICIA CIVIL (12)", "lat": -3.729069, "lng": -38.526471}, {"id": "687aaa0f9b4e418bb8d02c86", "name": "RUA PINTO MADEIRA próximo à AV. VISCONDE RIO BRANCO (10)", "lat": -3.730901, "lng": -38.525108}, {"id": "687aaa0f9b4e418bb8d02c85", "name": "RUA PINTO MADEIRA próximo à RUA 25 DE MARÇO (12)", "lat": -3.730757, "lng": -38.523005}, {"id": "687aaa0f9b4e418bb8d02c84", "name": "RUA PINTO MADEIRA próximo à RUA RODRIGUES (4)", "lat": -3.731363, "lng": -38.520865}, {"id": "687aaa0f9b4e418bb8d02c83", "name": "RUA NOGUEIRA ACIOLI próximo à RUA PINTO MADEIRA (4)", "lat": -3.732284, "lng": -38.517533}, {"id": "687aaa0f9b4e418bb8d02c82", "name": "RUA PE LUIS FILGUEIRAS próximo à RUA GONÇALVES LEDO (6)", "lat": -3.73179, "lng": -38.51614}, {"id": "687aaa0f9b4e418bb8d02c81", "name": "RUA PE LUIS FILGUEIRA próximo à RUA ANTONIO AUGUSTO (7)", "lat": -3.73245, "lng": -38.514188}, {"id": "687aaa0f9b4e418bb8d02c80", "name": "RUA CARLOS VASCONCELOS próximo à RUA PE LUIS FIGUEIRA (4)", "lat": -3.733403, "lng": -38.510975}, {"id": "687aaa0f9b4e418bb8d02c7f", "name": "RUA BARAO DE ARACATI próximo à RUA SANTOS DUMONT(6)", "lat": -3.73199, "lng": -38.51158}, {"id": "687aaa0f9b4e418bb8d02c7e", "name": "RUA BARAO DE ARACATI (8)", "lat": -3.7290133790723234, "lng": -38.51075462983765}, {"id": "687aaa0f9b4e418bb8d02c7d", "name": "AV RUI BARBOSA próximo à AV. SANTOS DUMONT (10)", "lat": -3.733001, "lng": -38.508422}, {"id": "687aaa0f9b4e418bb8d02c7b", "name": "AV RUI BARBOSA próximo à RUA PADRE VALDEVINO (5)", "lat": -3.740882, "lng": -38.511045}, {"id": "687aaa0f9b4e418bb8d02c7a", "name": "AV RUI BARBOSA próximo à RUA CEL ALVES TEIXEIRA (6)", "lat": -3.746146, "lng": -38.512772}, {"id": "687aaa0f9b4e418bb8d02c79", "name": "AV RUI BARBOSA próximo à AV. SORIANO ALBUQUERQUE (6)", "lat": -3.749541, "lng": -38.51371}, {"id": "687aaa0f9b4e418bb8d02c78", "name": "RUA CAPITAO MELO próximo à AV PONTES VIEIRA (12)", "lat": -3.752865, "lng": -38.513704}, {"id": "687aaa0f9b4e418bb8d02c77", "name": "RUA OSVALDO CRUZ próximo à RUA TIBURCIO FROTA (7)", "lat": -3.754219, "lng": -38.506396}, {"id": "687aaa0f9b4e418bb8d02c76", "name": "RUA OSVALDO CRUZ próximo à RUA ISAC AMARAL (8)", "lat": -3.752485, "lng": -38.505797}, {"id": "687aaa0f9b4e418bb8d02c75", "name": "RUA OSCALDO CRUZ póximo à RUA FRANCISCO HOLANDA (6)", "lat": -3.748538, "lng": -38.50458}, {"id": "6869334539399bf773ad197f", "name": "R. FONSECA LOBO próximo à R. VICENTE LINHARES (8)", "lat": -3.745002, "lng": -38.491451}, {"id": "6869334539399bf773ad197e", "name": "R. MONSENHOR CATÃO próximo à R. PAULA NEY (5)", "lat": -3.741687, "lng": -38.491436}, {"id": "6869334539399bf773ad197d", "name": "R. FREDERICO BORGES próximo à REPÚBLICA DO LÍBANO (6)", "lat": -3.733884, "lng": -38.489189}, {"id": "6869334539399bf773ad197c", "name": "AV. SANTOS DUMONT próximo ao SHOPPING DEL PASEO (14)", "lat": -3.7365174, "lng": -38.4971701}, {"id": "6869334539399bf773ad197b", "name": "AV. DESEMBARGADOR MOREIRA próximo à AV. BEIRA-MAR (6)", "lat": -3.72625, "lng": -38.49506}, {"id": "6869334539399bf773ad197a", "name": "R. OSVALDO CRUZ próximo à AV. BEIRA-MAR (8)", "lat": -3.72589, "lng": -38.49709}, {"id": "6869334539399bf773ad1979", "name": "R. JOAQUIM NABUCO próximo à AV. BEIRA-MAR (8)", "lat": -3.72566, "lng": -38.49816}, {"id": "68542361f448a272424d8ce4", "name": "(P)R. OSVALDO CRUZ(4)", "lat": -3.740337, "lng": -38.5019413}, {"id": "68542361f448a272424d8ce3", "name": "(P)AV. DA ABOLICAO(6)", "lat": -3.7264195, "lng": -38.4885547}, {"id": "68542361f448a272424d8ce2", "name": "(P)R. PADRE VALDEVINO(4)", "lat": -3.7431805, "lng": -38.5036636}, {"id": "68542361f448a272424d8cdd", "name": "(P)R. ANA BILHAR (4)", "lat": -3.7316297, "lng": -38.4881742}, {"id": "68507fa0594f7b61b37333e1", "name": "RUA PEDRO NATALE ROSSI próximo a RUA DA PAZ (6)", "lat": -3.725201, "lng": -38.490026}, {"id": "68507fa0594f7b61b37333e0", "name": "RUA FREI MANSUETO próximo à RUA DA PAZ (4)", "lat": -3.724852, "lng": -38.489552}, {"id": "68507fa0594f7b61b37333df", "name": "RUA MTE. JERONIMO próximo à AV. ALMIRANTE HENRIQUE SABOIA (10)", "lat": -3.7265442764523202, "lng": -38.481328072716984}, {"id": "68507fa0594f7b61b37333de", "name": "AV ALMIRANTE HENRIQUE SABOIA próximo ao Nº 336 (6)", "lat": -3.725163, "lng": -38.480598}, {"id": "68507fa0594f7b61b37333dd", "name": "AV ALMIRANTE HENRIQUE SABOIA próximo à AV. ABOLIÇÃO (8)", "lat": -3.723134, "lng": -38.480122}, {"id": "68507fa0594f7b61b37333dc", "name": "RUA ANDRADE FURTADO próximo à RUA BATISTA DE OLIVEIRA (3)", "lat": -3.745151, "lng": -38.481584}, {"id": "68507fa0594f7b61b37333db", "name": "RUA ANDRADE FURTADO próximo à AV. PE. ANTONIO TOMAS (6)", "lat": -3.744434, "lng": -38.483974}, {"id": "68507fa0594f7b61b37333da", "name": "RUA BENTO ALBUQUERQUE próximo à RUA MANUEL QUEIROS (3)", "lat": -3.748986, "lng": -38.467465}, {"id": "68507fa0594f7b61b37333d9", "name": "RUA ANDRADE FURTADO próximo à RUA ALMEIDA PRADO (10)", "lat": -3.7469794046458116, "lng": -38.47605770339312}, {"id": "68507fa0594f7b61b37333d8", "name": "AV. DOS JANGADEIROS próximo à RUA JOAQUIM LIMA (4)", "lat": -3.739162, "lng": -38.486629}, {"id": "68507fa0594f7b61b37333d7", "name": "RUA BENTO ALBUQUERQUE próximo à RUA DR. FRANCISCO MATOS (10)", "lat": -3.747866, "lng": -38.470381}, {"id": "68507fa0594f7b61b37333d6", "name": "AV. SANTOS DUMONT próximo à AV. ENG SANTANA JR (6)", "lat": -3.740398, "lng": -38.48521}, {"id": "68507fa0594f7b61b37333d5", "name": "AV. SANTOS DUMONT próximo à RUA ALMEIDA PRADO (6)", "lat": -3.743804, "lng": -38.474974}, {"id": "68507fa0594f7b61b37333d4", "name": "RUA LAURO NOGUEIRA próximo à RUA JOSE BORBA (6)", "lat": -3.7426475184242984, "lng": -38.47061276159416}, {"id": "68507fa0594f7b61b37333d3", "name": "RUA ALMEIDA PRADO próximo à RUA LAURO NOGUEIRA (6)", "lat": -3.741415, "lng": -38.474481}, {"id": "68507fa0594f7b61b37333d2", "name": "RUA PROFESSOR OTAVIO LOBO próximo à RUA LAURO NOGUEIRA (3)", "lat": -3.740795, "lng": -38.476649}, {"id": "68507fa0594f7b61b37333d1", "name": "RUA PROFESSOR OTAVIO LOBO PROXIMO A RUA JOAQUIM LIMA (4)", "lat": -3.742131, "lng": -38.477458}, {"id": "68507fa0594f7b61b37333d0", "name": "RUA PROFESSOR OTAVIO LOBO próximo à RUA VILEBALDO AGUIAR (4)", "lat": -3.743735, "lng": -38.4784465}, {"id": "68507fa0594f7b61b37333cf", "name": "RUA BENTO ALBUQUERQUE próximo à RUA DR. ZAMENHOT (6)", "lat": -3.745987769912183, "lng": -38.476009524253605}, {"id": "68507fa0594f7b61b37333ce", "name": "RUA BENTO ALBUQUERQUE próximo à RUA CESAR FONSECA (6)", "lat": -3.7466914, "lng": -38.4740657}, {"id": "68507fa0594f7b61b37333cd", "name": "RUA BENTO ALBUQUERQUE próximo à RUA JOSE VASCONCELOS (8)", "lat": -3.747226, "lng": -38.472111}, {"id": "68507fa0594f7b61b37333cc", "name": "RUA ANDRADE FURTANDO (4)", "lat": -3.748092, "lng": -38.472549}, {"id": "68507fa0594f7b61b37333cb", "name": "RUA ANDRADE FURTANDO (3)", "lat": -3.7475543, "lng": -38.474643}, {"id": "68507fa0594f7b61b37333ca", "name": "AV PE ANTONIO TOMAS (10)", "lat": -3.743759, "lng": -38.486345}, {"id": "68507fa0594f7b61b37333c9", "name": "RUA PROF OTAVIO LOBO (10)", "lat": -3.746312, "lng": -38.479904}, {"id": "68507fa0594f7b61b37333c8", "name": "RUA BENTO ALBUQUERQUE (3)", "lat": -3.743877, "lng": -38.48291}, {"id": "68507fa0594f7b61b37333c7", "name": "AV. ENG. SANTANA JR (15)", "lat": -3.7428251, "lng": -38.4864726}, {"id": "68507fa0594f7b61b37333c6", "name": "RUA PROFESSOR OTAVIO LOBO (4)", "lat": -3.7449864, "lng": -38.4791024}, {"id": "68507fa0594f7b61b37333c5", "name": "AV. PE. ANTONIO TOMAS (3)", "lat": -3.74597, "lng": -38.48202}, {"id": "68507fa0594f7b61b37333c1", "name": "AV. ENG. SANTANA JR próximo à RUA CAROLINA SUCUPIRA (8)", "lat": -3.7448990984541375, "lng": -38.488810934418424}, {"id": "68420e471359f7c198f90883", "name": "AV. ANTONIO SALES próximo à R. SILVA PAULET (4)", "lat": -3.7436392, "lng": -38.5084319}, {"id": "68420e471359f7c198f90882", "name": "R. CAROLINA SUCUPIRA próxima à R. TIBURCIO CAVALCANT (4)", "lat": -3.7399821, "lng": -38.5037619}, {"id": "68420e471359f7c198f90881", "name": "R. JOAQUIM NABUCO próximo à AV. DOM LUIS (8)", "lat": -3.7320402, "lng": -38.5001754}, {"id": "68420e471359f7c198f90880", "name": "AV. DOM LUÍS próximo à R. VICENTE LEITE(4)", "lat": -3.7338452, "lng": -38.4942484}, {"id": "68420e471359f7c198f9087f", "name": "R. ANA BILHAR próximo à R. VISCONDE DE MAUA (6)", "lat": -3.7289987, "lng": -38.4970074}, {"id": "68420e471359f7c198f9087e", "name": "AV. SANTOS DUMONT próximo à AV. VIRGILIO TAVORA (7)", "lat": -3.7379115, "lng": -38.4933043}, {"id": "68420e471359f7c198f9087d", "name": "AV. VIRGILIO TAVORA próximo à R. EDUARDO GARCIA (4)", "lat": -3.7397024, "lng": -38.4941924}, {"id": "68420e471359f7c198f9087c", "name": "R. TERTULIANO POTIGUARA próximo à R. PROF. DIAS (6)", "lat": -3.7449419, "lng": -38.494879}, {"id": "68420e471359f7c198f9087b", "name": "AV. ANTONIO SALES próximo à R. CEL JUCA (6)", "lat": -3.747972, "lng": -38.4946745}, {"id": "68420e471359f7c198f9087a", "name": "AV. ANTONIO SALES próximo a AV. BARAO DE STUDART (5)", "lat": -3.743285611135983, "lng": -38.50928383}, {"id": "68420e471359f7c198f90879", "name": "AV. VIRGÍLIO TÁVORA, próximo à R. Paula Ney(5)", "lat": -3.74087, "lng": -38.49435}, {"id": "68420e471359f7c198f90878", "name": "R. SILVA PAULET, próximo à R. pereira Filgueiras(10)", "lat": -3.73114, "lng": -38.50435}, {"id": "68420e471359f7c198f90876", "name": "R. BARBOSA DE FREITAS, próximo à Av. Antônio Justa(6)", "lat": -3.7275345948404066, "lng": -38.494665449926075}, {"id": "68420e471359f7c198f90875", "name": "R. DELMIRO GOUVEIA, próximo à Av. Antônio Justa(5)", "lat": -3.72926, "lng": -38.4884}, {"id": "68420e471359f7c198f90874", "name": "R. FREI MANSUETO, próximo à R. Juazeiro do Norte(5)", "lat": -3.727309765884468, "lng": -38.48919778481756}, {"id": "68420e471359f7c198f90873", "name": "R. Cel. Linhares, próximo à R. Ana Bilhar(5)", "lat": -3.73054, "lng": -38.49219}, {"id": "68420e471359f7c198f90872", "name": "R. Dr. José Lourenço, próximo à R. Castro Medeirinhos(5)", "lat": -3.7284239, "lng": -38.5057923}, {"id": "68420e471359f7c198f90871", "name": "R. João Cordeiro, próximo à R. Padre Climério(6)", "lat": -3.724684199660956, "lng": -38.51278248952022}, {"id": "68420e471359f7c198f90870", "name": "R. Carolina Sucupira, esquina com R. Cel. Linhares (10)", "lat": -3.742427, "lng": -38.496031}, {"id": "68420e471359f7c198f9086f", "name": "AV. ANTÔNIO SALES, esquina com Av. Des. Moreira (10)", "lat": -3.745765, "lng": -38.501575}, {"id": "68420e471359f7c198f9086e", "name": "AV. ANTÔNIO SALES, esquina com R. Tibúrcio Cavalcante(3)", "lat": -3.744614, "lng": -38.505286}, {"id": "683a23e8821d1d0fe6c47979", "name": "R. Leonardo Mota, próximo à R. Carolina Sucupira ", "lat": -3.741761, "lng": -38.497999}, {"id": "683a23e8821d1d0fe6c47978", "name": "R. Leonardo Mota, próximo à R. Vicente Linhares  ", "lat": -3.7428201318595398, "lng": -38.49837092612699}, {"id": "683a23e8821d1d0fe6c47977", "name": "R. VICENTE LEITE, esquina com R. Henriqueta Galeno ", "lat": -3.745711, "lng": -38.498072}, {"id": "682b54b6145c57817e9b5fbb", "name": "Próximo a Av. Barão de Studart, 2067-1965 - Aldeota, Fortaleza - CE, 60120-001", "lat": -3.7410295902778903, "lng": -38.50850832525967}, {"id": "682b50c2145c57817e868dcc", "name": "Próximo a R. Frederico Borges, 240-360 - Aldeota, Fortaleza - CE, 60175-084", "lat": -3.7314342973751127, "lng": -38.48936540131898}, {"id": "682b475c145c57817e52022f", "name": "Próximo a R. Silva Jatahy, 695-585 - Meireles, Fortaleza - CE, 60165-070", "lat": -3.727796922595427, "lng": -38.49791499075381}, {"id": "6828bb5a965606c0bc4610d0", "name": "R.Visc.de Mauá, 1274-1490- Meireles, Fortaleza-CE,60125-160", "lat": -3.737866010912718, "lng": -38.49988304937928}, {"id": "68262aadd30721e7513fe38c", "name": "óximo a Lev e Leia Comércio Revista Ltda - Av. Des. Moreira, 771 - Aldeota, Fortaleza - CE, 60170-000", "lat": -3.7329166666666667, "lng": -38.497055555555555}, {"id": "6818a5c525717596ba9660f5", "name": "AV. DOM LUIS próximo à R. TIBURCIO CAVALCANTE(5)", "lat": -3.73209006672668, "lng": -38.50121681391134}, {"id": "6818a5c525717596ba9660f2", "name": "AV. SANTOS DUMONT, próximo ao n° 2565 (10)", "lat": -3.7349191978039316, "lng": -38.5021207062702}, {"id": "6818a5c525717596ba9660ea", "name": "R. República do Líbano. 2-44 - Meireles. Fortaleza - CE. 60150-165", "lat": -3.7297384, "lng": -38.5015537}, {"id": "6818a5c525717596ba9660e8", "name": "R. José Vilar, 474", "lat": -3.729459021184792, "lng": -38.50271850826862}, {"id": "6818a5c525717596ba9660e5", "name": "R. Joaquim Nabuco. 155 - Meireles", "lat": -3.7265413, "lng": -38.4983917}, {"id": "6818a5c525717596ba9660db", "name": "R. Maria Tomásia. 555 - Aldeota. Fortaleza - CE. 60150-170 ", "lat": -3.7354969, "lng": -38.4970862}, {"id": "6818a5c525717596ba9660d9", "name": "Aldeota. Fortaleza - CE. 60150-162 Rua Leonardo Mota esquina com Avenida Santos Dumont", "lat": -3.7371042, "lng": -38.4965655}, {"id": "6818a5c525717596ba9660d6", "name": "Aldeota. Fortaleza - CE. 60150-162 Avenida Santos Dumont ", "lat": -3.736534412099769, "lng": -38.49776344177793}, {"id": "6818a5c525717596ba9660d0", "name": "GVT - R. Leonardo Mota. lj 01 - Aldeota. Fortaleza - CE. 60150-100", "lat": -3.7388088, "lng": -38.4969588}, {"id": "6818a5c525717596ba9660c6", "name": "Av. da Abolição. 2600 - Meireles. Fortaleza - CE. 60165-080", "lat": -3.7271913, "lng": -38.4964354}, {"id": "6818a5c525717596ba9660c5", "name": "AV. DES. MOREIRA, Nº175 (em frente ao Hoots)", "lat": -3.728278671190477, "lng": -38.49569679393705}, {"id": "6818a5c525717596ba9660bf", "name": "R. Marcos Macêdo. 390 - Aldeota. Fortaleza - CE. 60150-190", "lat": -3.7339629, "lng": -38.4986204}, {"id": "6818a5c525717596ba9660bb", "name": "R. João Carvalho. 832 - Aldeota. Fortaleza - CE. 60821-460", "lat": -3.7387104118356342, "lng": -38.50449306669745}, {"id": "6818a5c525717596ba9660b9", "name": "R. JOSÉ VILAR, próximo à R. Catão Mamede(3)", "lat": -3.7393191952089744, "lng": -38.50578458928956}, {"id": "6818a5c525717596ba9660b7", "name": "R. José Vilar - Aldeota. Fortaleza - CE. 60175-020", "lat": -3.7375902784448236, "lng": -38.50497193150122}, {"id": "6818a5c525717596ba9660b2", "name": "Próximo a R. Leonardo Mota, 1536-1684 - Aldeota, Fortaleza - CE, 60170-041", "lat": -3.7407057168815783, "lng": -38.49756089645683}, {"id": "6818a5c525717596ba9660b0", "name": "Av. Senador Virgílio Távora - Dionísio Torres. Fortaleza - CE. 60170-078", "lat": -3.744630794291583, "lng": -38.495553306998396}, {"id": "6818a5c525717596ba9660ad", "name": " R. Bárbara de Alencar. 1887 - Aldeota. Fortaleza - CE. 60140-025", "lat": -3.7400972, "lng": -38.5074314}, {"id": "6818a5c525717596ba9660a9", "name": "R. VISCONDE DE MAUÁ, próximo à R. Des. leite Albuquerque (10)", "lat": -3.737028192337302, "lng": -38.49965034103501}, {"id": "6818a5c525717596ba9660a7", "name": "R. Des. Leite Albuquerque. 1100-1202 - Aldeota. Fortaleza - CE. 60150-150", "lat": -3.739154, "lng": -38.4928013}, {"id": "6818a5c525717596ba9660a5", "name": "R. Visc. de Mauá. 966-1198 - Meireles. Fortaleza - CE. 60125-160", "lat": -3.7358853436589943, "lng": -38.49906165408178}, {"id": "6818a5c525717596ba9660a0", "name": "Av. Barão de Studart - Pici. Fortaleza - CE. 60120-001", "lat": -3.738729130222464, "lng": -38.5077908437229}, {"id": "6818a5c525717596ba96609c", "name": "R. Dom Expedito Lopes. 1816-1882 - Joaquim Távora (Fortaleza). Fortaleza - CE. 60135-080", "lat": -3.7428877332514627, "lng": -38.50823678076267}, {"id": "6818a5c525717596ba966097", "name": "R. Cel. Linhares. 305 - Meireles. Fortaleza - CE. 60170-240", "lat": -3.731631, "lng": -38.4925308}, {"id": "6818a5c525717596ba966095", "name": "Av. Senador Virgílio Távora. 554 - Meireles. Fortaleza - CE. 60170-250", "lat": -3.7327414, "lng": -38.4919417}, {"id": "6818a5c525717596ba966094", "name": "R. Monsenhor Bruno. 518 - Meireles. Fortaleza - CE. 60115-190", "lat": -3.726916315088205, "lng": -38.50773185850929}, {"id": "6818a5c525717596ba966093", "name": "Av. Senador Virgílio Távora, 570 - Aldeota", "lat": -3.7329625905823054, "lng": -38.492315965030436}, {"id": "6818a5c525717596ba966090", "name": "R. Monsenhor Bruno. 237-167 - Meireles. Fortaleza - CE. 60115-190", "lat": -3.724498060894172, "lng": -38.506951335133074}, {"id": "6818a5c525717596ba966084", "name": " Av. Senador Virgílio Távora. 1055 - Loja 18 - Aldeota. Fortaleza - CE. 60150-165", "lat": -3.7359175, "lng": -38.4927366}, {"id": "6818a5c525717596ba966082", "name": "Av. Farias Brito. 1 - an 2;SL204 - Varjota. Fortaleza - CE. 60175-157", "lat": -3.735983, "lng": -38.4886355}, {"id": "6818a5c525717596ba966081", "name": "Av. Dom Luís. 1078-1120 - Aldeota. Fortaleza - CE. 60160-230", "lat": -3.7352513, "lng": -38.4913513}, {"id": "6818a5c525717596ba966080", "name": "R. Gonçalves Lêdo. 221 - Praia de Iracema. Fortaleza - CE. 60110-261", "lat": -3.7262471806611717, "lng": -38.51461169947681}, {"id": "6818a5c525717596ba96607f", "name": "R. Pereira Valente. 1328-1344 - Meireles. Fortaleza - CE. 60160-250", "lat": -3.7348609, "lng": -38.4886694}, {"id": "6818a5c525717596ba96607e", "name": " R. República do Líbano. 989 - Meireles. Fortaleza - CE. 60160-140", "lat": -3.7334464, "lng": -38.4899971}, {"id": "6818a5c525717596ba96607c", "name": "Rua Mon Tabosa. 780 - Centro. Fortaleza - CE. 60110-260", "lat": -3.723875763779166, "lng": -38.51324915885926}, {"id": "6818a5c525717596ba96607a", "name": "R. Silva Jatahy. 1663-1589 - Meireles. Fortaleza - CE. 60165-070", "lat": -3.7303948, "lng": -38.4893617}, {"id": "6818a5c525717596ba966077", "name": "R. Barbalha. 308-318 - Meireles. Fortaleza - CE. 60175-185", "lat": -3.7280565189636214, "lng": -38.488941670899095}, {"id": "6818a5c525717596ba96606a", "name": "RUA TEREZA HINKO próximo à RUA ARQ. EMILIO HINKO (8)", "lat": -3.723673684964884, "lng": -38.48423169085978}, {"id": "67f38d6624025c90c858aa0d", "name": "AV. DES. MOREIRA, Nº695 (farmácia Drogasil) ", "lat": -3.732100514784269, "lng": -38.496901070755165}, {"id": "67f38d6624025c90c858aa0a", "name": "Próximo a Internacional Moda - Meireles, Fortaleza - CE, 60170-020", "lat": -3.7335722, "lng": -38.4960938}, {"id": "67f38d6624025c90c858aa09", "name": "4Play Arena (4)", "lat": -3.7471373166824082, "lng": -38.47248629150197}, {"id": "67f38d6624025c90c858aa07", "name": "Próximo a Avenida Antonio Justa, 2980 - Meireles, Fortaleza - CE, 60165-090", "lat": -3.728292053851548, "lng": -38.49281743638774}, {"id": "67f38d6624025c90c858aa00", "name": "AV. SANTOS DUMONT, próximo à R. Vicente Leite", "lat": -3.737084462030966, "lng": -38.49528104550014}, {"id": "67f38d6624025c90c858a9e7", "name": "R. CARLOS VASCONCELOS próximo à R. ATUALPA BARBOSA (8)", "lat": -3.7234983711356815, "lng": -38.50768089017997}, {"id": "67e3a08d9e61defeaa25d9d0", "name": "R. Ildefonso Albano, próximo à R. Moreira da Rocha (5)", "lat": -3.726474684993427, "lng": -38.51113891853565}, {"id": "66ee8bbca70885bbb9aa7e28", "name": "R. Leonardo Mota, 721 - Meireles, Fortaleza - CE, 60170-040", "lat": -3.7330118, "lng": -38.4950665}, {"id": "66ee8bbca70885bbb9aa7e26", "name": "R. MACOS MACEDO próximo à R. LEONARDO MOTA (4)", "lat": -3.7349564826235637, "lng": -38.49569143435069}, {"id": "66ee8bbca70885bbb9aa7e24", "name": "R. Barbosa de Freitas, 1276 - Aldeota, Fortaleza - CE, 60170-021", "lat": -3.7377515, "lng": -38.4976692}, {"id": "66ee8bbca70885bbb9aa7e23", "name": "Prç das flores - R. Barbosa de Freitas, Box 18 - Aldeota, Fortaleza - CE, 60170-020", "lat": -3.7394451, "lng": -38.4983404}, {"id": "66ee8bbca70885bbb9aa7e1f", "name": "R. Barbosa de Freitas, próximo à R. Tertuliano Potiguara(5)", "lat": -3.7434682, "lng": -38.4995414}, {"id": "66ee8bbca70885bbb9aa7e1e", "name": "R. Barbosa de Freitas - Aldeota", "lat": -3.7444929554195023, "lng": -38.499966807571084}, {"id": "66ee8bbca70885bbb9aa7dfd", "name": "R. Joaquim Nabuco, 1900 - Aldeota, Fortaleza - CE, 60125-055", "lat": -3.7421200247091395, "lng": -38.5036199023799}, {"id": "66ee8bbca70885bbb9aa7dd6", "name": "R. Des. Lauro Nogueira, 1500 - Papicu, Fortaleza - CE, 60175-055", "lat": -3.7421603973572055, "lng": -38.472686120773005}, {"id": "66ee8bbca70885bbb9aa7dd4", "name": "AV. SANTOS DUMONT próximo à RUA VALDETARIO MOTA (4)", "lat": -3.7410429060810557, "lng": -38.48318158251524}, {"id": "66ee8bbca70885bbb9aa7dd3", "name": "RUA PROFESSOR OTAVIO LOBO (8)", "lat": -3.744019275141717, "lng": -38.485847457900725}, {"id": "66ee8bbca70885bbb9aa7db9", "name": "R. Canuto de Aguiar, 422 - Meireles", "lat": -3.7296875, "lng": -38.4984806}, {"id": "66ee8bbca70885bbb9aa7db6", "name": "AV. DOM LUÍS, próximo ao Shopping Aldeota ", "lat": -3.7335114128549916, "lng": -38.49695745995612}, {"id": "66ee8bbca70885bbb9aa7da1", "name": "Junior da Picanha (4)", "lat": -3.732737763040225, "lng": -38.48392993709333}, {"id": "66ee8bbca70885bbb9aa7da0", "name": "AV. FARIAS BRITO próximo à AV. ALMIRANTE HENRIQUE SABOIA (10)", "lat": -3.736112838327783, "lng": -38.4854853886737}, {"id": "66ee8bbca70885bbb9aa7d9f", "name": "Planalto Center (8)", "lat": -3.740899769562941, "lng": -38.48358391499136}, {"id": "66ee8bbca70885bbb9aa7d69", "name": "Rua Dr Atualpa Barbosa de Lima 660 (4)", "lat": -3.7238571530807016, "lng": -38.508589968533805}, {"id": "66ee8bbca70885bbb9aa7d55", "name": "3646 Av. Santos Dumont", "lat": -3.7384025970799333, "lng": -38.49134088917098}, {"id": "66ee8bbca70885bbb9aa7d54", "name": "Av. Santos Dumont, 3401 - Aldeota", "lat": -3.737665220566213, "lng": -38.49432349205018}, {"id": "66ee8bbca70885bbb9aa7d52", "name": "Av. Santos Dumont, 2632", "lat": -3.735363454277958, "lng": -38.50140456255055}, {"id": "66ee8bbca70885bbb9aa7d4c", "name": "R. TIBURCIO CAVALCANTE próximo à R. CANUTO DE AGUIAR (3)", "lat": -3.729036106629459, "lng": -38.500471028142336}, {"id": "66ee8bbca70885bbb9aa7d48", "name": "7GC3+8J2 Fortaleza - Zone 1, Fortaleza - CE", "lat": -3.7292456, "lng": -38.4959848}, {"id": "66ee8bbca70885bbb9aa7d47", "name": "R. Canuto de Aguiar, 698 - Meireles", "lat": -3.7305644539755316, "lng": -38.49641293287677}, {"id": "66ee8bbca70885bbb9aa7d40", "name": "R. Frederico Borges, 349 - Meireles", "lat": -3.7327209, "lng": -38.4891244}, {"id": "66ee8bbca70885bbb9aa7d3d", "name": "RUA ANA BILHAR próximo à RUA CEL. MANUEL JESUINO (8)", "lat": -3.7315065090013895, "lng": -38.48520127865595}, {"id": "66ee8bbca70885bbb9aa7d3a", "name": "RUA TEREZA HINKO próximo à AV. DA ABOLIÇÃO (4)", "lat": -3.724930440190295, "lng": -38.48438314813435}, {"id": "66ee8bbca70885bbb9aa7d36", "name": "7GF3+4VM Fortaleza - Zone 1, Fortaleza - CE", "lat": -3.7271602, "lng": -38.495325}]}