{"city": "Maceio", "areaId": "66faae66cd18349215c90187", "count": 458, "parkings": [{"id": "6a2e22ba4b3e57e44406ae5e", "name": "Escola Fernandes Lima", "lat": -9.618583333333333, "lng": -35.710638888888894}, {"id": "6a2dd4ff4b3e57e44475e76d", "name": "Lava jato PH Prime", "lat": -9.6351097, "lng": -35.7024674}, {"id": "6a2b6c4f4b3e57e4447008ce", "name": "Mercadinho Bom Jesus", "lat": -9.6277113, "lng": -35.7080129}, {"id": "6a2aabcf6c26802441f5196c", "name": "Calçada do ( FÓRUM )", "lat": -9.621377, "lng": -35.715203}, {"id": "6a2aabcf6c26802441f5196b", "name": "Calçada da ( PARMEGIANNO )", "lat": -9.614103, "lng": -35.717684}, {"id": "6a2aabcf6c26802441f5196a", "name": "Por traz da CDR ( CLINICA DE DOECAS RENAIS )", "lat": -9.623628, "lng": -35.70921}, {"id": "6a2aabcf6c26802441f51969", "name": "Ao lado do ( SALÃO SE BELEZA DR )", "lat": -9.614311, "lng": -35.702121}, {"id": "6a2aabcf6c26802441f51968", "name": "Em frente a LAVANDERIA LAVZAP ", "lat": -9.617017, "lng": -35.703532}, {"id": "6a2aabcf6c26802441f51967", "name": "Academia ( N2 FIT São Jorge )", "lat": -9.619395, "lng": -35.707131}, {"id": "6a2aabcf6c26802441f51966", "name": "Em frente ao ( SHOPPING MIRAMAR )", "lat": -9.62654, "lng": -35.71693}, {"id": "6a2aabcf6c26802441f51965", "name": "Esquina da ( AMERICANAS )", "lat": -9.626126, "lng": -35.717066}, {"id": "6a2aabcf6c26802441f51964", "name": "Próximo ao ( MPF ) PROCURADORIA PÚBLICA EM ALAGOAS", "lat": -9.623183, "lng": -35.716361}, {"id": "6a2aabcf6c26802441f51963", "name": "Por trás do ( PABLO PNEUS )", "lat": -9.625103, "lng": -35.711428}, {"id": "6a2aabcf6c26802441f51962", "name": "Calçada em frente a QUANRA ", "lat": -9.629211, "lng": -35.704385}, {"id": "6a2aabcf6c26802441f51961", "name": "Pista nova sentido a pracinha do ( GAMA BURGUER )", "lat": -9.630421, "lng": -35.704054}, {"id": "6a2aabcf6c26802441f51960", "name": "Pracinha em frente a ( GAMA BIRGUER )", "lat": -9.632821, "lng": -35.701009}, {"id": "6a2aabcf6c26802441f5195f", "name": "Ao lado da ( CONSTRUTORA RECORD )", "lat": -9.629181, "lng": -35.699388}, {"id": "6a2aabcf6c26802441f5195e", "name": "Em frente do Residencial ( MIRANTE DO SOL )", "lat": -9.628795, "lng": -35.708003}, {"id": "6a2aabcf6c26802441f5195d", "name": "Ao lado do ( OUSADIA PRIME )", "lat": -9.625256, "lng": -35.708232}, {"id": "6a2aabcf6c26802441f5195c", "name": "Canteiro central em frente ao Condomínio ( JACARECICA )", "lat": -9.616846, "lng": -35.69116}, {"id": "6a2aabcf6c26802441f5195b", "name": "Praça em frente a ( OAB )", "lat": -9.617809, "lng": -35.691743}, {"id": "6a2aabcf6c26802441f5195a", "name": "Próximo a ( AMPAL )", "lat": -9.618773, "lng": -35.692356}, {"id": "6a2aabcf6c26802441f51959", "name": "Próximo a ADEPOL", "lat": -9.620265, "lng": -35.693495}, {"id": "6a2aabcf6c26802441f51958", "name": "Canteira central em frente a SECRETARIA DA FAZENDA", "lat": -9.623464, "lng": -35.695609}, {"id": "6a2aabcf6c26802441f51957", "name": "Calçada da ( DEFENSORA PUBLICA DE ALAGOAS )", "lat": -9.62034, "lng": -35.738863}, {"id": "6a2aabcf6c26802441f51956", "name": "Farmácia do ( TRABALHADOR DE ALAGOAS )", "lat": -9.616328, "lng": -35.739332}, {"id": "6a2aabcf6c26802441f51955", "name": "AO LADO DA ( GALETERIA SANTA RITA )", "lat": -9.615781, "lng": -35.737815}, {"id": "6a2aabcf6c26802441f51954", "name": "Galeria ( ROCHA ) ", "lat": -9.61539, "lng": -35.736706}, {"id": "6a2aabcf6c26802441f51953", "name": "Esquina em frente à ( GALERIA KIVIA )", "lat": -9.614895, "lng": -35.734921}, {"id": "6a2aabcf6c26802441f51952", "name": "Calçada a frente da escola Dr. POMPEU SARMENTO", "lat": -9.615498, "lng": -35.719136}, {"id": "6a2aabcf6c26802441f51951", "name": "Em frente a ( UMJ ) Centro Universitário Mario Pontes Jucá", "lat": -9.615602, "lng": -35.718811}, {"id": "6a2aabcf6c26802441f51950", "name": "Ao lado da ( VANT PROTEÇÃO VEICULAR )", "lat": -9.615519, "lng": -35.716891}, {"id": "6a2aabcf6c26802441f5194f", "name": "Calçada ( AMADEUS MADRIRA )", "lat": -9.615737, "lng": -35.715042}, {"id": "6a2aabcf6c26802441f5194e", "name": "( Praça ) em frente ( CAPELA CRISTO REDENTOR ) ", "lat": -9.61437, "lng": -35.713461}, {"id": "6a2aabcf6c26802441f5194d", "name": "Ao lado da ( JARDIM TINTAS )", "lat": -9.615874, "lng": -35.713659}, {"id": "6a2aabcf6c26802441f5194c", "name": "Calçada escola ( SANTÍSSIMA TRINDADE )", "lat": -9.617718, "lng": -35.71293}, {"id": "6a2aabcf6c26802441f5194b", "name": "Em frente a ( LUCK BARBEARIA )", "lat": -9.621623, "lng": -35.708137}, {"id": "6a2aabcf6c26802441f5194a", "name": "Calçada da ( SUCOLÃNDIA ) ", "lat": -9.617816, "lng": -35.705353}, {"id": "6a2aabcf6c26802441f51949", "name": "Praça em frente ao posto ( V-POWER ) ou ( RAYAUTO )", "lat": -9.612826, "lng": -35.701617}, {"id": "6a2aabcf6c26802441f51948", "name": "Calçada do edifício ( BOA VISTA ) próximo a N2FIT", "lat": -9.619181, "lng": -35.706996}, {"id": "6a2aabcf6c26802441f51947", "name": "Mercadinho ( DULLAR )", "lat": -9.621957, "lng": -35.710348}, {"id": "6a2aabcf6c26802441f51946", "name": "Igreja ( BATISTA KOIANONIA )", "lat": -9.61902, "lng": -35.711655}, {"id": "6a2aabcf6c26802441f51945", "name": "Igreja ( ROCHA ETERNA )", "lat": -9.618361, "lng": -35.713025}, {"id": "6a2aabcf6c26802441f51944", "name": "Entrada do ( MOTEL EUDORADO )", "lat": -9.619136, "lng": -35.714087}, {"id": "6a2aabcf6c26802441f51943", "name": "Em frente a CENTRAL DAS TELHA ", "lat": -9.620007, "lng": -35.714631}, {"id": "6a2aabcf6c26802441f51942", "name": "Em frente a ( MPF ) MINISTÉRIO DA REPUBLICANA ", "lat": -9.622629, "lng": -35.716166}, {"id": "6a2aabcf6c26802441f51941", "name": "Próximo ao ponto de ônibus ", "lat": -9.623206, "lng": -35.712044}, {"id": "6a1eb924350bccb51ac2efc9", "name": "Calçada do ( NA RUA FOODPARK ) ", "lat": -9.614125, "lng": -35.723511}, {"id": "6a1eb924350bccb51ac2efc8", "name": "Praça após o posto BR MANIA ", "lat": -9.615096, "lng": -35.732467}, {"id": "6a1eb924350bccb51ac2efc7", "name": "Em frente ao ( posto Ipiranga ) canteira central antigo retorno", "lat": -9.61413, "lng": -35.729642}, {"id": "6a1eb924350bccb51ac2efc6", "name": "Calçada a frente da ( N2 FIT ACADEMIA )", "lat": -9.614323, "lng": -35.726895}, {"id": "6a1eb924350bccb51ac2efc5", "name": "Calçada a frente da ( I4 imóveis )", "lat": -9.614322, "lng": -35.726052}, {"id": "6a1eb924350bccb51ac2efc4", "name": "Calçada edifício ( ALLEGRIA ) ", "lat": -9.61413, "lng": -35.72156}, {"id": "6a1eb924350bccb51ac2efc3", "name": "AO LADO DA CONVENIÊNCIA POTIGUAR REINDO BODE ", "lat": -9.614321, "lng": -35.720695}, {"id": "6a1eb924350bccb51ac2efc2", "name": "Calçada a frente do  EDIFÍCIO CENTHAURUS )", "lat": -9.614333, "lng": -35.719935}, {"id": "6a1eb924350bccb51ac2efc1", "name": "Calçada a frete da ( ACADEMIA  MOTIVAÇÃO )", "lat": -9.614385, "lng": -35.71924}, {"id": "6a1eb924350bccb51ac2efc0", "name": "Em frente à ( ESCOLA VILA RIVA )", "lat": -9.615067, "lng": -35.718133}, {"id": "6a1eb924350bccb51ac2efbf", "name": "Próximo ao ( HOSPITAL CARMO )", "lat": -9.62361, "lng": -35.705345}, {"id": "6a1eb924350bccb51ac2efbe", "name": "Esquina próximo a ( panificação DONA CUCA )", "lat": -9.623219, "lng": -35.711171}, {"id": "6a1eb924350bccb51ac2efbd", "name": "Próximo ao ponto de ( ÔNIBUS DO NOVO HOSPITAL N.S DO CARMO )", "lat": -9.623316, "lng": -35.707567}, {"id": "6a1eb924350bccb51ac2efbc", "name": "Próximo ao ponto de ( ÔNIBUS DO ATACADAO )", "lat": -9.625533, "lng": -35.702873}, {"id": "6a1eb924350bccb51ac2efbb", "name": "Próximo ao (  ponto de ônibus ) ante do atacado ", "lat": -9.625651, "lng": -35.69883}, {"id": "6a1eb924350bccb51ac2efba", "name": "Calçada ao lado da shopping no final da ciclovia da Josefa de Melo ", "lat": -9.625702, "lng": -35.6972}, {"id": "6a1eb924350bccb51ac2efb9", "name": "Na avenida  entre os ponto da ( Jacarecica )", "lat": -9.620598, "lng": -35.691893}, {"id": "6a1eb924350bccb51ac2efb8", "name": "Calçada na esquina do ( POSTO SHELL )", "lat": -9.629869, "lng": -35.699125}, {"id": "6a1eb924350bccb51ac2efb7", "name": "Ao lado do ( LINS E AZEVEDO IMOVEIS )", "lat": -9.632485, "lng": -35.700447}, {"id": "6a1eb924350bccb51ac2efb6", "name": "Calçada da ( caixa )", "lat": -9.633914, "lng": -35.701447}, {"id": "6a1eb924350bccb51ac2efb5", "name": "Calçada da ( BMW ) ", "lat": -9.634583, "lng": -35.701891}, {"id": "6a1eb924350bccb51ac2efb4", "name": "Calçada da  ( TOYOTA ) ", "lat": -9.634747, "lng": -35.702004}, {"id": "6a1eb924350bccb51ac2efb3", "name": "Ciclovia ao lado do ( PET CURIOSO ) ", "lat": -9.635255, "lng": -35.697817}, {"id": "6a1eb924350bccb51ac2efb2", "name": "Calçada da ( JEEP RAM ) ", "lat": -9.637876, "lng": -35.704021}, {"id": "6a1eb924350bccb51ac2efb1", "name": "Calçada do condomínio ( PARQUE JATIUCA ) ", "lat": -9.641238, "lng": -35.70044}, {"id": "6a1eb924350bccb51ac2efb0", "name": " Em frente ao condomínio ( PARQUE JATIUCA )", "lat": -9.641262, "lng": -35.701251}, {"id": "6a1eb924350bccb51ac2efaf", "name": "Em frente a ( CEST ) centro educacional Santa Terezinha ", "lat": -9.641282, "lng": -35.703279}, {"id": "6a1eb924350bccb51ac2efae", "name": "Calçada em frente ao edifício ( KAIUA )", "lat": -9.641455, "lng": -35.705796}, {"id": "6a1eb924350bccb51ac2efad", "name": "ao lado da( BANCA VATICANO )", "lat": -9.640884, "lng": -35.705629}, {"id": "6a1eb924350bccb51ac2efac", "name": "Esquina do edifício ( AMARAJI )", "lat": -9.641695, "lng": -35.704736}, {"id": "6a1eb924350bccb51ac2efab", "name": "Esquina da ( MERCEARIA JM ) ", "lat": -9.641772, "lng": -35.702694}, {"id": "6a1eb924350bccb51ac2efaa", "name": "Esquina da ( DESIGN DENTAL )", "lat": -9.641784, "lng": -35.701532}, {"id": "6a1eb924350bccb51ac2efa8", "name": "Próximo a ( YES IDIOMAS )", "lat": -9.641893, "lng": -35.700381}, {"id": "6a120ad8ae53cb3ea61d43d1", "name": "Ponto de entrega Blog", "lat": -9.6675576, "lng": -35.727527}, {"id": "6a0dc437417c2c31ce484d1c", "name": "Esquina do HOTEL ÁGUA DE COCO", "lat": -9.637278, "lng": -35.698138}, {"id": "6a0dc437417c2c31ce484d1b", "name": "Praça ( TENENTE MADALENA )", "lat": -9.636348, "lng": -35.701469}, {"id": "6a0dc437417c2c31ce484d1a", "name": "Ao lado da ( DELEGACIA DO 6º DP )", "lat": -9.637298, "lng": -35.703155}, {"id": "6a0dc437417c2c31ce484d19", "name": "Rua sem movimento quarteirão todo murado ", "lat": -9.639474, "lng": -35.700478}, {"id": "6a0dc437417c2c31ce484d18", "name": "Rua deserta só parede o quarteirão ", "lat": -9.639475, "lng": -35.701552}, {"id": "6a0dc437417c2c31ce484d17", "name": "Rua deserta so parede o quarteirão ", "lat": -9.639507, "lng": -35.702527}, {"id": "6a0dc437417c2c31ce484d16", "name": "Igreja ( N. SRA. SORA MÍSTICA ) ", "lat": -9.6412, "lng": -35.702559}, {"id": "6a0dc437417c2c31ce484d15", "name": "Praça ( N. SRA. ROSA MÍSTICA ) ", "lat": -9.640443, "lng": -35.70246}, {"id": "6a0dc437417c2c31ce484d14", "name": "Em frente a ( ACADEMIA DE ARTE )", "lat": -9.642333, "lng": -35.703729}, {"id": "6a0dc437417c2c31ce484d13", "name": "Em frente a ( LUMIAR )", "lat": -9.642531, "lng": -35.702654}, {"id": "6a0dc437417c2c31ce484d12", "name": "Calçada da ( LUMEN )", "lat": -9.642451, "lng": -35.704915}, {"id": "6a0dc437417c2c31ce484d11", "name": "Esquina do edifício ( SANTA THEREZA )", "lat": -9.641749, "lng": -35.703746}, {"id": "6a0dc437417c2c31ce484d10", "name": "Próxima a creche ( LAÇOS DO SABER )", "lat": -9.642372, "lng": -35.705915}, {"id": "6a0dc437417c2c31ce484d0f", "name": "Esquina do edifício ( CABOATAN )", "lat": -9.643916, "lng": -35.701592}, {"id": "6a0dc437417c2c31ce484d0e", "name": "Esquina em frente ao edifício ( MODENA )", "lat": -9.643745, "lng": -35.702709}, {"id": "6a0dc437417c2c31ce484d0d", "name": "Calçada edifício ( SAM BENEDITO )", "lat": -9.643764, "lng": -35.703863}, {"id": "6a0dc437417c2c31ce484d0c", "name": "Próximo ao ( MERCATO PIZZA )", "lat": -9.643124, "lng": -35.70481}, {"id": "6a0dc437417c2c31ce484d0b", "name": "Próximo a ( MERCATO PIZZA )", "lat": -9.64371, "lng": -35.704897}, {"id": "6a0dc437417c2c31ce484d0a", "name": "Próximo ao ( MAMALOO )", "lat": -9.643711, "lng": -35.70585}, {"id": "6a0dc437417c2c31ce484d09", "name": "Calçada da CONFEITARIA ( PETIT )", "lat": -9.643636, "lng": -35.706966}, {"id": "6a0dc437417c2c31ce484d08", "name": "Próximo a lavandaria ( LAVE CERTO )", "lat": -9.642819, "lng": -35.70692}, {"id": "6a0dc437417c2c31ce484d07", "name": "Calçada da (PARÓQUIA MONTE SIAO )", "lat": -9.642264, "lng": -35.706892}, {"id": "6a0dc437417c2c31ce484d06", "name": "Calçada da ( YAMAHA )", "lat": -9.642049, "lng": -35.708068}, {"id": "6a0dc437417c2c31ce484d05", "name": "Em frente a ( BAGS STORE ) ", "lat": -9.643323, "lng": -35.708148}, {"id": "6a0dc437417c2c31ce484d04", "name": "Esquina da ( DR CAR )", "lat": -9.6427, "lng": -35.709173}, {"id": "6a0dc437417c2c31ce484d03", "name": "Esquina da ( MAPLE BEAR ) ", "lat": -9.644303, "lng": -35.709397}, {"id": "6a0dc437417c2c31ce484d02", "name": "Próximo à IGREJA ( REVIVER EM CRISTO )", "lat": -9.644361, "lng": -35.708168}, {"id": "6a0dc437417c2c31ce484d01", "name": "Ao lado da ( ANCORE ) proteção veicular ", "lat": -9.644418, "lng": -35.707164}, {"id": "6a0dc437417c2c31ce484d00", "name": "Calçada da ( MFIT )", "lat": -9.644458, "lng": -35.705899}, {"id": "6a0dc437417c2c31ce484cff", "name": "Calçada da ( PARES TUTTI PÃES E DOCERIA ) ", "lat": -9.644392, "lng": -35.704826}, {"id": "6a0dc437417c2c31ce484cfe", "name": "Calçada da ( JATOPRIME )", "lat": -9.644509, "lng": -35.704249}, {"id": "6a0dc437417c2c31ce484cfd", "name": "Calçada do ( LETS PLAY )", "lat": -9.644519, "lng": -35.703713}, {"id": "6a0dc437417c2c31ce484cfc", "name": "Ao lado do VILLE CRESCER ", "lat": -9.644568, "lng": -35.702345}, {"id": "6a0b791daa28606134e10a31", "name": "Leroy Merlin", "lat": -9.6281767, "lng": -35.6951839}, {"id": "6a08b5b7547f5a9bd55c1321", "name": "Mc Donalds Fernandes Lima", "lat": -9.623781, "lng": -35.738396}, {"id": "6a08b585547f5a9bd55b8779", "name": "Final da Orla de Jacarecica", "lat": -9.612739, "lng": -35.686375}, {"id": "6a08a61c10014f0246bc0ba7", "name": "ESPETINHO CPF E  OS CORREIOS", "lat": -9.651077, "lng": -35.715665}, {"id": "6a08a61c10014f0246bc0ba6", "name": "Calçada ao lado da THIZA ", "lat": -9.651091, "lng": -35.70796}, {"id": "6a08a61c10014f0246bc0ba5", "name": "VICTOR ARTES  VN SINALIZAÇÃO ", "lat": -9.657034, "lng": -35.719695}, {"id": "6a08a61c10014f0246bc0ba4", "name": "Canteiro central próximo ao BEEF HOUSE ", "lat": -9.656921, "lng": -35.718128}, {"id": "6a08a61c10014f0246bc0ba3", "name": "Próximo  ao BAR ITAIPAVA ", "lat": -9.655106, "lng": -35.717999}, {"id": "6a08a61c10014f0246bc0ba2", "name": "( Equina ) próxima a GEAP", "lat": -9.655117, "lng": -35.713916}, {"id": "6a08a61c10014f0246bc0ba1", "name": "DIVINA ACESSÓRIOS ", "lat": -9.655051, "lng": -35.710132}, {"id": "6a08a61c10014f0246bc0ba0", "name": "Próximo do RÉ/MAX", "lat": -9.655184, "lng": -35.705181}, {"id": "6a08a61c10014f0246bc0b9f", "name": "Próximo ao  SUNPOKE", "lat": -9.655149, "lng": -35.704033}, {"id": "6a08a61c10014f0246bc0b9e", "name": "Próximo ao HYPE PIZZA", "lat": -9.655095, "lng": -35.701512}, {"id": "6a08a61c10014f0246bc0b9d", "name": "Esquina da BOULEVARD 811", "lat": -9.655218, "lng": -35.706494}, {"id": "6a08a61c10014f0246bc0b9c", "name": "lado do AP CABELOS", "lat": -9.655196, "lng": -35.707647}, {"id": "6a08a61c10014f0246bc0b9b", "name": "Esquina da BLU GAMES ", "lat": -9.654682, "lng": -35.708955}, {"id": "6a08a61c10014f0246bc0b9a", "name": "Calçada a frete ED. MÁRIO HORTÊNCIO ", "lat": -9.654694, "lng": -35.709432}, {"id": "6a08a61c10014f0246bc0b99", "name": "Panificadora  N. SENHORA DAS FRAGAS", "lat": -9.654721, "lng": -35.710128}, {"id": "6a08a61c10014f0246bc0b98", "name": "OLIVEIRA FRUTAS E VERDURA", "lat": -9.654755, "lng": -35.71147}, {"id": "6a08a61c10014f0246bc0b97", "name": "edifício ST a CATARINA", "lat": -9.65789, "lng": -35.712785}, {"id": "6a059a240d6592d4b8b2c73f", "name": "Calçada lateral ao SENAI   -9.660266, -35.722003", "lat": -9.660266, "lng": -35.722003}, {"id": "6a059a240d6592d4b8b2c73e", "name": "Esquina próximo colégio Theo Brandão ", "lat": -9.656447, "lng": -35.712731}, {"id": "6a059a240d6592d4b8b2c73d", "name": "Calçada da ( GALERIA CARMINHO ) ", "lat": -9.657211, "lng": -35.722797}, {"id": "6a059a240d6592d4b8b2c73c", "name": "Edifício ( ESTRELA DE MACEIÓ ) ", "lat": -9.660781, "lng": -35.713961}, {"id": "6a059a240d6592d4b8b2c73b", "name": "Edifício ( ESTRELA DE MACEIÓ )", "lat": -9.660781, "lng": -35.713961}, {"id": "6a059a240d6592d4b8b2c73a", "name": "Em frente ao BOM DE ROLO.COM ", "lat": -9.66723, "lng": -35.717335}, {"id": "6a059a240d6592d4b8b2c739", "name": "calçada da Barbearia UIRAPURU ", "lat": -9.657414, "lng": -35.716942}, {"id": "6a059a240d6592d4b8b2c738", "name": "Calçada a frente MERCADINHO SÃO CAMILO ", "lat": -9.658356, "lng": -35.717734}, {"id": "6a059a240d6592d4b8b2c737", "name": "Em frente a GPA ", "lat": -9.659611, "lng": -35.724661}, {"id": "6a059a240d6592d4b8b2c736", "name": "Praça em frente a AZULEAR ", "lat": -9.660082, "lng": -35.725034}, {"id": "6a059a240d6592d4b8b2c735", "name": "Em frente ao revendedora de ( PNEUS OK )", "lat": -9.661617, "lng": -35.728463}, {"id": "6a059a240d6592d4b8b2c734", "name": "Lateral da revendedora de ( PENEU OK )", "lat": -9.660834, "lng": -35.727322}, {"id": "6a059a240d6592d4b8b2c733", "name": "Calçada próxima ( MANIA PET )", "lat": -9.660112, "lng": -35.711838}, {"id": "6a059a240d6592d4b8b2c732", "name": "Calçada na esquina da ( ÁPICE )", "lat": -9.658843, "lng": -35.711534}, {"id": "6a04cc224219cc6281ca8e11", "name": "Praça em frente a JO FARMÁCIA", "lat": -9.662258, "lng": -35.726338}, {"id": "6a04cc224219cc6281ca8e10", "name": "Calçada a frente do GAME STORE ", "lat": -9.66207, "lng": -35.710191}, {"id": "6a04cc224219cc6281ca8e0f", "name": "Calçada a frete do IGREJA SHEKINAH ", "lat": -9.660278, "lng": -35.720537}, {"id": "6a04cc224219cc6281ca8e0e", "name": "Ao lado da FLUIR LÁ VITA", "lat": -9.65861, "lng": -35.715288}, {"id": "6a04cc224219cc6281ca8e0d", "name": "Calçada CRECHE ESCOLA DIVERT KIDS", "lat": -9.660386, "lng": -35.713982}, {"id": "6a04cc224219cc6281ca8e0c", "name": "Calçada do condomínio SÃO MATHEUS", "lat": -9.656439, "lng": -35.710298}, {"id": "6a04cc224219cc6281ca8e0b", "name": "Calçada da escola PROF EDUARDO DA NOTA TRIGUEIRO E ATRÁS DA  PAROQUA SOSSA SENHORA DE ASSUNCAO ", "lat": -9.656299, "lng": -35.714208}, {"id": "6a04cc224219cc6281ca8e0a", "name": "Calçada lateral ao Residencial JATIUCA 2", "lat": -9.656174, "lng": -35.715161}, {"id": "6a04cc224219cc6281ca8e09", "name": "Ao lado da loja ESCALA SUPRIMENTOS", "lat": -9.654056, "lng": -35.719167}, {"id": "6a04cc224219cc6281ca8e08", "name": "Calçada a frente da construtora UCHOA ", "lat": -9.656407, "lng": -35.721682}, {"id": "6a04cc224219cc6281ca8e07", "name": "Calçada a frente do ORTOBOM/ a frente a SEMDES", "lat": -9.65832, "lng": -35.722941}, {"id": "6a04cc224219cc6281ca8e06", "name": "Calçada a frente da SANTA CASA ( unidade Poco ) em frente ai SENAI", "lat": -9.660529, "lng": -35.723459}, {"id": "6a04cc224219cc6281ca8e05", "name": "Calçada a frente do SENAI ", "lat": -9.66092, "lng": -35.723721}, {"id": "6a04cc224219cc6281ca8e04", "name": "Calçada Ao lado da PLUG ELETRICIDADE", "lat": -9.662133, "lng": -35.724004}, {"id": "6a04cc224219cc6281ca8e03", "name": "Calçada do moinho motriza rua lateral ", "lat": -9.662382, "lng": -35.723804}, {"id": "6a04cc224219cc6281ca8e02", "name": "Calçada em frete ao moinho motriza", "lat": -9.663233, "lng": -35.724127}, {"id": "6a04cc224219cc6281ca8e01", "name": "Calçada em frente à igreja JESUS CRISTO DO SANTOS", "lat": -9.665246, "lng": -35.724672}, {"id": "6a0356f87b2dec4e9965a101", "name": "Pirata bar", "lat": -9.663785, "lng": -35.70311}, {"id": "6a0356f87b2dec4e9965a0fe", "name": "Thalassa", "lat": -9.664173, "lng": -35.707396}, {"id": "6a0356f87b2dec4e9965a0fd", "name": "Feira do Artesenato", "lat": -9.664291, "lng": -35.708438}, {"id": "6a0356f87b2dec4e9965a0fc", "name": "food park pajuçara", "lat": -9.665111, "lng": -35.709465}, {"id": "6a0356f87b2dec4e9965a0fb", "name": "Estacionamento público", "lat": -9.66555, "lng": -35.710026}, {"id": "6a0356f87b2dec4e9965a0fa", "name": "Balança de peixe pajuçara 2", "lat": -9.66686, "lng": -35.711765}, {"id": "6a0356f87b2dec4e9965a0f9", "name": "Balança de peixe pajuçara", "lat": -9.666638, "lng": -35.711906}, {"id": "6a0356f87b2dec4e9965a0f8", "name": "Roda gigante 2", "lat": -9.668257, "lng": -35.713093}, {"id": "6a0356f87b2dec4e9965a0f7", "name": "Barraca da baiana", "lat": -9.669004, "lng": -35.713986}, {"id": "6a0356f87b2dec4e9965a0f6", "name": "Coconut", "lat": -9.670064, "lng": -35.714455}, {"id": "6a0356f87b2dec4e9965a0f5", "name": "Vistamar hotel", "lat": -9.67079, "lng": -35.715066}, {"id": "6a0356f87b2dec4e9965a0f4", "name": "Parmegiano praia", "lat": -9.672363, "lng": -35.7159}, {"id": "6a026aa8736969dc5c0a9ec7", "name": "BURGER KING", "lat": -9.64323, "lng": -35.73461}, {"id": "6a026aa8736969dc5c0a9ec6", "name": "CASAS JARDIM", "lat": -9.642258, "lng": -35.73517}, {"id": "6a026aa8736969dc5c0a9ec5", "name": "em frente a ELETROLUZ", "lat": -9.642458, "lng": -35.735109}, {"id": "6a026aa8736969dc5c0a9ec4", "name": "Em frente ao BRADESCO", "lat": -9.643369, "lng": -35.734963}, {"id": "6a026aa8736969dc5c0a9ec2", "name": "CORREIOS", "lat": -9.643876, "lng": -35.734671}, {"id": "6a026aa8736969dc5c0a9ec1", "name": "em frente A LOJA AMERICANAS", "lat": -9.64461, "lng": -35.734526}, {"id": "6a026aa8736969dc5c0a9ec0", "name": "SETRAND SECRETÁRIA DE TRANSPORTE", "lat": -9.645571, "lng": -35.734528}, {"id": "6a026aa8736969dc5c0a9ebf", "name": "ao lado da CENTURY SEGURANÇA", "lat": -9.649728, "lng": -35.733226}, {"id": "6a026aa8736969dc5c0a9ebe", "name": "FARMÁCIA PERMANENTE", "lat": -9.653379, "lng": -35.733204}, {"id": "6a026aa8736969dc5c0a9ebd", "name": "Em frente a FARMÁCIA PERMANENTE", "lat": -9.653641, "lng": -35.733178}, {"id": "6a026aa8736969dc5c0a9ebc", "name": "CRESCI E PERDI", "lat": -9.654159, "lng": -35.733289}, {"id": "6a026aa8736969dc5c0a9ebb", "name": "COLÉGIO SANTA MADALENA SOFIA", "lat": -9.655722, "lng": -35.73333}, {"id": "6a026aa8736969dc5c0a9eba", "name": "KNN IDIOMAS", "lat": -9.656442, "lng": -35.733425}, {"id": "6a026aa8736969dc5c0a9eb9", "name": "( Praça CENTENÁRIO ) Em frente ao CESMAC", "lat": -9.653221, "lng": -35.73369}, {"id": "6a026aa8736969dc5c0a9eb8", "name": "Praça CENTENÁRIA", "lat": -9.651036, "lng": -35.733382}, {"id": "6a026aa8736969dc5c0a9eb7", "name": "PAGUEMENOS AO LADO DA BOX341", "lat": -9.647962, "lng": -35.73396}, {"id": "6a026aa8736969dc5c0a9eb6", "name": "DROGASIL ao lado do PALATO", "lat": -9.646822, "lng": -35.733944}, {"id": "6a026aa8736969dc5c0a9eb5", "name": "PALATO", "lat": -9.645514, "lng": -35.7342}, {"id": "6a026aa8736969dc5c0a9eb4", "name": "SUPERMERCADO BELLACOMPRA", "lat": -9.645128, "lng": -35.734245}, {"id": "6a026aa8736969dc5c0a9eb3", "name": "MINISTÉRIO PUBLICADO ESTADUAL", "lat": -9.64148, "lng": -35.734842}, {"id": "6a026aa8736969dc5c0a9eb2", "name": "Rampa lateral em frente ao CEPA", "lat": -9.639024, "lng": -35.735809}, {"id": "6a026aa8736969dc5c0a9eb1", "name": "PAGUE MENOS EM FRETE AO CEPA", "lat": -9.639098, "lng": -35.735472}, {"id": "6a026aa8736969dc5c0a9eb0", "name": "CEPA", "lat": -9.638205, "lng": -35.735577}, {"id": "6a026aa8736969dc5c0a9eaf", "name": "DROGANOSSA", "lat": -9.636233, "lng": -35.736297}, {"id": "6a026aa8736969dc5c0a9eae", "name": "FIAT MAVEL", "lat": -9.630577, "lng": -35.737137}, {"id": "6a026aa8736969dc5c0a9eac", "name": "Volkswagen importados", "lat": -9.632654, "lng": -35.737013}, {"id": "6a026aa8736969dc5c0a9eab", "name": "ROCHA VIVA ALÉM DO COMUM", "lat": -9.630645, "lng": -35.737457}, {"id": "6a026aa8736969dc5c0a9eaa", "name": "SECRETARIA MUNICIPAL DE SAÚDE", "lat": -9.630096, "lng": -35.737591}, {"id": "6a026aa8736969dc5c0a9ea9", "name": "Esquina Do BANCO ITAÚ", "lat": -9.629472, "lng": -35.737667}, {"id": "6a026aa8736969dc5c0a9ea8", "name": "DROGASIL", "lat": -9.628476, "lng": -35.737564}, {"id": "6a026aa8736969dc5c0a9ea7", "name": "BANCO DO BRASIL AO LADO DO SHOPPING FAROL", "lat": -9.627724, "lng": -35.738023}, {"id": "6a026aa8736969dc5c0a9ea6", "name": "PERMANENTE E BANCO BRADESCO", "lat": -9.625286, "lng": -35.738498}, {"id": "6a026aa8736969dc5c0a9ea5", "name": "HOSPITAL VEREDAS", "lat": -9.625649, "lng": -35.738111}, {"id": "69f7ce563557c9781b595685", "name": "Posto Vips Cruz das almas", "lat": -9.6304126, "lng": -35.6992159}, {"id": "69f7cd174537f5ebb43330aa", "name": "Terminal de Ônibus Cruz das almas", "lat": -9.6304658, "lng": -35.6969579}, {"id": "69f6a32ad23b32724d59f829", "name": "Ed Monaco PV", "lat": -9.663048556344293, "lng": -35.69813335712527}, {"id": "69f6a2a8d23b32724d599b22", "name": "Ed Kingston PV", "lat": -9.660172820627015, "lng": -35.700134362753154}, {"id": "69f6a262d23b32724d593856", "name": "Praça do Skate PV", "lat": -9.660948964691107, "lng": -35.701291174330514}, {"id": "69f6a22bd23b32724d590c9f", "name": "Ed Anthony PV", "lat": -9.661256731559078, "lng": -35.70445744440277}, {"id": "69f6a1fad23b32724d58ecb9", "name": "Clean Express PV", "lat": -9.660686561513673, "lng": -35.70437839548077}, {"id": "69f6a151d23b32724d587cd5", "name": "Ed. Vital Barbosa PV", "lat": -9.659540428346554, "lng": -35.70399949085203}, {"id": "69f6a08ed23b32724d57bfd8", "name": "Ed Spazio Vitalle PV", "lat": -9.659540523254472, "lng": -35.70549597444967}, {"id": "69f6a02bd23b32724d576699", "name": "Ed Ilha Maurithius jatiuca", "lat": -9.654549035250618, "lng": -35.70029766736642}, {"id": "69f6a003d23b32724d572623", "name": "Estudio Mana Records PV", "lat": -9.659548656225747, "lng": -35.70653358748754}, {"id": "69f69f39d23b32724d5559c4", "name": "Praça do Caruaru PV", "lat": -9.660143231152412, "lng": -35.70730114709736}, {"id": "69f69e86d23b32724d54dbcc", "name": "Ed Porto Madero PV", "lat": -9.659565227406219, "lng": -35.709444690169235}, {"id": "69f69e45d23b32724d549d4e", "name": "Pousada Temporada Maceió PV", "lat": -9.660179103669371, "lng": -35.70957186237873}, {"id": "69f69c9cd23b32724d52c6a4", "name": "Ed Ilha de Creta", "lat": -9.656752432757647, "lng": -35.70736403608385}, {"id": "69f69b2ad23b32724d5125eb", "name": "Ed Maison Du Triomphe PV", "lat": -9.658725530508894, "lng": -35.70277972763197}, {"id": "69f69a62d23b32724d4fd2b8", "name": "Ed  Savassi PV", "lat": -9.657425391351662, "lng": -35.702786359741424}, {"id": "69f69963d23b32724d4ea3f5", "name": "Ed Daniela jatiuca", "lat": -9.653415324989144, "lng": -35.70140505334005}, {"id": "69f697bfd23b32724d4c98e2", "name": "Lavanderia Arco-Íris", "lat": -9.653964719501019, "lng": -35.706362641397405}, {"id": "69f6970dd23b32724d4bd9f5", "name": "Ortobom (Jatiuca)", "lat": -9.653416, "lng": -35.708862}, {"id": "69f69623d23b32724d4ae4f2", "name": "Quadra Socity na Pajuçara", "lat": -9.669573, "lng": -35.714766}, {"id": "69f695cad23b32724d4a9992", "name": "Ed. Atlanta", "lat": -9.671393, "lng": -35.716085}, {"id": "69f6950ed23b32724d49d6df", "name": "Farmacia Trabalhador de Alagoas (Jatiuca)", "lat": -9.651347, "lng": -35.708747}, {"id": "69f69470d23b32724d49514a", "name": "Praça Manoel Duarte 2", "lat": -9.673955, "lng": -35.718984}, {"id": "69f69309d23b32724d47cc22", "name": "Estacionamento Pajuçara Próx Nova Orla", "lat": -9.672632, "lng": -35.716435}, {"id": "69f69222d23b32724d46e6af", "name": "Excluir este estacionamento", "lat": -9.671334, "lng": -35.719913}, {"id": "69f691afd23b32724d46400e", "name": "Posto Policial, Poço", "lat": -9.660146, "lng": -35.717832}, {"id": "69f6914cd23b32724d45a4a6", "name": "Ed. Teara, Poço", "lat": -9.660087, "lng": -35.711297}, {"id": "69f6911cd23b32724d45305d", "name": "Sonny Almeida Beach (Jatiuca)", "lat": -9.653238, "lng": -35.711452}, {"id": "69f69075d23b32724d44a332", "name": "Smart Limpeza (Jatiúca)", "lat": -9.653391, "lng": -35.712601}, {"id": "69f68fb3d23b32724d43daf5", "name": "Believe Church (Jatiúca)", "lat": -9.652798, "lng": -35.718022}, {"id": "69f68ebdd23b32724d42e17b", "name": "Parque da Mulher (Em frente Maceió Shopping)", "lat": -9.649626, "lng": -35.714518}, {"id": "69f68e57d23b32724d4271b2", "name": "Espetinho do Chefe (Parque da Mulher)", "lat": -9.649769, "lng": -35.7133}, {"id": "69f685a7d23b32724d3566f1", "name": "Estação Jaraguá", "lat": -9.672102, "lng": -35.719999}, {"id": "69f66f41d23b32724d1be91c", "name": "Atacadão", "lat": -9.625532, "lng": -35.7006674}, {"id": "69f66efcd23b32724d1b79f9", "name": "Academia Nova Orla", "lat": -9.67644, "lng": -35.718731}, {"id": "69f66e55d23b32724d1a8c9a", "name": "Arena Lyra", "lat": -9.6685465, "lng": -35.7276822}, {"id": "69ea936ab362646b3e58a7e2", "name": "Parque da Nova Orla", "lat": -9.67644, "lng": -35.718731}, {"id": "69e546b1026ff408f1c117ee", "name": "Maison Monet", "lat": -9.6315636, "lng": -35.6972925}, {"id": "69df10dc6c2a9dcfde70fe06", "name": "EU <3 MACEIÓ", "lat": -9.664549, "lng": -35.698514}, {"id": "69df10b96c2a9dcfde70bc8d", "name": "Toten: I <3 MCZ", "lat": -9.6508896, "lng": -35.6994134}, {"id": "69df108e6c2a9dcfde7047ca", "name": "Edifício Catamarã", "lat": -9.6635213, "lng": -35.6956235}, {"id": "69df10646c2a9dcfde7003b6", "name": "Cadeira Gigante", "lat": -9.6637341, "lng": -35.7019639}, {"id": "69df103b6c2a9dcfde6fbc82", "name": "Barraca Pedra Virada", "lat": -9.6643549, "lng": -35.6993789}, {"id": "69df0fd36c2a9dcfde6cf723", "name": "Barraca do Siri", "lat": -9.6455135, "lng": -35.6995542}, {"id": "69df0fad6c2a9dcfde6c385c", "name": "Maceió Atlantic Suítes", "lat": -9.6497242, "lng": -35.6998791}, {"id": "69df0f856c2a9dcfde6c18f1", "name": "Edifício Palazzo Firenze", "lat": -9.6547697, "lng": -35.6985984}, {"id": "69df0f0c6c2a9dcfde6b8d73", "name": "Banheiroo Público", "lat": -9.6582118, "lng": -35.6983127}, {"id": "69df0eeb6c2a9dcfde6b6cb2", "name": "Polícia Turística", "lat": -9.6644864, "lng": -35.6960181}, {"id": "69df0e8f6c2a9dcfde6b2433", "name": "Maceió Tapiocaria", "lat": -9.665969, "lng": -35.711068}, {"id": "69df0e506c2a9dcfde6aefa4", "name": "Terminal do Porto", "lat": -9.6840036, "lng": -35.7250402}, {"id": "69df0df66c2a9dcfde6a2772", "name": "Final do Porto", "lat": -9.68269, "lng": -35.728487}, {"id": "69db925e833c4dd5cc5fe3c1", "name": "Gogó da Ema (Marco dos Corais)", "lat": -9.6648063, "lng": -35.6967678}, {"id": "69daadeb833c4dd5cc145c81", "name": "Barraca da Gelega", "lat": -9.6706918, "lng": -35.7154728}, {"id": "69d7e0b55b057051563cf260", "name": "Banco Itaú PV", "lat": -9.6605879, "lng": -35.6971436}, {"id": "69d78c255b057051561ba0c0", "name": "Openbox", "lat": -9.670603, "lng": -35.723907}, {"id": "69d78c0b5b057051561b65e8", "name": "Joy clube", "lat": -9.669743, "lng": -35.725499}, {"id": "69d78bf15b057051561af817", "name": "Arena lyra aacademy", "lat": -9.669131, "lng": -35.724186}, {"id": "69d78bd55b057051561a9f1b", "name": "Ponto do suco", "lat": -9.668803, "lng": -35.725499}, {"id": "69d78bbb5b0570515619ef0e", "name": "Centro de inovação Jaraguá", "lat": -9.669825, "lng": -35.72149}, {"id": "69d78b9e5b05705156197fd4", "name": "Colégio São Jorge", "lat": -9.669838, "lng": -35.7198}, {"id": "69d78b815b05705156190c3d", "name": "Panificação diplomata", "lat": -9.669875, "lng": -35.721162}, {"id": "69d78b655b0570515618de0c", "name": "Luzexpress", "lat": -9.668608, "lng": -35.725224}, {"id": "69d78b4c5b05705156185d34", "name": "Jps modulares", "lat": -9.669363, "lng": -35.719807}, {"id": "69d78b305b05705156182078", "name": "Entrada Lyra academia", "lat": -9.669455, "lng": -35.723461}, {"id": "69d78b135b0570515617c272", "name": "Lanchonete caldilar", "lat": -9.671097, "lng": -35.723078}, {"id": "69d78af55b05705156177ba7", "name": "Veletrica", "lat": -9.669499, "lng": -35.725906}, {"id": "69d78ace5b057051561705f0", "name": "Madeiras do Brasil", "lat": -9.669192, "lng": -35.726484}, {"id": "69d78ab05b0570515616db91", "name": "Prisma Engenharia", "lat": -9.671548, "lng": -35.722526}, {"id": "69d78a895b0570515616a847", "name": "M.I.S.A", "lat": -9.672501, "lng": -35.722088}, {"id": "69d78a6d5b05705156167eee", "name": "Praça Dois Leões", "lat": -9.672051, "lng": -35.721873}, {"id": "69d78a4e5b05705156166058", "name": "Praça Bom Jesus Dos Navegantes", "lat": -9.672014, "lng": -35.721459}, {"id": "69d78a335b05705156164522", "name": "Praça Manoel Duarte", "lat": -9.673611, "lng": -35.719115}, {"id": "69d789e25b05705156157115", "name": "Nobuco", "lat": -9.67325, "lng": -35.718465}, {"id": "69d68ba5704c65133988b0f7", "name": "Samoa residencial", "lat": -9.646594, "lng": -35.706802}, {"id": "69d68b8a704c651339889a13", "name": "Piratas do picui", "lat": -9.646593, "lng": -35.705136}, {"id": "69d68b6d704c651339884f27", "name": "Ed. Itaipava", "lat": -9.647829, "lng": -35.706897}, {"id": "69d68b51704c65133987f748", "name": "Quitandaria", "lat": -9.649323, "lng": -35.70525}, {"id": "69d68b2e704c6513398731ef", "name": "Garden Truck (Corredor Vera Arruda)", "lat": -9.647335, "lng": -35.705365}, {"id": "69d68b10704c65133986929f", "name": "Restaurante Zé frôxin", "lat": -9.649888, "lng": -35.706991}, {"id": "69d68af1704c651339861ead", "name": "Wizard", "lat": -9.645077, "lng": -35.705207}, {"id": "69d68ac5704c6513398566c5", "name": "Colégio Santa clara", "lat": -9.645184, "lng": -35.70326}, {"id": "69d68aa1704c65133984e40d", "name": "Kidelicia comedoria", "lat": -9.648055, "lng": -35.705182}, {"id": "69d68a80704c6513398494d4", "name": "Churrascaria do bigode", "lat": -9.645747, "lng": -35.705051}, {"id": "69d68a5c704c65133984730f", "name": "Parmegiano", "lat": -9.644524, "lng": -35.700454}, {"id": "69d68a26704c651339843158", "name": "Edf. Santa Marta", "lat": -9.64522, "lng": -35.701733}, {"id": "69d68a03704c65133983c8ca", "name": "Burgueiros", "lat": -9.64398, "lng": -35.70043}, {"id": "69d689d1704c65133982dcb8", "name": "Farmácia Drogasil", "lat": -9.643293, "lng": -35.700557}, {"id": "69d689aa704c651339825db9", "name": "Privelege class", "lat": -9.643288, "lng": -35.700338}, {"id": "69d654dd582e8fb84f1d6311", "name": "Rtis Lagoa da anta", "lat": -9.6626378, "lng": -35.7068394}, {"id": "69d62f3e704c65133944982f", "name": "Praça Sinimbu", "lat": -9.668307, "lng": -35.733758}, {"id": "69d62ef7704c65133943509d", "name": "Museu theo brandão", "lat": -9.66938, "lng": -35.733081}, {"id": "69d62df6704c65133940f9d4", "name": "Praça Marcilio dias", "lat": -9.670085, "lng": -35.729005}, {"id": "69d62dd2704c651339409419", "name": "Sedics", "lat": -9.670085, "lng": -35.729005}, {"id": "69d62dab704c6513393ff2c0", "name": "Mão da Nova Orla", "lat": -9.683245, "lng": -35.72232}, {"id": "69d62d66704c6513393f9265", "name": "Porto de Maceió Nova Orla", "lat": -9.684311, "lng": -35.723399}, {"id": "69d62cdc704c6513393dc1f5", "name": "Intermarítima", "lat": -9.681534, "lng": -35.721402}, {"id": "69d62cb6704c6513393d8bb2", "name": "Segunda entrada Orla nova", "lat": -9.675053, "lng": -35.717425}, {"id": "69d55c9bf402d66dce53679b", "name": "Barricas", "lat": -9.658833333333334, "lng": -35.69808333333333}, {"id": "69d47b912e105f8bb0d25c26", "name": "Sesau", "lat": -9.671132, "lng": -35.727909}, {"id": "69d47b752e105f8bb0d20ea1", "name": "Praça Arquiteto Alex Barbosa", "lat": -9.672769, "lng": -35.724624}, {"id": "69d47b522e105f8bb0d1bddb", "name": "Construtora penedo", "lat": -9.670016, "lng": -35.731064}, {"id": "69d47b332e105f8bb0d1b050", "name": "Entrada Salgadinho", "lat": -9.669642, "lng": -35.73048}, {"id": "69d47b122e105f8bb0d182d6", "name": "Aliança francesa", "lat": -9.668041, "lng": -35.729533}, {"id": "69d47af32e105f8bb0d0fd99", "name": "Miloca sabor em pedaços", "lat": -9.669099, "lng": -35.731}, {"id": "69d47ad22e105f8bb0d07d10", "name": "Parquinho das criança", "lat": -9.668579, "lng": -35.730171}, {"id": "69d47ab02e105f8bb0cfdb1d", "name": "Restaurante Sabor da casa", "lat": -9.666069, "lng": -35.730161}, {"id": "69d47a902e105f8bb0cf9405", "name": "Esquina Misael Domingues", "lat": -9.666414, "lng": -35.729635}, {"id": "69d47a6f2e105f8bb0cf80fa", "name": "Escola técnica fed. Alagoas", "lat": -9.66433, "lng": -35.729721}, {"id": "69d47a4e2e105f8bb0cf6f9d", "name": "Grafpel gráfica", "lat": -9.662745, "lng": -35.729333}, {"id": "69d47a282e105f8bb0cf59c2", "name": "Gigantinhos", "lat": -9.662007, "lng": -35.728831}, {"id": "69d260ced024ee9ba0884ae6", "name": "Fiera de Artesanato", "lat": -9.664247909959617, "lng": -35.708037915344235}, {"id": "69d1622002688b24c55cacac", "name": "Terminal do Porto (Nova Orla)", "lat": -9.68400361704459, "lng": -35.725040186508174}, {"id": "69d141935d082ca403d385f7", "name": "almirante Tamandaré", "lat": -9.663694444444445, "lng": -35.703611111111115}, {"id": "69d1049e346e111d472ea1b3", "name": "Fim da Nova Orla", "lat": -9.68269, "lng": -35.728487}, {"id": "69d1042c346e111d472d38e1", "name": "Galpões da Nova Orla", "lat": -9.679907, "lng": -35.720629}, {"id": "69d103d0346e111d472b66b3", "name": "Silos da Nova Orla", "lat": -9.678518, "lng": -35.719838}, {"id": "69d103b1346e111d472b0ce2", "name": "BAMAC (Nova Orla)", "lat": -9.677671, "lng": -35.719446}, {"id": "69cfedf40c78b2bf95eed97a", "name": "nova orla", "lat": -9.6743119, "lng": -35.7173064}, {"id": "69cfc455d024ee9ba0705123", "name": "Jangada (Monumento na PV)", "lat": -9.66398533077474, "lng": -35.70155918598176}, {"id": "69cf26a7a23be464d74d90b5", "name": "Sereia (Pajuçara)", "lat": -9.6673503, "lng": -35.7122974}, {"id": "69cf1b4ea23be464d739b7c0", "name": "Campinho da Pajuçara", "lat": -9.671485368074732, "lng": -35.71589425206185}, {"id": "69ce21a20628f0b48f8b2687", "name": "Academia da orla", "lat": -9.6475122, "lng": -35.7000548}, {"id": "69c96fd9c91896fa5038ef0e", "name": "Drogasil", "lat": -9.645264254670243, "lng": -35.705005824565895}, {"id": "69c96fc0c91896fa5038c45c", "name": "Alves Morgado", "lat": -9.645139972864314, "lng": -35.70757806301118}, {"id": "69c96f9ec91896fa5038747d", "name": "Lopes Agra", "lat": -9.64507122120731, "lng": -35.70950388908387}, {"id": "69c96e3bc91896fa50351e0d", "name": "Shoping Maceio", "lat": -9.626819805004068, "lng": -35.69750905036927}, {"id": "69c8618cc91896fa5011b27c", "name": "Pirata", "lat": -9.663519960708289, "lng": -35.70311754941941}, {"id": "69c86137c91896fa5010fe92", "name": "Paraiso", "lat": -9.664093740754593, "lng": -35.70070892572404}, {"id": "69c832a1c91896fa50b3beea", "name": "Mercado das Artes", "lat": -9.67336002075359, "lng": -35.72206065058709}, {"id": "6750cf9a4639a0cc3e890e1a", "name": "Farmacia Permanente (Amélia Rosa)", "lat": -9.651472998050519, "lng": -35.70506751537324}, {"id": "6750aed3607e75e7a6c257ba", "name": "Drogasil PV (DIÁRIO)", "lat": -9.658722222222222, "lng": -35.705111111111115}, {"id": "674b26783e085f2d31b3ff7a", "name": "A2 Academia", "lat": -9.631310030517652, "lng": -35.69989353418351}, {"id": "674af132a3436c95459ca2cc", "name": "Bio Fit Ponta Verde", "lat": -9.658969014553305, "lng": -35.710225787471366}, {"id": "674a3538a3436c954572ee52", "name": "Ademicon Pajuçara", "lat": -9.672086897400565, "lng": -35.71817278862}, {"id": "674a3538a3436c954572ee51", "name": "Ritz Praia Hotel Ponta Verde", "lat": -9.663435347899787, "lng": -35.696892142295845}, {"id": "674a3538a3436c954572ee50", "name": "Ed. Francisco Brennand", "lat": -9.661272425759432, "lng": -35.70773363113404}, {"id": "674a3538a3436c954572ee4e", "name": "Drogasil PV (R. Mário Gusmão)", "lat": -9.662187306503037, "lng": -35.70291101932526}, {"id": "674a3538a3436c954572ee4b", "name": "Unopar Pajuçara", "lat": -9.668158, "lng": -35.715077}, {"id": "674955649234530013da0430", "name": "Inicio Praça Corredor Vera Arruda", "lat": -9.647492, "lng": -35.700687}, {"id": "674955649234530013da042e", "name": "Ed. Mar Aberto (Corredor Vera Arruda)", "lat": -9.647356, "lng": -35.702181}, {"id": "674955649234530013da042d", "name": "Suplytec (Corredor Vera Arruda)", "lat": -9.64718, "lng": -35.703069}, {"id": "674955649234530013da042b", "name": "Ed. Ondas Verdes (Corredor Vera Arruda)", "lat": -9.647136, "lng": -35.703934}, {"id": "674955649234530013da0429", "name": "Varga Serviço (Corredor Vera Arruda)", "lat": -9.6471, "lng": -35.704844}, {"id": "674955649234530013da0426", "name": "Harmony Trade Center (Corredor Vera Arruda)", "lat": -9.647231, "lng": -35.706433}, {"id": "674955649234530013da0423", "name": "Parque São Lucas (Vera Arruda)", "lat": -9.646874, "lng": -35.708823}, {"id": "674955649234530013da0422", "name": "Paróquia São Lucas (Corredor Vera Arruda)", "lat": -9.646815, "lng": -35.711649}, {"id": "674955649234530013da041e", "name": "Quadra de Basquete (Parque da Mulher)", "lat": -9.649695, "lng": -35.709027}, {"id": "674955649234530013da0419", "name": "Quadra da Telemar (Parque da Mulher)", "lat": -9.649792, "lng": -35.711468}, {"id": "674955649234530013da0411", "name": "Praça da Bíblia 2", "lat": -9.652428, "lng": -35.717117}, {"id": "674955649234530013da040f", "name": "Excluir este estacionamento", "lat": -9.651752, "lng": -35.716684}, {"id": "674955649234530013da040d", "name": "JC Veículos (Jatiúca)", "lat": -9.653161, "lng": -35.716416}, {"id": "674955649234530013da040c", "name": "Casa Léa, Jatiúca", "lat": -9.65343, "lng": -35.715177}, {"id": "674955649234530013da040b", "name": "Manoel Sant'anna Imóveis, Jatiúca", "lat": -9.653229, "lng": -35.713935}, {"id": "674955649234530013da0409", "name": "Casas Jardim (Jatiúca)", "lat": -9.653509, "lng": -35.711489}, {"id": "674955649234530013da0403", "name": "Harô Sushi Pajuçara", "lat": -9.670692, "lng": -35.716964}, {"id": "674741c7ee12d8086595bab0", "name": "Coco Mel (Próx ao Marco dos Corais)", "lat": -9.664729, "lng": -35.6970152}, {"id": "674741c7ee12d8086595baa8", "name": "Barraca Praera (Pajuçara)", "lat": -9.663886, "lng": -35.70666}, {"id": "674741c7ee12d8086595baa4", "name": "Subway Pajuçara", "lat": -9.665723873174514, "lng": -35.71088480763136}, {"id": "674741c7ee12d8086595ba9a", "name": "Quadra Prox a Nova Orla", "lat": -9.6737609, "lng": -35.7169091}, {"id": "674741c7ee12d8086595ba98", "name": "Banheiro Público Pajuçara", "lat": -9.66364, "lng": -35.704706}, {"id": "674741c7ee12d8086595ba97", "name": "Ed. Scorpios (Jatiuca)", "lat": -9.6526728, "lng": -35.705265}, {"id": "674741c7ee12d8086595ba96", "name": "Mercadinho Mais Bom (Jatiuca)", "lat": -9.6425261, "lng": -35.7001812}, {"id": "674741c7ee12d8086595ba95", "name": "Ed. Mahatma Gandhi (Jatiuca)", "lat": -9.6401558, "lng": -35.7002566}, {"id": "674741c7ee12d8086595ba8d", "name": "Estatua O Beijo (Lagoa da Anta)", "lat": -9.6431524, "lng": -35.6992347}, {"id": "674741c7ee12d8086595ba8b", "name": "Estácio Jatiuca", "lat": -9.6525039, "lng": -35.7020655}, {"id": "674741c7ee12d8086595ba89", "name": "Núcleo de Reabilitação (Jatiuca)", "lat": -9.6525704, "lng": -35.7032852}, {"id": "674741c7ee12d8086595ba84", "name": "Pizza Fone ", "lat": -9.6525535, "lng": -35.7043125}, {"id": "674741c7ee12d8086595ba82", "name": "Sigma Saude Ocupacional", "lat": -9.6677228, "lng": -35.7155335}, {"id": "674741c7ee12d8086595ba7f", "name": "Ed. Aquabali", "lat": -9.6525628, "lng": -35.7067483}, {"id": "674741c7ee12d8086595ba7c", "name": "Miah Bikini", "lat": -9.6513253, "lng": -35.7067543}, {"id": "674741c7ee12d8086595ba78", "name": "Domino's Pizza (Jatiuca)", "lat": -9.6512086, "lng": -35.7058051}, {"id": "674741c7ee12d8086595ba76", "name": "Breshow (Jatiuca)", "lat": -9.6540846, "lng": -35.7104112}, {"id": "674741c7ee12d8086595ba73", "name": "Mercadinho Pérola", "lat": -9.653983, "lng": -35.7089973}, {"id": "674741c7ee12d8086595ba71", "name": "La Parmegiana", "lat": -9.6512192, "lng": -35.7043695}, {"id": "674741c7ee12d8086595ba70", "name": "Mumbaça", "lat": -9.6540399, "lng": -35.7076089}, {"id": "674741c7ee12d8086595ba6e", "name": "Galeria Jatiuca", "lat": -9.6532393, "lng": -35.7100698}, {"id": "674741c7ee12d8086595ba6d", "name": "Macarronaria Expressa", "lat": -9.6512234, "lng": -35.7035611}, {"id": "674741c7ee12d8086595ba6b", "name": "Innova Educação", "lat": -9.6540617, "lng": -35.7051436}, {"id": "674741c7ee12d8086595ba6a", "name": "Central Plast Jatiuca", "lat": -9.6532635, "lng": -35.7088404}, {"id": "674741c7ee12d8086595ba69", "name": "Hospital Vida", "lat": -9.6539999, "lng": -35.703884}, {"id": "674741c7ee12d8086595ba68", "name": "Alagoana Choparia", "lat": -9.6512426, "lng": -35.7029362}, {"id": "674741c7ee12d8086595ba66", "name": "Felicia Magazine (jatiuca)", "lat": -9.6532651, "lng": -35.7076334}, {"id": "674741c7ee12d8086595ba65", "name": "America Ren Car (jatiuca)", "lat": -9.6540015, "lng": -35.7026197}, {"id": "674741c7ee12d8086595ba61", "name": "Bacio di latte jatiuca", "lat": -9.651073716888085, "lng": -35.7015484571457}, {"id": "674741c7ee12d8086595ba60", "name": "Truck Zone jatiuca", "lat": -9.6517021, "lng": -35.7014137}, {"id": "674741c7ee12d8086595ba5e", "name": "Ed Málaga jatiuca", "lat": -9.6540548, "lng": -35.7014576}, {"id": "674741c7ee12d8086595ba5d", "name": "Ed. Bossa nova jatiuca", "lat": -9.6513775, "lng": -35.700141}, {"id": "674741c7ee12d8086595ba5b", "name": "Pediatria maceió jatiuca", "lat": -9.6533845, "lng": -35.7038984}, {"id": "674741c7ee12d8086595ba56", "name": "Ed Iate jatiuca", "lat": -9.6540759, "lng": -35.6990734}, {"id": "674741c7ee12d8086595ba54", "name": "Ed João Paulo II PV", "lat": -9.6575174, "lng": -35.6985038}, {"id": "674741c7ee12d8086595ba52", "name": "Ed Luca Signorelli PV", "lat": -9.6582091, "lng": -35.7002851}, {"id": "674741c7ee12d8086595ba4f", "name": "Ed Amestita 4 PV (DIÁRIO)", "lat": -9.6582686, "lng": -35.7052623}, {"id": "674741c7ee12d8086595ba4d", "name": "Rest JG pajuçara", "lat": -9.6636558, "lng": -35.7113848}, {"id": "674741c7ee12d8086595ba4b", "name": "Ed Waves PV", "lat": -9.6575557, "lng": -35.7040721}, {"id": "674741c7ee12d8086595ba4a", "name": "Praça Lions PV", "lat": -9.6630671, "lng": -35.7094422}, {"id": "674741c7ee12d8086595ba44", "name": "Ed Ponta Verde", "lat": -9.6558581, "lng": -35.7026928}, {"id": "674741c7ee12d8086595ba41", "name": "Colegio Santa Ursula jatiuca", "lat": -9.653285, "lng": -35.7026505}, {"id": "674741c7ee12d8086595ba3f", "name": "Ed Donatello PV", "lat": -9.658733, "lng": -35.7003089}, {"id": "674741c7ee12d8086595ba3e", "name": "Ed Alvaro Otacilio PV", "lat": -9.6589003, "lng": -35.6985129}, {"id": "674741c7ee12d8086595ba3a", "name": "Bella compra ponta verde", "lat": -9.6588639, "lng": -35.7015532}, {"id": "674741c7ee12d8086595ba39", "name": "Ed Le grand PV", "lat": -9.6589812, "lng": -35.704525}, {"id": "674741c7ee12d8086595ba38", "name": "Ed Morada da praia ", "lat": -9.6587651, "lng": -35.703941}, {"id": "674741c7ee12d8086595ba35", "name": "Hotel Ponta Verde", "lat": -9.661682272558048, "lng": -35.69655688260865}, {"id": "674741c7ee12d8086595ba32", "name": "Palato Café", "lat": -9.6558485, "lng": -35.7052814}, {"id": "674741c7ee12d8086595ba31", "name": "Blockmatcher PV", "lat": -9.6592671, "lng": -35.7107139}, {"id": "674741c7ee12d8086595ba30", "name": "Banco do Brasil PV", "lat": -9.6559143, "lng": -35.7038273}, {"id": "674741c7ee12d8086595ba2e", "name": "Ed Parthenon PV", "lat": -9.6582511, "lng": -35.7063952}, {"id": "674741c7ee12d8086595ba2d", "name": "Banco do Brasil Orla PV", "lat": -9.6598644, "lng": -35.6976559}, {"id": "674741c7ee12d8086595ba28", "name": "Ed Via Castelli PV", "lat": -9.65821839833497, "lng": -35.70744529366494}, {"id": "674741c7ee12d8086595ba27", "name": "Ed Caviuna PV", "lat": -9.6575127, "lng": -35.701579}, {"id": "674741c7ee12d8086595ba25", "name": "Escola SEB PV", "lat": -9.6580954, "lng": -35.7089396}, {"id": "674741c7ee12d8086595ba24", "name": "Ed Patmos jatiuca", "lat": -9.6520478, "lng": -35.6989735}, {"id": "674741c7ee12d8086595ba21", "name": "Mc Dolnalds jatiuca", "lat": -9.6486195, "lng": -35.700266}, {"id": "674741c7ee12d8086595ba20", "name": "Ed Rafaello PV", "lat": -9.656617, "lng": -35.7015585}, {"id": "674741c7ee12d8086595ba1f", "name": "Light Box Crossfit jatiuca", "lat": -9.6583143, "lng": -35.7089514}, {"id": "674741c7ee12d8086595ba1e", "name": "Cantina do mar jatiuca", "lat": -9.6470287, "lng": -35.6998801}, {"id": "674741c7ee12d8086595ba1d", "name": "Ed Coimbra PV", "lat": -9.6589588, "lng": -35.7094814}, {"id": "674741c7ee12d8086595ba1b", "name": "Estatua Ledo Ivo jatiuca", "lat": -9.6446177, "lng": -35.6991177}, {"id": "674741c7ee12d8086595ba1a", "name": "Posto 7", "lat": -9.6437715, "lng": -35.6990349}, {"id": "674741c7ee12d8086595ba19", "name": "Dilab PV", "lat": -9.655721, "lng": -35.7014097}, {"id": "674741c7ee12d8086595ba17", "name": "Ritz Lagoa da Anta Ciclovia", "lat": -9.6395608, "lng": -35.6982973}, {"id": "674741c7ee12d8086595ba15", "name": "Sal e Brasa cruz das almas", "lat": -9.6382019, "lng": -35.6981213}, {"id": "674741c7ee12d8086595ba12", "name": "Praça Ganga Zumba", "lat": -9.6363701, "lng": -35.6979426}, {"id": "674741c7ee12d8086595ba10", "name": "Ed Anthemion PV", "lat": -9.6595312, "lng": -35.7086952}, {"id": "674741c7ee12d8086595ba0c", "name": "Barraca da Morena cruz das almas", "lat": -9.633281393928398, "lng": -35.69693506129432}, {"id": "674741c7ee12d8086595ba0b", "name": "Matsubara hotel cruz das almas", "lat": -9.6309051, "lng": -35.6960456}, {"id": "674741c7ee12d8086595ba0a", "name": "Oral Sim PV", "lat": -9.6622488, "lng": -35.7089286}, {"id": "674741c7ee12d8086595ba07", "name": "Barraca Pernambucana jacarecica", "lat": -9.6245168, "lng": -35.6936832}, {"id": "674741c7ee12d8086595ba04", "name": "Mammoth Store PV", "lat": -9.6600617, "lng": -35.7057803}, {"id": "674741c7ee12d8086595ba01", "name": "Cond. San Lorenzo PV", "lat": -9.6617352, "lng": -35.7069306}, {"id": "674741c7ee12d8086595ba00", "name": "Barraca Amarelinha jacarecica", "lat": -9.6156049, "lng": -35.6884103}, {"id": "674741c7ee12d8086595b9fe", "name": "Torres Imoveis PV", "lat": -9.6600604, "lng": -35.7045529}, {"id": "674741c7ee12d8086595b9fd", "name": "Ed Murano PV", "lat": -9.6553293, "lng": -35.7002895}, {"id": "674741c7ee12d8086595b9fb", "name": "Ed Refuge PV", "lat": -9.6614949, "lng": -35.7063355}, {"id": "674741c7ee12d8086595b9f9", "name": "Centro Médico Santacoop PV", "lat": -9.6606074, "lng": -35.7058769}, {"id": "674741c7ee12d8086595b9f8", "name": "Drogasil praça bom preço PV", "lat": -9.6600188, "lng": -35.7014097}, {"id": "674741c7ee12d8086595b9f6", "name": "Beach Poke PV", "lat": -9.656657, "lng": -35.7002409}, {"id": "674741c7ee12d8086595b9f5", "name": "Ed  São Pedro PV", "lat": -9.6612893, "lng": -35.705321}, {"id": "674741c7ee12d8086595b9f3", "name": "Hotel Intercity PV", "lat": -9.6558489, "lng": -35.700204}, {"id": "674741c7ee12d8086595b9f2", "name": "Praça Vital Barbosa PV", "lat": -9.6595567, "lng": -35.7023974}, {"id": "674741c7ee12d8086595b9ed", "name": "Av. Prof. Vital Barbosa - 979", "lat": -9.6595349, "lng": -35.7015428}, {"id": "674741c7ee12d8086595b9e8", "name": "Petz PV", "lat": -9.6594341, "lng": -35.7003415}, {"id": "674741c7ee12d8086595b9e5", "name": "Ed Valentina Camelo", "lat": -9.6621443, "lng": -35.6987452}, {"id": "674741c7ee12d8086595b9e4", "name": "Ed Sandro Botticelli PV", "lat": -9.660851, "lng": -35.6980804}, {"id": "674741c7ee12d8086595b9e2", "name": "Ed Évora Monte PV", "lat": -9.6628546, "lng": -35.6965381}, {"id": "674741c7ee12d8086595b9e0", "name": "Hotel Acqua Inn PV", "lat": -9.6627426, "lng": -35.6992837}, {"id": "674741c7ee12d8086595b9df", "name": "Barbearia Kingston PV", "lat": -9.6622336, "lng": -35.701749}]}