{"city": "Gramado", "areaId": "670ff541d952fd49918cfa02", "count": 102, "parkings": [{"id": "68efe3c8093d3807e7d0b233", "name": "R. Sen. Salgado Filho, 465 - Centro", "lat": -29.377568, "lng": -50.877106}, {"id": "680731c5be4882d176d13af1", "name": "Poehma Lago Negro", "lat": -29.39538888888889, "lng": -50.87705555555556}, {"id": "67a64911293b2abfe7500ca4", "name": "Conveniência Gela Goela", "lat": -29.37437557993489, "lng": -50.878565315085154}, {"id": "678be3520216036dcf1335b4", "name": "Pousada Cabanas Rota do Sol, n°310", "lat": -29.365222222222222, "lng": -50.86183333333334}, {"id": "678be32d0216036dcf13306b", "name": "Ares da Serra n°214", "lat": -29.384638888888887, "lng": -50.87186111111111}, {"id": "6754555c8367e963580090e5", "name": "Gramado Motor Tech, Avenida das Hortênsias.", "lat": -29.367055555555556, "lng": -50.86047222222222}, {"id": "6754550b8367e96358008b9b", "name": "Ultragás Av das Hortênsias", "lat": -29.365916666666667, "lng": -50.85988888888889}, {"id": "6752b18ae37787b8d550fee5", "name": "Real Wood", "lat": -29.384666666666668, "lng": -50.87136111111111}, {"id": "6752b128e37787b8d550e872", "name": "Academia Ponto do Corpo", "lat": -29.38386111111111, "lng": -50.87122222222222}, {"id": "675290c8e37787b8d545f9f2", "name": "Resolute Imóveis", "lat": -29.38383333333333, "lng": -50.87166666666667}, {"id": "67528fabe37787b8d545a879", "name": "Bazar Ponto Útil", "lat": -29.374944444444445, "lng": -50.882694444444446}, {"id": "67513d26332b2c71b95290c4", "name": "Dia após Dia", "lat": -29.37463888888889, "lng": -50.88063888888889}, {"id": "67513cf9332b2c71b95275ff", "name": "The Petit", "lat": -29.373527777777777, "lng": -50.87994444444445}, {"id": "67513b9d332b2c71b9525480", "name": "Pousada do Mel", "lat": -29.384555555555554, "lng": -50.88038888888889}, {"id": "67513b6e332b2c71b952517f", "name": "Afuzel Pizzaria Artesanal", "lat": -29.37263888888889, "lng": -50.877694444444444}, {"id": "67513b39332b2c71b9524f9d", "name": "Casa do Grostoli", "lat": -29.374305555555555, "lng": -50.884277777777775}, {"id": "674f7130e37787b8d541cf8a", "name": "Hotel Pequeno Bosque", "lat": -29.384166666666665, "lng": -50.880583333333334}, {"id": "674e9975bf6e3c5120e31545", "name": "Confraria Brechó", "lat": -29.37488888888889, "lng": -50.88247222222222}, {"id": "674e9955bf6e3c5120e30528", "name": "Borô Pousada", "lat": -29.367527777777777, "lng": -50.864111111111114}, {"id": "674e992dbf6e3c5120e2f12b", "name": "Amélie Viagens", "lat": -29.373444444444445, "lng": -50.87869444444444}, {"id": "674e9902bf6e3c5120e2e276", "name": "Gráfica Impacto", "lat": -29.372420356701188, "lng": -50.87833195950854}, {"id": "674e940cbf6e3c5120e12f81", "name": "Auto Mecânica Stock Car", "lat": -29.373805555555556, "lng": -50.88377777777778}, {"id": "674e9360bf6e3c5120e0d665", "name": "Anarosa Store", "lat": -29.374730860279108, "lng": -50.87629884611904}, {"id": "674c0e41fb3cccb8321393f0", "name": "Pousada Viena", "lat": -29.376055555555556, "lng": -50.872638888888886}, {"id": "674c0d9ffb3cccb832136327", "name": "Pousada Casa da Colina", "lat": -29.376, "lng": -50.873333333333335}, {"id": "674c0d67fb3cccb8321344f7", "name": "Bella Viena Pousada", "lat": -29.36825, "lng": -50.87894444444444}, {"id": "674c0d24fb3cccb832132e74", "name": "Compulab Informática", "lat": -29.373583333333332, "lng": -50.878166666666665}, {"id": "674c0cf1fb3cccb83212c707", "name": "Fruteira Brombatti", "lat": -29.374244691522655, "lng": -50.87881475530458}, {"id": "674ab2609234530013467380", "name": "Hollywood Dream Cars - Museu do Automóvel", "lat": -29.365555555555556, "lng": -50.859833333333334}, {"id": "674ab2339234530013464e3e", "name": "Solar Viena Pousada", "lat": -29.377388888888888, "lng": -50.87688888888889}, {"id": "674a0e5e903fa21f27052a54", "name": "Rondine Barbearia", "lat": -29.371805555555557, "lng": -50.878416666666666}, {"id": "674a0e2b903fa21f27051f63", "name": "Outlet Posto Avenida Central - Posto Sapatus", "lat": -29.3705, "lng": -50.86275}, {"id": "674a0e10903fa21f27051920", "name": "Studio Hazen Barbera", "lat": -29.36861111111111, "lng": -50.87883333333333}, {"id": "674a0daf903fa21f27050402", "name": "Linda Escova Express", "lat": -29.368944444444445, "lng": -50.87683333333334}, {"id": "674a0d79903fa21f2704f815", "name": "Gramado floricultura", "lat": -29.370621701425502, "lng": -50.87698147066186}, {"id": "6749e87b903fa21f27f5c1e7", "name": "Ita da São Pedro Restaurante", "lat": -29.373472222222222, "lng": -50.878305555555556}, {"id": "6749e857903fa21f27f5a063", "name": "Barbearia com TL bebidas", "lat": -29.37438888888889, "lng": -50.87963888888889}, {"id": "6749e81f903fa21f27f54e64", "name": "Lojas Quero quero 54996290173", "lat": -29.37286111111111, "lng": -50.87836111111111}, {"id": "6749e7fb903fa21f27f54046", "name": "Cris Presentes", "lat": -29.374161714882902, "lng": -50.878397677021724}, {"id": "6749dc48903fa21f27f068da", "name": "Ammo cosméticos", "lat": -29.37688888888889, "lng": -50.87661111111111}, {"id": "6749d78f903fa21f27ed9189", "name": "Hotel Zermat", "lat": -29.384068182184343, "lng": -50.88430523872376}, {"id": "674882ed9234530013a9aef3", "name": "Pensou Imóveis", "lat": -29.389305555555556, "lng": -50.877722222222225}, {"id": "674882ad9234530013a9a783", "name": "Sky Hotel", "lat": -29.386055900246642, "lng": -50.88149629533325}, {"id": "67470727ee12d80865804b17", "name": "Lavanderia Central Gramado", "lat": -29.365250000000003, "lng": -50.86519444444445}, {"id": "674706fbee12d80865804175", "name": "O Mestre Pizzaria", "lat": -29.365972467007747, "lng": -50.859989718043096}, {"id": "674706d3ee12d80865802c65", "name": "Borracharia móvel do Pacheco", "lat": -29.366222222222223, "lng": -50.86138888888889}, {"id": "6746f607ee12d808657969e7", "name": "Hotel Pousada das Flores", "lat": -29.368472222222223, "lng": -50.863416666666666}, {"id": "6746aaef92345300130f7074", "name": "Banca da Floresta", "lat": -29.375611111111112, "lng": -50.882}, {"id": "6746aac392345300130f6bb0", "name": "Café & Mercado Cotidiano", "lat": -29.383444444444443, "lng": -50.87141666666667}, {"id": "6746aa9a92345300130f5df0", "name": "Eternize Gramado Studio", "lat": -29.38347222222222, "lng": -50.8715}, {"id": "674615ed9234530013efcad9", "name": "Restaurante do Paulinho", "lat": -29.373833333333334, "lng": -50.88305555555556}, {"id": "674615c49234530013efc919", "name": "Fruteira Arnold", "lat": -29.375, "lng": -50.88291666666667}, {"id": "6745fb829234530013e51257", "name": "Vitalisa", "lat": -29.374972222222222, "lng": -50.882194444444444}, {"id": "6745fb219234530013e4f5fa", "name": "Restaurante Bella Gramado", "lat": -29.375972222222224, "lng": -50.87927777777778}, {"id": "6745fa829234530013e4a1a2", "name": "AV Informática", "lat": -29.376166666666666, "lng": -50.87872222222222}, {"id": "6745d3939234530013d234ca", "name": "RK Win", "lat": -29.37761111111111, "lng": -50.87716666666667}, {"id": "674563c1ee12d80865fbb833", "name": "Farmácia São João. Av. das Hortênsias, 1038", "lat": -29.383944444444445, "lng": -50.87866666666667}, {"id": "67456305ee12d80865fba911", "name": "Dilene", "lat": -29.385749999999998, "lng": -50.880916666666664}, {"id": "674562ddee12d80865fb65de", "name": "Tomasini", "lat": -29.386555555555557, "lng": -50.88227777777778}, {"id": "674562b0ee12d80865fb63ea", "name": "Frajolo", "lat": -29.38672222222222, "lng": -50.883250000000004}, {"id": "67456232ee12d80865fb582b", "name": "Adega Quinta dos Medeiros", "lat": -29.394333333333332, "lng": -50.87925}, {"id": "674496e5ee12d80865c7bf02", "name": "Hospedagem Vida e Natureza", "lat": -29.3935, "lng": -50.871916666666664}, {"id": "673b81fef8393d3ec75db622", "name": "Gramado Receptivo SKY", "lat": -29.379944444444444, "lng": -50.86961111111111}, {"id": "673b63ddf8393d3ec7521587", "name": "Posto Alfa", "lat": -29.38963888888889, "lng": -50.87430555555556}, {"id": "673b63b0f8393d3ec7520975", "name": "Sky Premium Hotel", "lat": -29.38525, "lng": -50.88002777777778}, {"id": "67345f50ce1d2f566863b3b1", "name": "Sara Gramado", "lat": -29.37538888888889, "lng": -50.87905555555555}, {"id": "672db2cda247edb4c0545691", "name": "St. Gallen Restaurant", "lat": -29.38313888888889, "lng": -50.87847222222222}, {"id": "672c8bac163189be630a5d23", "name": "Posto Shell Frente", "lat": -29.384249999999998, "lng": -50.879}, {"id": "672c8b7f163189be630a4c57", "name": "Posto Shell", "lat": -29.384166666666665, "lng": -50.87894444444444}, {"id": "672c8b52163189be630a3088", "name": "R. Salvador do Sul, 83 - Floresta", "lat": -29.37097222222222, "lng": -50.87983333333333}, {"id": "672c8a96163189be6309dd8c", "name": "Galeto Itália", "lat": -29.38375, "lng": -50.87925}, {"id": "672c8a65163189be6309cca8", "name": "Máximo Economia Farmácia", "lat": -29.375, "lng": -50.877611111111115}, {"id": "672c4f54163189be63eb4afb", "name": "R. Maria de Oliveira, 69-31 - Centro", "lat": -29.375304682143828, "lng": -50.87963283192455}, {"id": "672867185d6a49f3ac85cc16", "name": "Restaurante Sabor da Nonna - Buffet em Gramado", "lat": -29.385583333333333, "lng": -50.88138888888889}, {"id": "672866e55d6a49f3ac85bb3a", "name": "Sabor da Nonna", "lat": -29.385666666666665, "lng": -50.88147222222222}, {"id": "6727c8f3557948c05c5a74fa", "name": "Pousada Vovó Carolina", "lat": -29.38572222222222, "lng": -50.88152777777778}, {"id": "6727c8c5557948c05c5a231f", "name": "Blend", "lat": -29.383694444444444, "lng": -50.878750000000004}, {"id": "6727bdfe557948c05c54f490", "name": "Solar das Hortênsias", "lat": -29.38361111111111, "lng": -50.879194444444444}, {"id": "67278e71557948c05c3b12c0", "name": "Hotel Pousada Kaster", "lat": -29.38497222222222, "lng": -50.87961111111111}, {"id": "67278d47557948c05c3a9d0a", "name": "R. João Leopoldo Lied, 478 - Ipê Amarelo", "lat": -29.393722222222223, "lng": -50.879666666666665}, {"id": "67278b42557948c05c38c708", "name": "Serra Grill", "lat": -29.377055555555557, "lng": -50.87661111111111}, {"id": "67278a33557948c05c3780ff", "name": "Escola Dominio - Av. das Hortênsias, 1141 - Centro", "lat": -29.38277777777778, "lng": -50.87869444444444}, {"id": "672789c5557948c05c373feb", "name": "Casa Terralta", "lat": -29.388916666666667, "lng": -50.88041666666667}, {"id": "67272010ec63fff7eed48aa1", "name": "Mestre Cuca", "lat": -29.384638888888887, "lng": -50.87983333333333}, {"id": "6725b177557948c05c6078a7", "name": "Gás R. Bazei", "lat": -29.36986111111111, "lng": -50.87705555555556}, {"id": "67252194e2197c26b07ef11b", "name": "Urso de Pijama", "lat": -29.37661111111111, "lng": -50.87661111111111}, {"id": "6724b056e2197c26b0352182", "name": "Refrigeração Gramado", "lat": -29.384805555555555, "lng": -50.88019444444444}, {"id": "6724afd5e2197c26b0349b7c", "name": "Feito Em Gramado", "lat": -29.38597222222222, "lng": -50.881277777777775}, {"id": "6724af8ce2197c26b03483fd", "name": "Hotel Laken", "lat": -29.38661075849004, "lng": -50.877551900910134}, {"id": "6721b9d1557948c05c7c88de", "name": "Master Gramado", "lat": -29.386777777777777, "lng": -50.87280555555556}, {"id": "671a661b315c8e771f934ddc", "name": "R. do Artesanato - C A I C, Gramado - RS, 95670-000", "lat": -29.36786111111111, "lng": -50.87869444444444}, {"id": "67178a34eb73ce1237f076ae", "name": "Farmácia São João - R. São Pedro, 810 - Loja 01 - Centro", "lat": -29.37500196016097, "lng": -50.877453929251914}, {"id": "671359be7c564af57517b45d", "name": "Rissul - Av. Borges de Medeiros, 3994 - Centro", "lat": -29.368000000000002, "lng": -50.87802777777778}, {"id": "6711fdb78361eb44a964984d", "name": " CFC MODELO - R. Garibaldi, 780 - Centro", "lat": -29.3755, "lng": -50.874027777777776}, {"id": "6711fb208361eb44a963551f", "name": "R. Ernesto Volk, 262 - Centro", "lat": -29.376527777777778, "lng": -50.87855555555556}, {"id": "671008efd952fd4991985740", "name": "Tudo Saudável - R. São Pedro, 16 - Vila Suica", "lat": -29.3749351, "lng": -50.8776617}, {"id": "671008efd952fd499198573f", "name": "Padaria Da Várzea - R. Amélia Boelter, 15 - Floresta", "lat": -29.3744156, "lng": -50.8810802}, {"id": "671008efd952fd499198573d", "name": "Hotel Daara Gramado - Av. Borges de Medeiros, 4165 - Floresta", "lat": -29.3686816, "lng": -50.8792043}, {"id": "671008efd952fd4991985730", "name": "Restaurante Edelweiss - R. João Leopoldo Lied, 975 - Casa Grande", "lat": -29.39699, "lng": -50.876835}, {"id": "671008efd952fd499198572f", "name": "R. Casa da Juventude, 474 - Ipê Amarelo", "lat": -29.394333, "lng": -50.8783071}, {"id": "671008efd952fd4991985725", "name": "Telephonica Gramado - R. São Pedro - Centro", "lat": -29.3742298, "lng": -50.8779112}, {"id": "671008efd952fd4991985724", "name": "Parada 50 - R. São Pedro, 532 - Centro", "lat": -29.3772756, "lng": -50.8760886}]}