{"city": "Salvador", "areaId": "6763d2ab7e6826ba04f4cafa", "count": 429, "source": "gojet-managers-map", "parkings": [{"id": "6a387d69800002b2bdbe8af2", "name": "Ponto de Onibus Vicente Batalha", "lat": -12.997495, "lng": -38.447141}, {"id": "6a039f1cd971cc76152b1a99", "name": "PizzaHut - Pituba", "lat": -12.990519, "lng": -38.453517}, {"id": "6a039ef6736969dc5c36c9cb", "name": "PizzaHut - Pituba", "lat": -12.990519, "lng": -38.453517}, {"id": "69ed658d1a7ae509befd7e89", "name": "Base", "lat": -13.003198, "lng": -38.453839}, {"id": "69e641471160ff7e7ffc2d5d", "name": "Salvador Beach Club", "lat": -12.966162, "lng": -38.404403}, {"id": "69e1ddf9f9424b3091409726", "name": "Largo do Papagaio IV", "lat": -12.923365, "lng": -38.502714}, {"id": "69e1ddc0f9424b30913fd794", "name": "Largo do Papagaio III", "lat": -12.92277, "lng": -38.503091}, {"id": "69e1dd89f9424b30913f46e7", "name": "Largo do Papagaio II", "lat": -12.921984, "lng": -38.502708}, {"id": "69ddd1dd5b429369767c6dff", "name": "Lumno Greenville", "lat": -12.948416, "lng": -38.404969}, {"id": "69c58f54c86966f537bae226", "name": "Itapuã - Rua da Poesia", "lat": -12.954249, "lng": -38.359781}, {"id": "69c58f54c86966f537bae225", "name": "Ponta de Oxumarê", "lat": -12.9554798, "lng": -38.3584988}, {"id": "69c58f54c86966f537bae224", "name": "Praia das Bolas Itapuã", "lat": -12.9558128, "lng": -38.3579224}, {"id": "69c58f54c86966f537bae223", "name": "Barraca de Praia de Yayá", "lat": -12.9562427, "lng": -38.3560181}, {"id": "69c58f54c86966f537bae222", "name": "Farol de Itapuã", "lat": -12.956444, "lng": -38.3545107}, {"id": "69c58170c86966f537a1101b", "name": "R. Prof Souza Brito, Ponto de Onibus", "lat": -12.952318, "lng": -38.36056}, {"id": "69c58170c86966f537a1101a", "name": "R. Prof Souza Brito", "lat": -12.951634, "lng": -38.361756}, {"id": "69c58170c86966f537a11018", "name": "Condomínio Vila Flamengo", "lat": -12.9284986, "lng": -38.3199745}, {"id": "69c58170c86966f537a11017", "name": "Rua Thales de Azevedo, quadra 26 - lote 01", "lat": -12.9262063, "lng": -38.3175656}, {"id": "69c58170c86966f537a11016", "name": "Condomínio Caminho das Águas", "lat": -12.918487, "lng": -38.317278}, {"id": "69c58170c86966f537a11015", "name": "Rua Copacabana 58, Salvador - Bahia,, Brasil", "lat": -12.9194605, "lng": -38.3160723}, {"id": "69c58170c86966f537a11014", "name": "Posto P5", "lat": -12.923239, "lng": -38.321769}, {"id": "69c58170c86966f537a11013", "name": "Praia de Ipitanga", "lat": -12.9222473, "lng": -38.3138155}, {"id": "69c58170c86966f537a11011", "name": "Escadaria da Praia do Flamengo", "lat": -12.9230313, "lng": -38.3146088}, {"id": "69c58170c86966f537a11010", "name": "Estacionamento Público (Aceita MH)", "lat": -12.9247763, "lng": -38.3159368}, {"id": "69c58170c86966f537a1100f", "name": "Praça Bruno e Dom", "lat": -12.930361, "lng": -38.323549}, {"id": "69c58170c86966f537a1100e", "name": "Orla da Praia do Flamengo", "lat": -12.9267108, "lng": -38.3170717}, {"id": "69c58170c86966f537a1100d", "name": "Barraca do Rachide", "lat": -12.9292404, "lng": -38.3195015}, {"id": "69c58170c86966f537a1100b", "name": "R. Prof. Antônio Augusto Machado, 382-10 - Stella Maris", "lat": -12.9312596, "lng": -38.322071}, {"id": "69c58170c86966f537a1100a", "name": "CONDOMÍNIO VILLAGE MEDITERRANE", "lat": -12.9339741, "lng": -38.3253624}, {"id": "69c58170c86966f537a11000", "name": "ilha de Pharos", "lat": -12.94864, "lng": -38.3448748}, {"id": "69c58170c86966f537a10ffe", "name": "Condomínio Pedra do Sal Residências", "lat": -12.9499336, "lng": -38.3472848}, {"id": "69c58170c86966f537a10ffd", "name": "Rua General Severino Filho 112", "lat": -12.9527868, "lng": -38.3513986}, {"id": "69c58170c86966f537a10ffc", "name": "Praia Itapuã", "lat": -12.9547933, "lng": -38.3515743}, {"id": "69c58170c86966f537a10fee", "name": "Cabana do Mano", "lat": -12.9556242, "lng": -38.35261}, {"id": "69c17db75f734148c6876bbf", "name": "Edf. Palm Spring", "lat": -13.001883, "lng": -38.464958}, {"id": "69a4f96e872fc099a4336366", "name": "Largo do Papagaio I", "lat": -12.9222385, "lng": -38.5020546}, {"id": "698dd68abb52e8c10cae4741", "name": "Estacionamento temporary", "lat": -13.010942864899546, "lng": -38.496174645684135}, {"id": "698b753f7354048c735ed351", "name": "Comercial 3Hammer Jaguaripe", "lat": -12.957374, "lng": -38.393031}, {"id": "69851f5bcd461f32b8b45fce", "name": "Hotel marano", "lat": -13.0044163, "lng": -38.4542308}, {"id": "69851f44cd461f32b8b45648", "name": "Guapo", "lat": -13.005397, "lng": -38.5267537}, {"id": "69851f31cd461f32b8b450b6", "name": "Marques casa", "lat": -13.0073714, "lng": -38.5265633}, {"id": "69851f06cd461f32b8b44346", "name": "Barra mercearia 1", "lat": -13.0088754, "lng": -38.5303751}, {"id": "6984a00d1f7248f904aec863", "name": "temporário para evento", "lat": -13.004361, "lng": -38.454194}, {"id": "697e3f3e22179a57e0c8a374", "name": "01", "lat": -13.0130911, "lng": -38.485674}, {"id": "69631e22f221e4ade210f17e", "name": "FISK - Bonfim", "lat": -12.929821, "lng": -38.507469}, {"id": "69631df9f221e4ade210ea83", "name": "SENAI Dendenzeiros", "lat": -12.932088, "lng": -38.507143}, {"id": "69631dd3f221e4ade210e26a", "name": "Muro Irmã Dulce", "lat": -12.933558, "lng": -38.506961}, {"id": "69631dabf221e4ade210da1d", "name": "Atakarejo, Caminho de Areia", "lat": -12.931328, "lng": -38.504425}, {"id": "69631d86f221e4ade210d440", "name": "Abará do Chefia - Ribeira", "lat": -12.928404, "lng": -38.506395}, {"id": "69631d51f221e4ade210c9af", "name": "Praça dos Dendenzeiros - Ribeira", "lat": -12.928265, "lng": -38.507548}, {"id": "69631d28f221e4ade210c30a", "name": "Praça Luiz Tarquinio - Boa Viagem", "lat": -12.932742, "lng": -38.510754}, {"id": "69631d08f221e4ade210bbf5", "name": "Quiosque dos Paulistas - Boa Viagem", "lat": -12.931937, "lng": -38.513857}, {"id": "69631cd7f221e4ade210b367", "name": "Praça das APAs - Boa Viagem", "lat": -12.929684, "lng": -38.516736}, {"id": "69631c99f221e4ade210a73e", "name": "Colégio São José - Bonfim", "lat": -12.926795, "lng": -38.508831}, {"id": "69631c5af221e4ade2109aed", "name": "Pizzaria Especial - Ribeira", "lat": -12.925487, "lng": -38.502875}, {"id": "69631c2bf221e4ade2108f22", "name": "Baia Vela e Mar - Bomfim", "lat": -12.922167, "lng": -38.510311}, {"id": "69631bf9f221e4ade2105f98", "name": "Praça Pedra Furada - Bomfim", "lat": -12.92309, "lng": -38.513658}, {"id": "69631bc2f221e4ade21017b2", "name": "Campo do Bonfim – Ribeira", "lat": -12.922206, "lng": -38.509114}, {"id": "69631b88f221e4ade21005d0", "name": "Largo do Bonfim - Ribeira", "lat": -12.923789, "lng": -38.507862}, {"id": "6962657c725a2b8f28215e64", "name": "Shopping da Bahia", "lat": -12.982624, "lng": -38.464432}, {"id": "69626475725a2b8f28204f07", "name": "Ed Verede do Bonfim - Bonfim", "lat": -12.923489, "lng": -38.505365}, {"id": "69626475725a2b8f28204f06", "name": "Morro do Gato", "lat": -13.006295, "lng": -38.519646}, {"id": "69626475725a2b8f28204f05", "name": "MaterDei", "lat": -13.007305, "lng": -38.492817}, {"id": "69626475725a2b8f28204f04", "name": "Blue Praia Bar", "lat": -13.013837, "lng": -38.482316}, {"id": "69626475725a2b8f28204f03", "name": "AMO – Rio Vermelho", "lat": -13.012418, "lng": -38.49058}, {"id": "69626475725a2b8f28204f02", "name": "Ana Lucia 2", "lat": -12.994403, "lng": -38.45972}, {"id": "69626475725a2b8f28204f01", "name": "Loja do Bahia - Pituba", "lat": -12.990502, "lng": -38.454933}, {"id": "69626475725a2b8f28204f00", "name": "R. Wanderley Pinho", "lat": -12.992844, "lng": -38.465343}, {"id": "69626475725a2b8f28204eff", "name": "Rua Oswaldo Valente", "lat": -12.992516, "lng": -38.465637}, {"id": "69626475725a2b8f28204efe", "name": "Ponto de Ônibus - Coxinha do Gago", "lat": -12.983352, "lng": -38.450529}, {"id": "693046a96850ed9bec46efe3", "name": "Maná", "lat": -13.0048145, "lng": -38.5333121}, {"id": "692f60db9305057d0600e959", "name": "Ed Sabre", "lat": -12.993486, "lng": -38.445291}, {"id": "6928ab9dc42e59961c4cec43", "name": "Beira Mar - Bonfim", "lat": -12.921856, "lng": -38.504236}, {"id": "691672b85f7a45854c147757", "name": "Status - Ribeira", "lat": -12.924138888888889, "lng": -38.507}, {"id": "691672a35f7a45854c14706b", "name": "Largo da Baixa do Bonfim - Ribeira", "lat": -12.924527777777778, "lng": -38.50763888888889}, {"id": "6916728f5f7a45854c146bc6", "name": "Praça Av Beira Mar - Ribeira", "lat": -12.921944444444444, "lng": -38.50675}, {"id": "6916726b5f7a45854c146380", "name": "Smart Fit - Ribeira", "lat": -12.922055555555556, "lng": -38.50172222222222}, {"id": "691672575f7a45854c145d0c", "name": "Shopping Gold Center - Ribeira", "lat": -12.921194444444444, "lng": -38.501305555555554}, {"id": "6916723d5f7a45854c1456bb", "name": "SESI Casa Branca - Ribeira", "lat": -12.924083333333332, "lng": -38.5025}, {"id": "691671c15f7a45854c1431ac", "name": "Biblioteca Edgar Santos - Ribeira", "lat": -12.918249999999999, "lng": -38.49938888888889}, {"id": "691671a85f7a45854c142ba8", "name": "Largo da Madra Goa - Ribeira", "lat": -12.917277777777777, "lng": -38.49872222222222}, {"id": "691671925f7a45854c1424b7", "name": "Ponto de Ônibus, Av Porto dos Mastros", "lat": -12.916660854974227, "lng": -38.495957627893496}, {"id": "6916717a5f7a45854c141ddc", "name": "Ponto de Ônibus, R. Porto dos Tainheiros - Ribeira", "lat": -12.915944444444445, "lng": -38.49386111111111}, {"id": "691671625f7a45854c1416cb", "name": "Ponto de Ônibus, PIER - Ribeira", "lat": -12.914, "lng": -38.49216666666667}, {"id": "6916714e5f7a45854c140e8c", "name": "Angra dos Veleiros - Ribeira", "lat": -12.912861111111111, "lng": -38.49205555555556}, {"id": "691671395f7a45854c1406d5", "name": "Barco Marboline - Ribeira", "lat": -12.912472222222222, "lng": -38.49330555555556}, {"id": "691671255f7a45854c140054", "name": "Ponto Sorvete - Ribeira", "lat": -12.912361111111112, "lng": -38.49461111111111}, {"id": "691670fb5f7a45854c13eff9", "name": "Samba de Caboclo - Ribeira", "lat": -12.911388888888888, "lng": -38.49536111111111}, {"id": "691670e65f7a45854c13e7e7", "name": "Marina da Penha - Ribeira", "lat": -12.909916666666668, "lng": -38.495222222222225}, {"id": "6916708f5f7a45854c13c7e1", "name": "Igreja da Penha - Ribeira", "lat": -12.909555555555556, "lng": -38.496694444444444}, {"id": "6916707c5f7a45854c13be3e", "name": "Encontro com o Mar - Ribeira", "lat": -12.911111111111111, "lng": -38.497083333333336}, {"id": "691670655f7a45854c13b5f6", "name": "Colégio Polícia Militar - Ribeira", "lat": -12.911972222222223, "lng": -38.49722222222222}, {"id": "6916704b5f7a45854c13aca3", "name": "Cabana do Bogary - Ribeira", "lat": -12.912944444444445, "lng": -38.49777777777778}, {"id": "69166fd35f7a45854c138c65", "name": "Pôr do Sol - Ribeira", "lat": -12.914472222222223, "lng": -38.498472222222226}, {"id": "69166f975f7a45854c137909", "name": "Debby Festas - Ribeira", "lat": -12.915555555555557, "lng": -38.49905555555556}, {"id": "69166dd9fb30372d2c0c9eae", "name": "R. Beiramar I - Ribeira", "lat": -12.916792, "lng": -38.499897}, {"id": "6906efff374e010f917e5977", "name": "Praça Tarumã II", "lat": -12.987172, "lng": -38.460452}, {"id": "68f2a335b3522f1ebf6bd7f5", "name": "Praça Rio Vermelho", "lat": -13.0103559, "lng": -38.4899357}, {"id": "68f2a300b3522f1ebf6ba8a9", "name": "Lanchonete & Livraria Shalom", "lat": -13.0104836, "lng": -38.4906898}, {"id": "68f2998db3522f1ebf51ecb5", "name": "R. Potiguares", "lat": -13.0113535, "lng": -38.4891619}, {"id": "68f28a74b3522f1ebf212214", "name": "Praça Rua do Benjoim", "lat": -12.987275, "lng": -38.458921}, {"id": "68f28a37b3522f1ebf202bf8", "name": "Empresarial Thomé de Souza", "lat": -12.988084, "lng": -38.467217}, {"id": "68e961d5ad3f09a2bb51cf06", "name": "​Orla de Pituaçu II​", "lat": -12.972966, "lng": -38.415059}, {"id": "68e6ce957722d616c66fd5c4", "name": "Residencial Jardim Piatã II", "lat": -12.953238, "lng": -38.38736}, {"id": "68e6ce6d7722d616c66fbcd2", "name": "Residencial Jardim Piatã I", "lat": -12.954269, "lng": -38.392232}, {"id": "68e44e8aee5841059705cb5c", "name": "UNIFTC - SALVADOR", "lat": -12.934109, "lng": -38.392962}, {"id": "68d16b99ff4bfe9d9c719547", "name": "Ponto de Ônibus Hiperideal - Orlando Gomes.", "lat": -12.9369895, "lng": -38.3853333}, {"id": "68d16b7fff4bfe9d9c70a2af", "name": "ADELBA", "lat": -12.9425049, "lng": -38.3942459}, {"id": "68d16b63ff4bfe9d9c6ff7d1", "name": "P o n t o d e Ô nib u s C o s t a Ve r d e", "lat": -12.9522238, "lng": -38.3851757}, {"id": "68d16b45ff4bfe9d9c6f72b8", "name": "Av. Orlando Gomes", "lat": -12.9474941, "lng": -38.3841337}, {"id": "68d16b20ff4bfe9d9c6f0cd8", "name": "Crossfit - Orlando Gomes", "lat": -12.9435113, "lng": -38.3852334}, {"id": "68d16ae5ff4bfe9d9c6e0b6c", "name": "Alpha Fitness - Orlando Gomes", "lat": -12.942715, "lng": -38.3854821}, {"id": "68d16ac8ff4bfe9d9c6d9737", "name": "SESI – Orlando Gomes.", "lat": -12.9405035, "lng": -38.3866063}, {"id": "68d16aa6ff4bfe9d9c6d61ec", "name": "Ponto de Ônibus - SESI Orlando Gomes.", "lat": -12.9398284, "lng": -38.386226}, {"id": "68d16a7cff4bfe9d9c6cbd54", "name": "Shopping Paralela - Estacionamento", "lat": -12.9360494, "lng": -38.3940863}, {"id": "68caf0b134198551a351ab75", "name": "Morro do Cristo", "lat": -13.010198739993323, "lng": -38.5236668586731}, {"id": "68caf09534198551a35185d3", "name": "Hotel de Trânsito da Marinha", "lat": -13.007881988430377, "lng": -38.532499372959144}, {"id": "68caf07634198551a3515e57", "name": "Hospital 2 de Julho", "lat": -13.006387129911365, "lng": -38.532924503088005}, {"id": "68caf05334198551a3513fb7", "name": "Barra Vento", "lat": -13.0093991, "lng": -38.5257513}, {"id": "68caf03134198551a351112c", "name": "Farol da Barra", "lat": -13.0099564, "lng": -38.531862}, {"id": "68caefbacb3c1e94328a256c", "name": "Casa de artesanato", "lat": -13.002911287691326, "lng": -38.53242829442025}, {"id": "6898914b1a7e45b38157be64", "name": "Aldeia de Jaguaribe.", "lat": -12.951638888888889, "lng": -38.38927777777778}, {"id": "6897c18e1a7e45b38198a5ba", "name": "R. dos Flamingos - Piatã, Salvador - BA, 41650-515", "lat": -12.9514007, "lng": -38.3861061}, {"id": "6897c13b1a7e45b38197231d", "name": "Alameda das Samambaias, 541-513 - Piatã", "lat": -12.9465351, "lng": -38.3921732}, {"id": "6897c0e71a7e45b38195ca39", "name": "Alameda das Samambaias, 375 - Jaguaribe, Salvador - BA, 41650-230", "lat": -12.9499895, "lng": -38.3924052}, {"id": "68940119616811f97afd7b13", "name": "Bahia Cocos", "lat": -12.974972222222222, "lng": -38.42008333333333}, {"id": "688ad1e0b833a0c3f1932c2d", "name": "Ponto de Onibus Tancredo Neves", "lat": -12.982662850466898, "lng": -38.45465630293726}, {"id": "687a4217490adceb7c32be36", "name": "Cond Art Residence", "lat": -12.950305555555556, "lng": -38.38905555555556}, {"id": "68718ba23b4c1ac2e54a1c07", "name": "Soverteria Gelato Borelli", "lat": -12.990138888888888, "lng": -38.45702777777778}, {"id": "686e8afc910a91b8d5bd7dc6", "name": "Edificio Glaucia Regina", "lat": -12.9887382, "lng": -38.4472832}, {"id": "686e8afc910a91b8d5bd7dc4", "name": "Hamburgueria - Costa Azul", "lat": -12.992729141869388, "lng": -38.44536781311036}, {"id": "686e8afc910a91b8d5bd7dc3", "name": "Praiana", "lat": -12.992439, "lng": -38.440065}, {"id": "686e8afc910a91b8d5bd7dc2", "name": "R. Melvin Jones", "lat": -12.985867, "lng": -38.436568}, {"id": "686e8afc910a91b8d5bd7dc1", "name": "Parque Residencial dos condomínios", "lat": -13.000615, "lng": -38.465815}, {"id": "686e8afc910a91b8d5bd7dc0", "name": "Praça Miguel Argemiro", "lat": -12.999226, "lng": -38.466478}, {"id": "686e8afc910a91b8d5bd7dbf", "name": "Vila Inglesa", "lat": -13.00086, "lng": -38.464556}, {"id": "686e8afc910a91b8d5bd7dbe", "name": "Instituto De Habilidades", "lat": -13.000408, "lng": -38.464041}, {"id": "686e8afc910a91b8d5bd7dbd", "name": "Praça Marcelo Caribé", "lat": -13.00315, "lng": -38.462526}, {"id": "686e8afc910a91b8d5bd7dbc", "name": "Ed. Mansão Catânia 181", "lat": -12.999697, "lng": -38.464743}, {"id": "686e8afc910a91b8d5bd7dbb", "name": "Mc Donalds Jaguaribe", "lat": -12.960557, "lng": -38.397278}, {"id": "686e8afc910a91b8d5bd7dba", "name": "Praça do Budião", "lat": -13.014276, "lng": -38.470347}, {"id": "686e8afc910a91b8d5bd7db8", "name": "Pracinha do alto", "lat": -12.9939023, "lng": -38.4740788}, {"id": "686e8afc910a91b8d5bd7db7", "name": "Pracinha Santa Teresa de Lisieux", "lat": -12.9927001, "lng": -38.4730827}, {"id": "686e82370b355903adb00610", "name": "Condominio Hemisphere 360", "lat": -12.966972222222223, "lng": -38.41011111111111}, {"id": "686e821b0b355903adaf96fe", "name": "Mr Carangueijo", "lat": -12.96786111111111, "lng": -38.40822222222222}, {"id": "686e81fd0b355903adaf425c", "name": "Praça Segredos de Itapuã", "lat": -12.950694444444444, "lng": -38.37838888888889}, {"id": "686e81d30b355903adaea027", "name": "Drogasil Piatã", "lat": -12.952385866436947, "lng": -38.37807387113651}, {"id": "686cb804087ea6341ae55c1b", "name": "Edifício Palácio Itaigara, 341", "lat": -12.992965, "lng": -38.471973}, {"id": "686cb804087ea6341ae55c1a", "name": "R. Luís Portela da Silva, 628", "lat": -12.9917569, "lng": -38.4696012}, {"id": "686cb804087ea6341ae55c19", "name": "R. João da Silva Campos 3", "lat": -12.9949572, "lng": -38.4692968}, {"id": "686cb804087ea6341ae55c18", "name": "R. Profa. Zahidé Machado Neto", "lat": -12.9940888, "lng": -38.4670183}, {"id": "686cb804087ea6341ae55c17", "name": "R. João Dorea Gomes", "lat": -12.9914086, "lng": -38.4635579}, {"id": "686cb804087ea6341ae55c15", "name": "Praça Professor Pedro Calmon 1", "lat": -12.984052, "lng": -38.4569325}, {"id": "686cb804087ea6341ae55c14", "name": "Alameda dos Sombreiros 2", "lat": -12.9838103, "lng": -38.4554274}, {"id": "686cb804087ea6341ae55c13", "name": "Ed. Mon Jardim", "lat": -12.9872769, "lng": -38.4548843}, {"id": "686cb804087ea6341ae55c10", "name": "Torre América 1057", "lat": -12.9778733, "lng": -38.4573885}, {"id": "686cb804087ea6341ae55c0f", "name": "Shopping Salvador Business", "lat": -12.9768579, "lng": -38.456786}, {"id": "686cb804087ea6341ae55c0e", "name": "Metrô Pernambués", "lat": -12.976089479921683, "lng": -38.45780789852142}, {"id": "6867de9814065782ff1ba388", "name": "Farmacia Redefarma Bahia", "lat": -12.953055555555554, "lng": -38.37905555555555}, {"id": "683f310de37ea019ca29fae2", "name": "Barraca da Danny", "lat": -12.958722222222221, "lng": -38.39213888888889}, {"id": "683f30bbe37ea019ca25b939", "name": "Cond. Premiere Jaguaripe", "lat": -12.958194444444445, "lng": -38.393166666666666}, {"id": "683f3096e37ea019ca257f33", "name": "Salvamar", "lat": -12.964666666666666, "lng": -38.402055555555556}, {"id": "683f306fe37ea019ca24cdbd", "name": "Praça Alfred Nobel III", "lat": -12.991638888888888, "lng": -38.46138888888889}, {"id": "683f303ae37ea019ca236fc3", "name": "R. Ranulfo Oliveira", "lat": -13.00538888888889, "lng": -38.516194444444444}, {"id": "683f3014e37ea019ca220707", "name": "Drogarias Ultra Popular", "lat": -13.004194444444444, "lng": -38.518055555555556}, {"id": "683f2fe5e37ea019ca1fd447", "name": "Praça Manoel Dias de Moraes", "lat": -13.004583333333333, "lng": -38.51691666666667}, {"id": "683f2fb5e37ea019ca1e595c", "name": "ED. Pablo Casals", "lat": -13.006583333333333, "lng": -38.51775}, {"id": "683f2f3de37ea019ca1aa16f", "name": "Ed. Vilmar", "lat": -13.008055555555556, "lng": -38.51702777777778}, {"id": "683f2f00e37ea019ca183dbf", "name": "Pastel do Cosme", "lat": -13.004222222222221, "lng": -38.53216666666667}, {"id": "683f2ed2e37ea019ca16e4a9", "name": "Servi center", "lat": -12.998444444444443, "lng": -38.462361111111115}, {"id": "683f2ea0e37ea019ca15691c", "name": "Ponto de ônibus centenário", "lat": -13.000861111111112, "lng": -38.51830555555556}, {"id": "683f2e54e37ea019ca134090", "name": "Praça Oscar Hilário", "lat": -13.00313888888889, "lng": -38.52163888888889}, {"id": "683f2e16e37ea019ca11c14c", "name": "Escola Nosso Mundo", "lat": -12.994805555555555, "lng": -38.51744444444444}, {"id": "683c58f98f471529b4c42e8c", "name": "Escola nova nossa infância", "lat": -12.9879636, "lng": -38.4527647}, {"id": "683c58f98f471529b4c42e89", "name": "Rua das Rosas II", "lat": -12.9907301, "lng": -38.4579296}, {"id": "683c58f98f471529b4c42e88", "name": "Rua das Rosas I", "lat": -12.9908523, "lng": -38.4563535}, {"id": "683c58f98f471529b4c42e87", "name": "Influx Ingles e espanhol", "lat": -12.9929085, "lng": -38.4533175}, {"id": "683c58f98f471529b4c42e86", "name": "Praça igaratinha", "lat": -13.0046704, "lng": -38.462723}, {"id": "683c58f98f471529b4c42e85", "name": "R. Geraldo Antônio", "lat": -12.998109, "lng": -38.459485}, {"id": "683c58f98f471529b4c42e83", "name": "Centro médico Garibaldi", "lat": -13.002239, "lng": -38.503498}, {"id": "683c58f98f471529b4c42e82", "name": "Hospital Rede D'Or Garibaldi", "lat": -13.006617, "lng": -38.500402}, {"id": "683c58f98f471529b4c42e81", "name": "Colégio Evaristo da Veiga", "lat": -13.005568, "lng": -38.502678}, {"id": "683c58f98f471529b4c42e7f", "name": "H2i - Costa Azul", "lat": -12.998823844017188, "lng": -38.44999998807908}, {"id": "683c58f98f471529b4c42e7e", "name": "Anchietinha", "lat": -12.989103, "lng": -38.452913}, {"id": "683c58f98f471529b4c42e7d", "name": "Banca Mouraria", "lat": -12.985453, "lng": -38.44871}, {"id": "683c58f98f471529b4c42e7c", "name": "R. Dr. João Mendes da Costa Filho", "lat": -12.9927409, "lng": -38.4420603}, {"id": "683c58f98f471529b4c42e7a", "name": "Chaveiro Alameda Florença", "lat": -13.001421, "lng": -38.461551}, {"id": "683c58f98f471529b4c42e79", "name": "Praça Nossa Senhora da Assunção II", "lat": -12.991626, "lng": -38.458944}, {"id": "683c58f98f471529b4c42e77", "name": "Rua da Alfazema II", "lat": -12.9850223, "lng": -38.4636316}, {"id": "6837fc3dd3741cfc7890abd2", "name": "Rua da Alfazema I", "lat": -12.9866166, "lng": -38.4637181}, {"id": "6837fc3dd3741cfc7890abd0", "name": "Pilates", "lat": -13.01039474167063, "lng": -38.51102694869042}, {"id": "6837fc3dd3741cfc7890abcf", "name": "Burger King Manoel Dias da Silva", "lat": -13.00561, "lng": -38.459828}, {"id": "6837fc3dd3741cfc7890abce", "name": "Museu Geológico", "lat": -12.99257232993756, "lng": -38.525598049170604}, {"id": "6837fc3dd3741cfc7890abcd", "name": "Praça Afonso Ruy de Souza", "lat": -12.992292, "lng": -38.468384}, {"id": "6837fc3dd3741cfc7890abcc", "name": "Arena Aquatica - Deck", "lat": -13.006367, "lng": -38.454888}, {"id": "6837fc3dd3741cfc7890abcb", "name": "Praça Poetisa", "lat": -12.996763, "lng": -38.461946}, {"id": "6837fc3dd3741cfc7890abca", "name": "Rua Bahia", "lat": -13.004704, "lng": -38.455151}, {"id": "6837fc3dd3741cfc7890abc9", "name": "APAE - LABORATORIO", "lat": -13.001428, "lng": -38.459608}, {"id": "6837fc3dd3741cfc7890abc8", "name": "Parque Costa Azul", "lat": -12.997765, "lng": -38.445379}, {"id": "6837fc3dd3741cfc7890abc7", "name": "Gurilandia II", "lat": -12.993674, "lng": -38.448794}, {"id": "6837fc3dd3741cfc7890abc4", "name": "Hiperideal Pinto de Aguiar", "lat": -12.9622188, "lng": -38.4034392}, {"id": "6837fc3dd3741cfc7890abc3", "name": "Cond. Bosque Patamares", "lat": -12.9588678, "lng": -38.4076224}, {"id": "683478949d6cce8107d19293", "name": "Avenida Sete de Setembro, 1883", "lat": -12.990207035072153, "lng": -38.524408489483186}, {"id": "683478629d6cce8107d08f62", "name": "Praça Maria Nurse", "lat": -12.960444444444443, "lng": -38.40233333333333}, {"id": "6834780c9d6cce8107ce88d8", "name": "Residencial Altavista", "lat": -12.960305555555555, "lng": -38.40597222222222}, {"id": "683477b79d6cce8107ccc094", "name": "Rua Bicuíba, 890", "lat": -12.959472222222221, "lng": -38.406388888888884}, {"id": "683477889d6cce8107cb08a9", "name": "Platno GreenVille", "lat": -12.95200814858868, "lng": -38.40561881661416}, {"id": "683477539d6cce8107c94333", "name": "GreenVille Praça 1", "lat": -12.951333333333332, "lng": -38.40625}, {"id": "683477269d6cce8107c87601", "name": "ATMOS GreenVille", "lat": -12.949833333333334, "lng": -38.40702777777778}, {"id": "683476cb9d6cce8107c714c8", "name": "Ponto de Onibus 043", "lat": -12.945333333333334, "lng": -38.41469444444444}, {"id": "683476639d6cce8107c48279", "name": "Metro Pituaçu 1", "lat": -12.943888888888889, "lng": -38.41927777777777}, {"id": "6834763a9d6cce8107c3c0ba", "name": "UCSAL 2", "lat": -12.946388888888889, "lng": -38.413944444444446}, {"id": "683476039d6cce8107c2d1ab", "name": "UCSAL 1", "lat": -12.947305555555555, "lng": -38.41280555555556}, {"id": "682f39307f25251cdd2a7f23", "name": "Ponto de Ônibus 289", "lat": -12.949666666666667, "lng": -38.41052777777777}, {"id": "682f391a7f25251cdd29e970", "name": "Pinto de Aguiar 1", "lat": -12.951638888888889, "lng": -38.40863888888889}, {"id": "682f38be7f25251cdd279393", "name": "Drogasil Pinto de Aguiar", "lat": -12.962055555555555, "lng": -38.40463888888889}, {"id": "68165962833e46fd49885544", "name": "Bahia shopping", "lat": -12.982805555555556, "lng": -38.46441666666667}, {"id": "6813747f055680df1de6dc33", "name": "Metro Pituaçu III", "lat": -12.944780421074542, "lng": -38.41889843344689}, {"id": "6813747f055680df1de6dc31", "name": "Condomínio do Conjunto Habitacional dos Contabilistas", "lat": -12.949416700000153, "lng": -38.41027274232659}, {"id": "6813747f055680df1de6dc30", "name": "Ponto de ônibus - Greenville", "lat": -12.952513790563426, "lng": -38.40758629272655}, {"id": "6813747f055680df1de6dc2f", "name": "Vista Patamares", "lat": -12.95722004209591, "lng": -38.408146547697264}, {"id": "6813747f055680df1de6dc2e", "name": "Superpão", "lat": -12.957480530443526, "lng": -38.407701147255935}, {"id": "6813747f055680df1de6dc2d", "name": "Menor Preço - Pinto de Aguiar", "lat": -12.960149984425374, "lng": -38.40731441718455}, {"id": "6813747f055680df1de6dc2c", "name": "Centro Universitário UNIRB", "lat": -12.959523838897, "lng": -38.401634366270635}, {"id": "680ca01c27020c90d037b627", "name": "Quartel de Amaralina", "lat": -13.013452, "lng": -38.480183}, {"id": "680ca01c27020c90d037b626", "name": "Hiperideal Pituba", "lat": -13.003099, "lng": -38.463446}, {"id": "680ca01c27020c90d037b625", "name": "Lagoa dos Patos III", "lat": -13.005416, "lng": -38.46584}, {"id": "680ca01c27020c90d037b624", "name": "Lagoa dos Patos II", "lat": -13.006209, "lng": -38.46558}, {"id": "680ca01c27020c90d037b622", "name": "R. Luiz Monteiro da Costa", "lat": -12.9927052, "lng": -38.4633391}, {"id": "680ca01c27020c90d037b621", "name": "R. Manoel Correia Garcia", "lat": -12.9968791, "lng": -38.4602363}, {"id": "680ca01c27020c90d037b620", "name": "R. Florentino Silva", "lat": -12.9949546, "lng": -38.4614651}, {"id": "680ca01c27020c90d037b61e", "name": "Condomínio Villes de France", "lat": -12.9998685, "lng": -38.456189}, {"id": "680ca01c27020c90d037b61d", "name": "R. Rio de Janeiro", "lat": -13.0004767, "lng": -38.4577667}, {"id": "680ca01c27020c90d037b61c", "name": "DNA Laboratório - Paulo VI", "lat": -13.0006948, "lng": -38.4549282}, {"id": "680ca01c27020c90d037b61a", "name": "Atacadão Pituba II", "lat": -13.0013772, "lng": -38.4574448}, {"id": "680ca01c27020c90d037b619", "name": "Itaú - Almirante Marques de Leão", "lat": -13.00893, "lng": -38.527671}, {"id": "680ca01c27020c90d037b618", "name": "Acarajé da Dinha", "lat": -13.011372, "lng": -38.491592}, {"id": "680ca01c27020c90d037b617", "name": "Rua Moreira de Pinho", "lat": -12.9930483, "lng": -38.5220666}, {"id": "680ca01c27020c90d037b616", "name": "Maple Bear Salvador Canela", "lat": -12.991634058323642, "lng": -38.522663712491536}, {"id": "680ca01c27020c90d037b614", "name": "Salvador Prime", "lat": -12.981112, "lng": -38.450559}, {"id": "67f36b1bfb67d08375ea8a0a", "name": "Paróquia Itapuã", "lat": -12.949861111111112, "lng": -38.364694444444446}, {"id": "67f01641e27fa43e92a91490", "name": "Praca Santos Dumont", "lat": -13.000569646243601, "lng": -38.462013603609314}, {"id": "67eb9e07d573221895084f05", "name": "Miró Colégio", "lat": -13.006997357919472, "lng": -38.52155461933483}, {"id": "67eb9defd573221895081b70", "name": "Mansão Ipiranga", "lat": -13.008451703113723, "lng": -38.52076605197201}, {"id": "67eb9d9fd573221895076392", "name": "Morro do Ipiranga", "lat": -13.008857953303407, "lng": -38.5217520025516}, {"id": "67e0c767bc1c4d8cb8228869", "name": "Av. Prof. Pinto de Aguiar", "lat": -12.963417809232428, "lng": -38.40257429906387}, {"id": "67d4907b4c6cc85f055ef205", "name": "Largo de Itapuã", "lat": -12.950580930650629, "lng": -38.363053500641364}, {"id": "67d48fb84c6cc85f055e0a14", "name": "Praia de Jaguaribe IV", "lat": -12.956985117414547, "lng": -38.38889390229847}, {"id": "67d48fb84c6cc85f055e0a13", "name": "Praia de Itapuã IV", "lat": -12.950103865764257, "lng": -38.364649415016174}, {"id": "67d48fb84c6cc85f055e0a12", "name": "Praia de Piatã V", "lat": -12.952755, "lng": -38.377135}, {"id": "67d48fb84c6cc85f055e0a11", "name": "Praia de Piatã II", "lat": -12.954477019999393, "lng": -38.38199123740885}, {"id": "67d48fb84c6cc85f055e0a10", "name": "Praia de Jaguaribe III", "lat": -12.957375, "lng": -38.38998}, {"id": "67d48fb84c6cc85f055e0a0f", "name": "Praia de Piatã III", "lat": -12.953804, "lng": -38.379682}, {"id": "67d48fb84c6cc85f055e0a0e", "name": "Praia Placafor I", "lat": -12.951769, "lng": -38.373587}, {"id": "67d48fb84c6cc85f055e0a0d", "name": "Praia de Jaguaribe V", "lat": -12.955892482903653, "lng": -38.386596590281236}, {"id": "67d48fb84c6cc85f055e0a0c", "name": "Praia de Jaguaribe II", "lat": -12.957863, "lng": -38.390901}, {"id": "67d48fb84c6cc85f055e0a0b", "name": "Praia de Piatã VI", "lat": -12.952375413027681, "lng": -38.3756209909903}, {"id": "67d48fb84c6cc85f055e0a0a", "name": "Praia de Piatã I", "lat": -12.954538, "lng": -38.383149}, {"id": "67d48fb84c6cc85f055e0a09", "name": "Praia de Piatã IV", "lat": -12.953572, "lng": -38.379026}, {"id": "67d48fb84c6cc85f055e0a08", "name": "Praia Placafor II", "lat": -12.951003, "lng": -38.371069}, {"id": "67d48fb84c6cc85f055e0a07", "name": "Praia Placafor III", "lat": -12.950563922593924, "lng": -38.36857214567866}, {"id": "67cd9e5f9537fceb42c3bbe4", "name": "Escola, Temporari", "lat": -12.989540440003017, "lng": -38.4500986587069}, {"id": "67cd2564b3383d5c985b01c0", "name": "Av. Octávio Mangabeira, 4217", "lat": -12.991086525511587, "lng": -38.437862992025735}, {"id": "67cc841f8e4147e66bc8fbc4", "name": "BRT Salvador - Estacao Pituba III", "lat": -13.000266446239621, "lng": -38.46000997623043}, {"id": "67c8b03f9125cfddab098fa7", "name": "R. Juz Rosalvo Torres", "lat": -13.00198091968821, "lng": -38.52111340380611}, {"id": "67c1cc945316dee68f71202f", "name": "Praça Colombo, 1345, Rio Vermelho, Salvador-BA", "lat": -13.013636, "lng": -38.489105}, {"id": "67c1cc945316dee68f71202e", "name": "AMO Rio Vermelho", "lat": -13.011963, "lng": -38.49012}, {"id": "67c1cc945316dee68f71202d", "name": "BRT Salvador - Rio Vermelho", "lat": -13.005028, "lng": -38.492341}, {"id": "67c1cc945316dee68f71202c", "name": "Av. Vasco da Gama, 714", "lat": -13.006028, "lng": -38.49254}, {"id": "67c1cc945316dee68f71202b", "name": "R. Lucaia, 2 - Rio Vermelho, Salvador", "lat": -13.00778, "lng": -38.492501}, {"id": "67c1cc945316dee68f71202a", "name": "R. Piaui, 269", "lat": -13.006959, "lng": -38.463869}, {"id": "67c1cc945316dee68f712029", "name": "Shopping Ponto 7", "lat": -13.004322, "lng": -38.461142}, {"id": "67c1cc945316dee68f712028", "name": "Praça Alameda Paradiso", "lat": -13.00272, "lng": -38.460858}, {"id": "67c1cc945316dee68f712027", "name": "Mc Donalds - R. Ceará", "lat": -13.002592, "lng": -38.459075}, {"id": "67c1cc945316dee68f712026", "name": "BRT Salvador - Praça Nossa Senhora da Luz", "lat": -13.005176, "lng": -38.457578}, {"id": "67c1cc945316dee68f712025", "name": "Atacadão Pituba", "lat": -13.002294, "lng": -38.458202}, {"id": "67c1cc945316dee68f712024", "name": "BRT Salvador - Estação Pituba", "lat": -12.999769925749785, "lng": -38.459415880458934}, {"id": "67c1cc945316dee68f712022", "name": "Bahia Park", "lat": -12.998027, "lng": -38.462419}, {"id": "67c1cc945316dee68f712021", "name": "Shopping Itaigara", "lat": -12.997231, "lng": -38.463732}, {"id": "67c1cc945316dee68f712020", "name": "Shopping Boulevard 161", "lat": -12.995849, "lng": -38.464507}, {"id": "67c1cc945316dee68f71201f", "name": "Ponto de ônibus - Franbrasas", "lat": -12.989524, "lng": -38.462924}, {"id": "67c1cc945316dee68f71201e", "name": "Praça Alfred Nobel", "lat": -12.990151, "lng": -38.461289}, {"id": "67c1cc945316dee68f71201d", "name": "Ponto de ônibus - Av. Paulo VI", "lat": -12.989934, "lng": -38.459562}, {"id": "67c1cc945316dee68f71201c", "name": "Ponto de ônibus - Alameda das Espatódeas II", "lat": -12.98074, "lng": -38.458521}, {"id": "67c1cc945316dee68f71201b", "name": "Ponto de ônibus - Alameda das Espatódeas I", "lat": -12.983518, "lng": -38.458401}, {"id": "67c1cc945316dee68f71201a", "name": "Praça São Vicente II", "lat": -12.986795, "lng": -38.457794}, {"id": "67c1cc945316dee68f712019", "name": "Praça São Vicente I", "lat": -12.987397, "lng": -38.457591}, {"id": "67c1cc945316dee68f712018", "name": "R. do Jaracatiá, 1048", "lat": -12.989096, "lng": -38.455775}, {"id": "67c1cc945316dee68f712017", "name": "Super Tintas Mais", "lat": -12.99375, "lng": -38.454712}, {"id": "67c1cc945316dee68f712016", "name": "Mix Bahia Pituba", "lat": -12.997016, "lng": -38.45469}, {"id": "67c0344d5437bc23bc60544d", "name": "Av. Anita Garibaldi", "lat": -13.001280223100991, "lng": -38.504925951851675}, {"id": "67b89d711766456fae9fc002", "name": "UFBA III", "lat": -13.0026782, "lng": -38.5071465}, {"id": "67b89d711766456fae9fc001", "name": "Hiperideal Itaigara", "lat": -12.9940196, "lng": -38.4639918}, {"id": "67b89d711766456fae9fc000", "name": "Smartfit Itaigara", "lat": -12.9913536, "lng": -38.4668445}, {"id": "67b89d711766456fae9fbfff", "name": "BRT Salvador - Parque da Cidade", "lat": -12.9964931, "lng": -38.4715677}, {"id": "67b89d711766456fae9fbffe", "name": "R. Prof Leopoldo Amaral", "lat": -12.996696, "lng": -38.468701}, {"id": "67b89d711766456fae9fbffd", "name": "Parque da Cidade", "lat": -12.996450812282218, "lng": -38.47353503327811}, {"id": "67b89d711766456fae9fbffc", "name": "BRT Salvador - Itaigara", "lat": -12.9962826, "lng": -38.4656063}, {"id": "67b89d711766456fae9fbffb", "name": "R. Cicero Simoes", "lat": -13.003368643154328, "lng": -38.465866593816}, {"id": "67b89d711766456fae9fbffa", "name": "Rua Rubens Guelli", "lat": -12.9946396, "lng": -38.4713563}, {"id": "67b89d711766456fae9fbff9", "name": "Praça Ana Lúcia Magalhães", "lat": -12.993762790579977, "lng": -38.46056655100045}, {"id": "67af70e5d638ff983da40491", "name": "Largo Campo Grande II", "lat": -12.9893262, "lng": -38.5203953}, {"id": "67af70e5d638ff983da40490", "name": "Praça Marconi", "lat": -13.0026818, "lng": -38.4552959}, {"id": "67af70e5d638ff983da4048e", "name": "Gurilândia", "lat": -12.9944382, "lng": -38.4493687}, {"id": "67af70e5d638ff983da4048d", "name": "Praça Jorge Freire", "lat": -12.9955207, "lng": -38.4446345}, {"id": "67af70e5d638ff983da4048c", "name": "Parque Costa Azul II", "lat": -12.9977633, "lng": -38.4476875}, {"id": "67af70e5d638ff983da4048b", "name": "Drogasil - Costa Azul", "lat": -12.9926711, "lng": -38.4480298}, {"id": "67af70e5d638ff983da4048a", "name": "Salvador Shopping III", "lat": -12.9781777, "lng": -38.4534245}, {"id": "67af70e5d638ff983da40489", "name": "Salvador Shopping IV", "lat": -12.977119283342324, "lng": -38.45506131344699}, {"id": "67af70e5d638ff983da40488", "name": "Barber La Firma", "lat": -13.0074187, "lng": -38.4621955}, {"id": "67af70e5d638ff983da40487", "name": "Praça Belo Horizonte", "lat": -13.0039552, "lng": -38.4590635}, {"id": "67af70e5d638ff983da40486", "name": "Av. Prof. Magalhaes Neto", "lat": -12.9901799, "lng": -38.4502288}, {"id": "67af70e5d638ff983da40485", "name": "Salvador Shopping I", "lat": -12.979214180867194, "lng": -38.45531876367271}, {"id": "67a1a59a3c59de303456f9cc", "name": "Uninassau", "lat": -12.994722, "lng": -38.452287}, {"id": "67a1a59a3c59de303456f9cb", "name": "R Anthenor Tupinambá", "lat": -12.993797, "lng": -38.451802}, {"id": "67a1a59a3c59de303456f9ca", "name": "Av Prof Magalhães Neto, 753", "lat": -12.993156, "lng": -38.450655}, {"id": "67a1a59a3c59de303456f9c7", "name": "Praça Doutor Sosthenes I", "lat": -12.990643532389782, "lng": -38.451750128954096}, {"id": "67a1a59a3c59de303456f9c6", "name": "Drogasil Alameda dos Sombreiros", "lat": -12.990139, "lng": -38.45374}, {"id": "67a1a59a3c59de303456f9c5", "name": "Hiperideal Caminho das Árvores", "lat": -12.988237, "lng": -38.454178}, {"id": "67a1a59a3c59de303456f9c4", "name": "Colégio Bernoulli", "lat": -12.984970729342564, "lng": -38.454094379294986}, {"id": "67a1a59a3c59de303456f9c3", "name": "Mansão Unique", "lat": -12.982794, "lng": -38.456343}, {"id": "67a1a59a3c59de303456f9c2", "name": "A Tarde", "lat": -12.980547216533392, "lng": -38.45707163215118}, {"id": "67a1a59a3c59de303456f9c0", "name": "Praça Aquárius I", "lat": -12.986269, "lng": -38.452709}, {"id": "67a1a59a3c59de303456f9bf", "name": "Praça Aquárius II", "lat": -12.986945324984967, "lng": -38.45251992209603}, {"id": "67a1a59a3c59de303456f9bb", "name": "Rua Frederico Simões I", "lat": -12.982231622800123, "lng": -38.45449537038804}, {"id": "67a1a59a3c59de303456f9ba", "name": "Centro Empresarial RedençãO", "lat": -12.979253438797853, "lng": -38.45149930317038}, {"id": "67a1a59a3c59de303456f9b9", "name": "Rua Frederico Simões II", "lat": -12.9810784, "lng": -38.4536522}, {"id": "67a1a59a3c59de303456f9b8", "name": "Salvador Shopping - Torre Corporativa", "lat": -12.979011, "lng": -38.45221}, {"id": "67a1a59a3c59de303456f9b7", "name": "McDonald’s Clara Nunes II", "lat": -12.9851253, "lng": -38.452816}, {"id": "67a1a59a3c59de303456f9b6", "name": "Parque metropolitana de Pituaçu I", "lat": -12.968873, "lng": -38.410006}, {"id": "67a1a59a3c59de303456f9b5", "name": "Parque metropolitana de PituaçuII", "lat": -12.969223, "lng": -38.410673}, {"id": "679c0257115c98ee1973b06c", "name": "Largo do Campo Grande, 36", "lat": -12.988625425654742, "lng": -38.52070791990261}, {"id": "679c023b115c98ee1973ade0", "name": "Campo Grande II", "lat": -12.988317081827343, "lng": -38.52224770196519}, {"id": "6794d1ee094770d4640a4462", "name": "Praia de Jaguaribe", "lat": -12.96185895622201, "lng": -38.398222479362055}, {"id": "6794d1ee094770d4640a4461", "name": "Praia da 3a ponte", "lat": -12.95956109642993, "lng": -38.393692374247586}, {"id": "6794d1ee094770d4640a4460", "name": "Praia da 3ª Ponte", "lat": -12.960621258670642, "lng": -38.39574847023179}, {"id": "6794d1ee094770d4640a445f", "name": "Pista Bicicross Salvador", "lat": -12.968409727811443, "lng": -38.40698287947617}, {"id": "6794d1ee094770d4640a445e", "name": "Circo Picolino", "lat": -12.969339476652978, "lng": -38.408422657592986}, {"id": "6794d1ee094770d4640a445d", "name": "Passarela Parque Pituaçu", "lat": -12.970303319622653, "lng": -38.409704235998625}, {"id": "6794d1ee094770d4640a445c", "name": "Orla de Pituaçu IV", "lat": -12.971242298331788, "lng": -38.41124475357329}, {"id": "6794d1ee094770d4640a445b", "name": "Orla de Pituaçu III", "lat": -12.972942801244011, "lng": -38.41376969826171}, {"id": "6794d1ee094770d4640a4459", "name": "Orla de Pituaçu I", "lat": -12.974041321566222, "lng": -38.41540997338295}, {"id": "6794d1ee094770d4640a4458", "name": "Quadras de tênis Boca do Rio", "lat": -12.97490051181507, "lng": -38.417989921348045}, {"id": "6794d1ee094770d4640a4457", "name": "Quadras Boca do Rio", "lat": -12.975779428327357, "lng": -38.41919900064944}, {"id": "6794d1ee094770d4640a4456", "name": "Campo de Futebol II - Boca do Rio", "lat": -12.976178762065937, "lng": -38.42072344715709}, {"id": "6794d1ee094770d4640a4455", "name": "Campo de Futebol I - Boca do Rio", "lat": -12.9766421462668, "lng": -38.42166513204575}, {"id": "6794d1ee094770d4640a4454", "name": "Food Park Salvador", "lat": -12.97777399214119, "lng": -38.42378943524555}, {"id": "6794d1ee094770d4640a4453", "name": "Arena", "lat": -12.979509504863579, "lng": -38.42628121291506}, {"id": "6794d1ee094770d4640a4452", "name": "R. Carlos Chiaccino", "lat": -13.009011, "lng": -38.523178}, {"id": "6794d1ee094770d4640a4451", "name": "R Silvino Marques 52", "lat": -13.007907, "lng": -38.521705}, {"id": "6794d1ee094770d4640a4450", "name": "O baiano", "lat": -13.006664, "lng": -38.521279}, {"id": "6794d1ee094770d4640a444f", "name": "R Guadalajara 430", "lat": -13.00565, "lng": -38.519952}, {"id": "6794d1ee094770d4640a444e", "name": "Mansão Goes Mascarenhas", "lat": -13.007252, "lng": -38.51816}, {"id": "6794d1ee094770d4640a444b", "name": "Victoria Center", "lat": -13.005741, "lng": -38.522333}, {"id": "6794d1ee094770d4640a444a", "name": "R. Prof. Sabino Silva - Pague Menos", "lat": -13.004584, "lng": -38.517846}, {"id": "6794d1ee094770d4640a4449", "name": "Ponto de ônibus - Banca Apipema", "lat": -13.007092, "lng": -38.516563}, {"id": "678bcb680216036dcf0881e7", "name": "Jardim dos Namorados 2", "lat": -13.002404281072316, "lng": -38.45108092913232}, {"id": "677b4b6d0c1b9b5398ddc010", "name": "RED", "lat": -13.009630336261871, "lng": -38.528081774711616}, {"id": "677a21d15e2c7a76a113dd1e", "name": "Artefacto Moveis", "lat": -13.0057573, "lng": -38.526399}, {"id": "677a21d15e2c7a76a113dd1d", "name": "R. Augusto Frederico Schmith com R. Belo Horizonte", "lat": -13.005509, "lng": -38.525525}, {"id": "677a21d15e2c7a76a113dd19", "name": "House inc", "lat": -13.0094409, "lng": -38.5083317}, {"id": "677a21d15e2c7a76a113dd18", "name": "R. Macapá com Ladeira do Jardim Zoológico", "lat": -13.0064224, "lng": -38.5082106}, {"id": "677a21d15e2c7a76a113dd16", "name": "UFBA I", "lat": -13.0062444, "lng": -38.509482}, {"id": "677a21d15e2c7a76a113dd15", "name": "Travessa Baependi", "lat": -13.0080633, "lng": -38.5102709}, {"id": "677a21d15e2c7a76a113dd14", "name": "Shopping Barra", "lat": -13.006111109781918, "lng": -38.52319449652028}, {"id": "6779f5570c1b9b539874c001", "name": "Av. Princesa Leopoldina, 644", "lat": -13.003935241768838, "lng": -38.52415726605571}, {"id": "6779f5240c1b9b539874bded", "name": "Largo da Graça II", "lat": -13.002738319899903, "lng": -38.52424582426293}, {"id": "6779f4b50c1b9b539874b99b", "name": "R. Oito de Dezembro com R. da Graça", "lat": -12.998133713989505, "lng": -38.52478766700224}, {"id": "6779f46e0c1b9b539874a9a1", "name": "MAC Bahia", "lat": -12.997268731701201, "lng": -38.52573198496915}, {"id": "6779f1b20c1b9b5398733772", "name": "R. Teixeira Leal", "lat": -12.998244859723748, "lng": -38.526522638690246}, {"id": "6779ab500c1b9b53985f4b64", "name": "Largo da Graça I", "lat": -12.999084976585088, "lng": -38.52363703551504}, {"id": "6779aa750c1b9b53985f14fe", "name": "Largo da Vitoria", "lat": -12.996257393731756, "lng": -38.52753593283526}, {"id": "6779a9f50c1b9b53985efe3d", "name": "Praça do Sol/Gordinhas", "lat": -13.010592049869295, "lng": -38.509339839220054}, {"id": "6779a9be0c1b9b53985ee675", "name": "Clínica Self Day", "lat": -13.008469782041994, "lng": -38.509230828003396}, {"id": "6779a9840c1b9b53985e7be5", "name": "Av. Milton Santos - Drogasil", "lat": -13.00762586439095, "lng": -38.50922584567505}, {"id": "677983ef5e2c7a76a1ea6cd6", "name": "para Praça Marconi II", "lat": -13.0028515, "lng": -38.454838}, {"id": "677983ef5e2c7a76a1ea6cd5", "name": "Praça Brasil", "lat": -13.0068595, "lng": -38.461967}, {"id": "677983ef5e2c7a76a1ea6cd3", "name": "Quadras de Ondina", "lat": -13.011338160909812, "lng": -38.50700899958611}, {"id": "677983ef5e2c7a76a1ea6cd2", "name": "Restaurante Alfredo", "lat": -13.0087345, "lng": -38.5156453}, {"id": "677983ef5e2c7a76a1ea6cd1", "name": "Morro do Cristo II", "lat": -13.010265365766152, "lng": -38.52303793662002}, {"id": "677983ef5e2c7a76a1ea6ccf", "name": "Restaurante Sabor Nordestino", "lat": -13.0089793, "lng": -38.5308988}, {"id": "677983ef5e2c7a76a1ea6ccd", "name": "R. Senta Púa", "lat": -13.010133397780216, "lng": -38.50734561090016}, {"id": "677983ef5e2c7a76a1ea6ccb", "name": "Casa da Barra Eventos", "lat": -13.0092903, "lng": -38.5261948}, {"id": "677983ef5e2c7a76a1ea6cc8", "name": "Airos Galvão", "lat": -13.0085657, "lng": -38.5243927}, {"id": "677983ef5e2c7a76a1ea6cc7", "name": "R. Fernão de Magalhães", "lat": -13.008300129060917, "lng": -38.523692339658744}, {"id": "677983ef5e2c7a76a1ea6cc6", "name": "SEST SENAT Salvador", "lat": -13.0097218, "lng": -38.4659223}, {"id": "677983ef5e2c7a76a1ea6cc5", "name": "Av. Manoel Dias com R. Prof. Oséas Santos", "lat": -13.0117432, "lng": -38.4702805}, {"id": "677983ef5e2c7a76a1ea6cc4", "name": "Ibis Salvador Rio Vermelho", "lat": -13.014833564683826, "lng": -38.48540113711837}, {"id": "677980c35e2c7a76a1e966f8", "name": "R. da Fonte do Boi", "lat": -13.013529487730239, "lng": -38.48583565075213}, {"id": "677980c35e2c7a76a1e966f7", "name": "Praia da Paciência", "lat": -13.010467911070672, "lng": -38.4978036562182}, {"id": "677980c35e2c7a76a1e966f6", "name": "Quadras Avenida Oceanica", "lat": -13.011177432875531, "lng": -38.50754812461249}, {"id": "677980c35e2c7a76a1e966f5", "name": "Hotel Vila Galé Salvador", "lat": -13.009827631509394, "lng": -38.51704314334176}, {"id": "6778a28b0c1b9b539803c203", "name": "Parque dos Ventos I", "lat": -12.982151929535656, "lng": -38.42901303603407}, {"id": "6776d2157161cd0ad5fa65f8", "name": "Centro de Convenções", "lat": -12.986187449459798, "lng": -38.43372970819474}, {"id": "6776d2157161cd0ad5fa65f7", "name": "Moto Chefe Armação", "lat": -12.988469686483297, "lng": -38.43554489314557}, {"id": "6776d2157161cd0ad5fa65f6", "name": "Hiperideal Orla", "lat": -12.98983, "lng": -38.43681}, {"id": "6776d2157161cd0ad5fa65f5", "name": "Ki-Mukeka Armação", "lat": -12.99207, "lng": -38.43874}, {"id": "6776d2157161cd0ad5fa65f4", "name": "Salvador Suites Residence", "lat": -12.994026759436368, "lng": -38.440262226052646}, {"id": "6776d2157161cd0ad5fa65f3", "name": "Paraciclo Armação", "lat": -12.994851285981255, "lng": -38.440869748592384}, {"id": "6776d2157161cd0ad5fa65f2", "name": "Ponto de ônibus - Jardim de Alah Beach", "lat": -12.997659536224763, "lng": -38.44348222237075}, {"id": "6776d2157161cd0ad5fa65f0", "name": "Parque Costa Azul", "lat": -12.99789, "lng": -38.44839}, {"id": "6776d2157161cd0ad5fa65ef", "name": "Ponto de ônibus - Jardim dos Namorados", "lat": -13.00099, "lng": -38.44968}, {"id": "6776d2157161cd0ad5fa65ee", "name": "Jardim dos Namorados", "lat": -13.00279366507582, "lng": -38.45150334526771}, {"id": "6776d2157161cd0ad5fa65ed", "name": "Posto Shell - Av Octavio Mangabeira com R. Santa Catarina", "lat": -13.00461, "lng": -38.45337}, {"id": "6776d2157161cd0ad5fa65ec", "name": "Ponto de ônibus - Arena Aquiatica", "lat": -13.00568, "lng": -38.45552}, {"id": "6776d2157161cd0ad5fa65eb", "name": "Praça Nossa Senhora da Luz", "lat": -13.00596, "lng": -38.45735}, {"id": "6776d2157161cd0ad5fa65e9", "name": "Portinox - Pituba", "lat": -13.00855, "lng": -38.46113}, {"id": "6776d2157161cd0ad5fa65e8", "name": "Perini Pituba", "lat": -13.00964, "lng": -38.46336}, {"id": "6776d2157161cd0ad5fa65e7", "name": "Ki-Mukeka Pituba", "lat": -13.01064, "lng": -38.46552}, {"id": "6776d2157161cd0ad5fa65e5", "name": "Avenida Octavio Mangabeira, 100, Amaralina, Salvador-BA", "lat": -13.012667043139496, "lng": -38.46836373209954}, {"id": "6776d2157161cd0ad5fa65e4", "name": "Avenida Amaralina, 592, Amaralina, Salvador-BA", "lat": -13.01372, "lng": -38.47263}, {"id": "6776d2157161cd0ad5fa65e3", "name": "Ponto de ônibus - Quartel de Amaralina", "lat": -13.01411, "lng": -38.47811}, {"id": "6776d2157161cd0ad5fa65e2", "name": "Praca dos Ex-Combatentes", "lat": -13.013573861212747, "lng": -38.4787291337405}, {"id": "6776d2157161cd0ad5fa65e1", "name": "Ponto de ônibus - R. Rogerio de Faria", "lat": -13.01214, "lng": -38.48158}, {"id": "6776d2157161cd0ad5fa65e0", "name": "R. Oswaldo Cruz com R. Archibaldo Baleeiro", "lat": -13.01266, "lng": -38.48641}, {"id": "6776d2157161cd0ad5fa65de", "name": "Mercado do Peixe", "lat": -13.01428076960376, "lng": -38.48815575242043}, {"id": "6776d2157161cd0ad5fa65dd", "name": "Largo da Mariquita", "lat": -13.013363490277015, "lng": -38.48874449290347}, {"id": "6776d2157161cd0ad5fa65dc", "name": "Ponto de ônibus - Paróquia Sant'Ana", "lat": -13.013001550751886, "lng": -38.49139452859736}, {"id": "6776d2157161cd0ad5fa65db", "name": "Armazém de época no Rio Vermelho", "lat": -13.011121253203052, "lng": -38.493941277265556}, {"id": "6776d2157161cd0ad5fa65d9", "name": "Praça Tarquínio Gonzaga", "lat": -13.010872986250344, "lng": -38.50141791439487}, {"id": "6776d2157161cd0ad5fa65d7", "name": "Ponto de ônibus - Praça do Sol", "lat": -13.01029, "lng": -38.50996}, {"id": "6776d2157161cd0ad5fa65d6", "name": "Praça do Sol", "lat": -13.01052, "lng": -38.51022}, {"id": "6776d2157161cd0ad5fa65d5", "name": "Portobello Ondina", "lat": -13.010014498275412, "lng": -38.51247131824494}, {"id": "6776d2157161cd0ad5fa65d4", "name": "Beach Class Salvador - R. Roschild Moreira", "lat": -13.00932, "lng": -38.515}, {"id": "6776d2157161cd0ad5fa65d2", "name": "R. Sabino Silva com Av. Oceânica", "lat": -13.00773, "lng": -38.51621}, {"id": "6776d2157161cd0ad5fa65d1", "name": "Praça Orugan, Ondina, Salvador-BA", "lat": -13.007934256047735, "lng": -38.518734276294715}, {"id": "6776d2157161cd0ad5fa65d0", "name": "Clube Espanhol", "lat": -13.008895976985865, "lng": -38.520363724019504}, {"id": "6776d2157161cd0ad5fa65cd", "name": "Barra Flat", "lat": -13.00974, "lng": -38.52894}, {"id": "6776d2157161cd0ad5fa65cc", "name": "Bahia Flat", "lat": -13.009954391018667, "lng": -38.530368357896805}]}