{"city": "Novo Hamburgo", "areaId": "67a5a7171825e70d1c89701b", "count": 249, "source": "gojet-managers-map", "parkings": [{"id": "6924b0a2bd6bf79e828c3cf6", "name": "endereço: Pça. da Bandeira, 42 - Centro", "lat": -29.680792, "lng": -51.123512}, {"id": "68fb86fa4860c689484a0816", "name": "R. Joaquim Nabuco, 48 - Centro, Novo Hamburgo - RS, 93310-001", "lat": -29.684483, "lng": -51.133553}, {"id": "67b86f871766456fae8dbbc8", "name": "Rua Marcílio Dias 135", "lat": -29.6893463, "lng": -51.1413725}, {"id": "67b86f871766456fae8dbbc7", "name": "Rua Marcílio Dias 370", "lat": -29.6892545, "lng": -51.1402423}, {"id": "67b86f871766456fae8dbbc6", "name": "Rua Marcílio Dias 383", "lat": -29.6890728, "lng": -51.1387406}, {"id": "67b86f871766456fae8dbbc5", "name": "Rua Augusto Jung 1", "lat": -29.6845424, "lng": -51.1262794}, {"id": "67b86f871766456fae8dbbc4", "name": "Rua primeiro de Março 844", "lat": -29.6918295, "lng": -51.1290095}, {"id": "67b86f871766456fae8dbbc3", "name": "Rua Recife 400", "lat": -29.6966223, "lng": -51.1229813}, {"id": "67b86f871766456fae8dbbc2", "name": "Prefeitura de Novo Hamburgo", "lat": -29.6949922, "lng": -51.1167505}, {"id": "67b86f871766456fae8dbbc1", "name": "Rua Caiapós 363", "lat": -29.6829916, "lng": -51.1173909}, {"id": "67b86f871766456fae8dbbc0", "name": "Rua Carioca 567", "lat": -29.6842292, "lng": -51.1171612}, {"id": "67b86f871766456fae8dbbbf", "name": "Rua Araguaia 1", "lat": -29.6893897, "lng": -51.1210668}, {"id": "67b86f871766456fae8dbbbd", "name": "Rua Encruzilhada do Sul 411", "lat": -29.6909992, "lng": -51.1182059}, {"id": "67b86f871766456fae8dbbbc", "name": "Rua Encruzilhada do Sul 514", "lat": -29.692101, "lng": -51.1172953}, {"id": "67b86f871766456fae8dbbbb", "name": "Rua Forguetinha 161", "lat": -29.6925373, "lng": -51.1179303}, {"id": "67b86f871766456fae8dbbba", "name": "Rua Sapiranga 303", "lat": -29.692975, "lng": -51.1145712}, {"id": "67b86f871766456fae8dbbb9", "name": "Rua Lagoa Vermelha 1", "lat": -29.6923474, "lng": -51.113552}, {"id": "67b86f871766456fae8dbbb8", "name": "Rua Lagoa Vermelha 162", "lat": -29.6915671, "lng": -51.1143352}, {"id": "67b86f871766456fae8dbbb7", "name": "Rua São José do Norte 155", "lat": -29.6906563, "lng": -51.1149256}, {"id": "67b86f871766456fae8dbbb6", "name": "Rua Lagoa Vermelha 410", "lat": -29.6897007, "lng": -51.1158791}, {"id": "67b86f871766456fae8dbbb5", "name": "Rua São Jerônimo 389", "lat": -29.6900357, "lng": -51.1170935}, {"id": "67b86f871766456fae8dbbb4", "name": "Rua Carioca 2", "lat": -29.6882628, "lng": -51.1172745}, {"id": "67b86f871766456fae8dbbb3", "name": "Rua Carioca 924", "lat": -29.6874746, "lng": -51.1174512}, {"id": "67b86f871766456fae8dbbb2", "name": "Rua Feitoria Velha 151", "lat": -29.6862667, "lng": -51.1172725}, {"id": "67b86f871766456fae8dbbb1", "name": "Rua São Francisco de Paula 195", "lat": -29.6911165, "lng": -51.1209415}, {"id": "67b86f871766456fae8dbbb0", "name": "Rua wolfran Metzler 218", "lat": -29.6914005, "lng": -51.1217384}, {"id": "67b86f871766456fae8dbbaf", "name": "Rua São Borja 308", "lat": -29.6921703, "lng": -51.1211188}, {"id": "67b86f871766456fae8dbbae", "name": "Rua São Borja 57", "lat": -29.6939382, "lng": -51.1199467}, {"id": "67b86f871766456fae8dbbad", "name": "Rua Curitiba 469", "lat": -29.6928941, "lng": -51.1207215}, {"id": "67b86f871766456fae8dbbac", "name": "Rua Manaus 218", "lat": -29.6922518, "lng": -51.1231405}, {"id": "67b86f871766456fae8dbbab", "name": "Rua Emília Muller 84", "lat": -29.6909156, "lng": -51.1233414}, {"id": "67b86f871766456fae8dbbaa", "name": "Rua Emília Muller 85", "lat": -29.6912989, "lng": -51.1234312}, {"id": "67b86f871766456fae8dbba9", "name": "Rua Ariberto Eugênio 106", "lat": -29.6909709, "lng": -51.1241883}, {"id": "67b86f871766456fae8dbba8", "name": "Rua Bagé 418", "lat": -29.6928236, "lng": -51.1246077}, {"id": "67b86f871766456fae8dbba7", "name": "Rua Bagé 412", "lat": -29.6919478, "lng": -51.1248759}, {"id": "67b86f871766456fae8dbba6", "name": "Rua Bagé 318", "lat": -29.6912697, "lng": -51.1252209}, {"id": "67b86f871766456fae8dbba5", "name": "Rua R.Schidt 56", "lat": -29.6950886, "lng": -51.1432718}, {"id": "67b86f871766456fae8dbba4", "name": "Avenida Vereador Adão Rodrigues de Oliveira 581", "lat": -29.6945574, "lng": -51.1422104}, {"id": "67b86f871766456fae8dbba3", "name": "Avenida Vereador Adão Rodrigues de Oliveira 160", "lat": -29.6928839, "lng": -51.1407958}, {"id": "67b86f871766456fae8dbba2", "name": "Rua Marques de Sapucaí 17", "lat": -29.692821, "lng": -51.1412632}, {"id": "67b86f871766456fae8dbba1", "name": "Rua Graça Aranha 240", "lat": -29.6929022, "lng": -51.1423894}, {"id": "67b4aac6cd4d3cbb07f63889", "name": "Rua Joaquin Nabuco 1685", "lat": -29.6815308, "lng": -51.1205257}, {"id": "67b4aac6cd4d3cbb07f63887", "name": "Rua Fortaleza 77", "lat": -29.6973277, "lng": -51.1242738}, {"id": "67b4aac6cd4d3cbb07f63886", "name": "Rua Aracaju 300", "lat": -29.6971492, "lng": -51.1260601}, {"id": "67b4aac6cd4d3cbb07f63885", "name": "Rua Aracaju 01", "lat": -29.6978423, "lng": -51.126161}, {"id": "67b4aac6cd4d3cbb07f63884", "name": "Rua Fortaleza 08", "lat": -29.6980316, "lng": -51.1245031}, {"id": "67b4aac6cd4d3cbb07f63883", "name": "Rua Manaus 428", "lat": -29.693459, "lng": -51.1236441}, {"id": "67b4aac6cd4d3cbb07f63882", "name": "Rua Alegrete. 171", "lat": -29.6981874, "lng": -51.1232515}, {"id": "67b4aac6cd4d3cbb07f63881", "name": "Rua Maceió 19", "lat": -29.6947918, "lng": -51.1240558}, {"id": "67b4aac6cd4d3cbb07f63880", "name": "Rua Cacequi 133", "lat": -29.6977325, "lng": -51.1223798}, {"id": "67b4aac6cd4d3cbb07f6387f", "name": "Rua Cacequi 19", "lat": -29.696696, "lng": -51.1219962}, {"id": "67b4aac6cd4d3cbb07f6387e", "name": "Rua Saldanha Marinho 430", "lat": -29.6934967, "lng": -51.1303701}, {"id": "67b4aac6cd4d3cbb07f6387d", "name": "Rua São Jacó", "lat": -29.687458, "lng": -51.123629}, {"id": "67b4aac6cd4d3cbb07f6387c", "name": "Rua silveira Martins 101", "lat": -29.6864974, "lng": -51.1240535}, {"id": "67b4aac6cd4d3cbb07f6387b", "name": "Rua Gomes Portinho 564", "lat": -29.6855356, "lng": -51.1243844}, {"id": "67b4aac6cd4d3cbb07f6387a", "name": "Rua Augusto Jung 336", "lat": -29.6841541, "lng": -51.124664}, {"id": "67b4aac6cd4d3cbb07f63879", "name": "Rua Augusto Jung 312", "lat": -29.6837542, "lng": -51.1232441}, {"id": "67b4aac6cd4d3cbb07f63878", "name": "Rua Augusto Jung 399", "lat": -29.6836545, "lng": -51.122416}, {"id": "67b4aac6cd4d3cbb07f63877", "name": "Avenida doutor Maurício Cardoso 701", "lat": -29.6786508, "lng": -51.1152827}, {"id": "67b4aac6cd4d3cbb07f63876", "name": "Avenida doutor Maurício Cardoso 833", "lat": -29.6795192, "lng": -51.1163804}, {"id": "67b4aac6cd4d3cbb07f63875", "name": "Avenida doutor Maurício Cardoso 931", "lat": -29.6800799, "lng": -51.1170315}, {"id": "67b4aac6cd4d3cbb07f63874", "name": "Avenida doutor Maurício Cardoso 1033", "lat": -29.6807461, "lng": -51.1178884}, {"id": "67b4aac6cd4d3cbb07f63873", "name": "Rua Joaquim Nabuco 1848", "lat": -29.6810336, "lng": -51.1186398}, {"id": "67b4aac6cd4d3cbb07f63872", "name": "Avenida doutor Maurício Cardoso 1225", "lat": -29.682012, "lng": -51.119994}, {"id": "67b4aac6cd4d3cbb07f63871", "name": "Avenida doutor Maurício Cardoso 1429", "lat": -29.6830947, "lng": -51.1208891}, {"id": "67b4aac6cd4d3cbb07f63870", "name": "Avenida doutor Maurício Cardoso 1555", "lat": -29.6840714, "lng": -51.1214269}, {"id": "67b4aac6cd4d3cbb07f6386f", "name": "Avenida doutor Maurício Cardoso/Gomes Portinho", "lat": -29.6851013, "lng": -51.1218531}, {"id": "67b4aac6cd4d3cbb07f6386e", "name": "Avenida doutor Maurício Cardoso 303", "lat": -29.6857619, "lng": -51.1219543}, {"id": "67b4aac6cd4d3cbb07f6386d", "name": "Avenida doutor Maurício Cardoso 1833", "lat": -29.6862976, "lng": -51.1220214}, {"id": "67b4aac6cd4d3cbb07f6386c", "name": "Avenida doutor Maurício Cardoso 81", "lat": -29.6876357, "lng": -51.1220019}, {"id": "67b4aac6cd4d3cbb07f6386b", "name": "Rua Quintino Bocaiúva 329", "lat": -29.6809572, "lng": -51.1206438}, {"id": "67b4aac6cd4d3cbb07f6386a", "name": "Rua Quintino Bocaiúva 196", "lat": -29.6812812, "lng": -51.122308}, {"id": "67b4aac6cd4d3cbb07f63869", "name": "Rua Quintino Bocaiúva 9", "lat": -29.681549, "lng": -51.123702}, {"id": "67b4aac6cd4d3cbb07f63868", "name": "Rua Domingos de Almeida 506", "lat": -29.6800085, "lng": -51.1241366}, {"id": "67b4aac6cd4d3cbb07f63867", "name": "Rua Júlio de Castilhos 600", "lat": -29.680555, "lng": -51.1257252}, {"id": "67b4aac6cd4d3cbb07f63866", "name": "Rua Lucas de Oliveira 239", "lat": -29.681894, "lng": -51.1254881}, {"id": "67b4aac6cd4d3cbb07f63865", "name": "Rua Joaquim Nabuco 1205", "lat": -29.6827015, "lng": -51.1252561}, {"id": "67b4aac6cd4d3cbb07f63864", "name": "Rua Heller 135", "lat": -29.6834384, "lng": -51.1249708}, {"id": "67b4aac6cd4d3cbb07f63863", "name": "Rua Heller 379", "lat": -29.6830458, "lng": -51.1232059}, {"id": "67b4aac6cd4d3cbb07f63862", "name": "Rua Heller 447", "lat": -29.682765, "lng": -51.121961}, {"id": "67b4aac6cd4d3cbb07f63861", "name": "Rua Augusto Jung 481", "lat": -29.6833688, "lng": -51.1216519}, {"id": "67b4aac6cd4d3cbb07f63860", "name": "Av Dr Maurício Cardoso 510", "lat": -29.6772203, "lng": -51.1133588}, {"id": "67b4aac6cd4d3cbb07f6385f", "name": "Av Dr Maurício Cardoso 680", "lat": -29.678617, "lng": -51.114931}, {"id": "67b4aac6cd4d3cbb07f6385e", "name": "Av Dr Maurício Cardoso 738", "lat": -29.6790811, "lng": -51.1155056}, {"id": "67b4aac6cd4d3cbb07f6385d", "name": "Av Dr Maurício Cardoso 954", "lat": -29.6804778, "lng": -51.1172595}, {"id": "67b4aac6cd4d3cbb07f6385c", "name": "Av Dr Maurício Cardoso 1032", "lat": -29.6810583, "lng": -51.11798}, {"id": "67b4aac6cd4d3cbb07f6385b", "name": "Av Dr Maurício Cardoso 1320", "lat": -29.6825206, "lng": -51.120287}, {"id": "67b4aac6cd4d3cbb07f6385a", "name": "Av Dr Maurício Cardoso 1470", "lat": -29.6833752, "lng": -51.1207102}, {"id": "67b4aac6cd4d3cbb07f63859", "name": "Av Dr Maurício Cardoso 1560", "lat": -29.6843248, "lng": -51.1213498}, {"id": "67b4aac6cd4d3cbb07f63858", "name": "Av Dr Maurício Cardoso 1760", "lat": -29.6857468, "lng": -51.1217216}, {"id": "67b4aac6cd4d3cbb07f63857", "name": "Av Dr Maurício Cardoso 1856", "lat": -29.6866509, "lng": -51.121789}, {"id": "67b4aac6cd4d3cbb07f63856", "name": "Av Dr Maurício Cardoso 2002", "lat": -29.6880929, "lng": -51.1217696}, {"id": "67ae0ca3a50f95d61cf8f855", "name": "Rua Aimoré, 99", "lat": -29.691083333333335, "lng": -51.135416666666664}, {"id": "67adfb75cd4d3cbb07896b41", "name": "Rua Carlos Germano Bückler 938", "lat": -29.7061507, "lng": -51.1428222}, {"id": "67adfb75cd4d3cbb07896b40", "name": "Rua Carlos Germano Bückler 621", "lat": -29.7060776, "lng": -51.141108}, {"id": "67adfb75cd4d3cbb07896b3f", "name": "Rua Carlos Germano Bürckler 620", "lat": -29.7058563, "lng": -51.1395577}, {"id": "67adfb75cd4d3cbb07896b3e", "name": "Rua Wendelino Henrique Klaser 1", "lat": -29.704213, "lng": -51.139657}, {"id": "67adfb75cd4d3cbb07896b3d", "name": "Rua Duque de Caxias 134", "lat": -29.6997147, "lng": -51.139095}, {"id": "67adfb75cd4d3cbb07896b3c", "name": "Rua Três de Outubro 311", "lat": -29.7005508, "lng": -51.1388227}, {"id": "67adfb75cd4d3cbb07896b3b", "name": "Rua Três de Outubro 224", "lat": -29.700632, "lng": -51.1400599}, {"id": "67adfb75cd4d3cbb07896b3a", "name": "Rua Marquês do Paraná 200", "lat": -29.6985639, "lng": -51.1409084}, {"id": "67adfb75cd4d3cbb07896b39", "name": "Rua Marquês do Paraná 2", "lat": -29.6971733, "lng": -51.1411703}, {"id": "67adfb75cd4d3cbb07896b38", "name": "Rua Marquês de Alegrete 350", "lat": -29.6969724, "lng": -51.1401799}, {"id": "67adfb75cd4d3cbb07896b37", "name": "Rua Mal Câmara 468", "lat": -29.6971698, "lng": -51.139316}, {"id": "67adfb75cd4d3cbb07896b36", "name": "Rua Mal Câmara 304", "lat": -29.6955572, "lng": -51.1394715}, {"id": "67adfb75cd4d3cbb07896b35", "name": "Rua Aimoré. 250", "lat": -29.6923718, "lng": -51.135186}, {"id": "67adfb75cd4d3cbb07896b34", "name": "Rua Aimoré. 301 - 499", "lat": -29.6935269, "lng": -51.135181}, {"id": "67adfb75cd4d3cbb07896b33", "name": "Rua Tupiniquins 802", "lat": -29.693979, "lng": -51.1344598}, {"id": "67adfb75cd4d3cbb07896b31", "name": "Rua Orestes Travi 524", "lat": -29.6806293, "lng": -51.1124154}, {"id": "67adfb75cd4d3cbb07896b30", "name": "Rua Orestes Travi 815", "lat": -29.6825011, "lng": -51.1139231}, {"id": "67adfb75cd4d3cbb07896b2f", "name": "Rua Orestes Travi 899", "lat": -29.6807936, "lng": -51.1108325}, {"id": "67adfb75cd4d3cbb07896b2e", "name": "Rua Carijós 238", "lat": -29.6840559, "lng": -51.1141424}, {"id": "67adfb75cd4d3cbb07896b2d", "name": "Rua Oscar Ludwig 82", "lat": -29.6834967, "lng": -51.1117881}, {"id": "67adfb75cd4d3cbb07896b2c", "name": "Rua Gomes Portinho 1501", "lat": -29.68533, "lng": -51.114305}, {"id": "67adfb75cd4d3cbb07896b2b", "name": "Rua Gomes Portinho 1639", "lat": -29.6855874, "lng": -51.1121126}, {"id": "67adfb75cd4d3cbb07896b29", "name": "Rua Carijós 238", "lat": -29.6840501, "lng": -51.1141689}, {"id": "67adfb75cd4d3cbb07896b28", "name": "Rua Orestes Travi 353", "lat": -29.682199, "lng": -51.1138966}, {"id": "67adfb75cd4d3cbb07896b27", "name": "Rua Mauá 474", "lat": -29.6889536, "lng": -51.1149202}, {"id": "67adfb75cd4d3cbb07896b26", "name": "Rua Mauá 550", "lat": -29.6885173, "lng": -51.1152599}, {"id": "67adfb75cd4d3cbb07896b25", "name": "Rua Araruama 388", "lat": -29.6823761, "lng": -51.1150781}, {"id": "67adfb75cd4d3cbb07896b24", "name": "Rua Carioca 346", "lat": -29.6825841, "lng": -51.1161182}, {"id": "67adfb75cd4d3cbb07896b23", "name": "Rua Carioca 740", "lat": -29.685166, "lng": -51.1170134}, {"id": "67adfb75cd4d3cbb07896b22", "name": "Rua Mauá 365", "lat": -29.6894485, "lng": -51.1143657}, {"id": "67adfb75cd4d3cbb07896b20", "name": "Rua Campos Sales 366", "lat": -29.6864732, "lng": -51.1152511}, {"id": "67adfb75cd4d3cbb07896b1f", "name": "Rua Mauá 65", "lat": -29.6901006, "lng": -51.1139915}, {"id": "67adfb75cd4d3cbb07896b1e", "name": "Rua Arroio Grande 14-18", "lat": -29.6883889, "lng": -51.1153427}, {"id": "67adfb75cd4d3cbb07896b1d", "name": "Rua Igrejinha  255", "lat": -29.6902072, "lng": -51.1118276}, {"id": "67adfb75cd4d3cbb07896b1c", "name": "Rua São José do Norte 53", "lat": -29.6901, "lng": -51.1139483}, {"id": "67a5f6c5647fc0b35132edc6", "name": "Rua tapes 601", "lat": -29.6924881, "lng": -51.1362056}, {"id": "67a5f6c5647fc0b35132edc3", "name": "Rua Benjamin constant 177", "lat": -29.6924007, "lng": -51.1344333}, {"id": "67a5f6c5647fc0b35132edc2", "name": "Rua Marcilio Dias 816", "lat": -29.688488, "lng": -51.134158}, {"id": "67a5f6c5647fc0b35132edc0", "name": "Rua Aimoré 9-97", "lat": -29.6909619, "lng": -51.1354116}, {"id": "67a5f6c5647fc0b35132edbe", "name": "Rua Cel Frederico Linck 667", "lat": -29.6911794, "lng": -51.1363511}, {"id": "67a5f6c5647fc0b35132edbc", "name": "Rua Cel Frederico Linck 117", "lat": -29.691642, "lng": -51.1422328}, {"id": "67a5f6c5647fc0b35132edb9", "name": "Rua Cel Frederico Linck 209", "lat": -29.6915595, "lng": -51.1414295}, {"id": "67a5f6c5647fc0b35132edb7", "name": "Av Cel Frederico Linck 323-375", "lat": -29.6913845, "lng": -51.1391174}, {"id": "67a5f6c5647fc0b35132edb6", "name": "Av Cel Frederico linck", "lat": -29.6912176, "lng": -51.1381602}, {"id": "67a5f6c5647fc0b35132edb4", "name": "Rua cinco de abril 154", "lat": -29.686973, "lng": -51.13437}, {"id": "67a5f6c5647fc0b35132edb2", "name": "Rua Tupi 443", "lat": -29.6902725, "lng": -51.1384499}, {"id": "67a5f6c5647fc0b35132edb0", "name": "R. Cinco de Abril. 1", "lat": -29.6881471, "lng": -51.1374297}, {"id": "67a5f6c5647fc0b35132edae", "name": "R. Visc. de Taunay. 196", "lat": -29.686569, "lng": -51.1369854}, {"id": "67a5f6c5647fc0b35132edac", "name": "Rua Nações Unidas. 4055 - 4215", "lat": -29.7045627, "lng": -51.1352108}, {"id": "67a5f6c5647fc0b35132edab", "name": "Avenida Nações Unidas. 3948", "lat": -29.7033387, "lng": -51.134905}, {"id": "67a5f6c5647fc0b35132edaa", "name": "Avenida Nações Unidas. Comelz Brasil", "lat": -29.7024496, "lng": -51.1351424}, {"id": "67a5f6c5647fc0b35132eda9", "name": "Avenida Nações Unidas. estação FENAC", "lat": -29.7012908, "lng": -51.1349469}, {"id": "67a5f6c5647fc0b35132eda7", "name": "Avenida Nações Unidas. SENAC", "lat": -29.7011964, "lng": -51.1348303}, {"id": "67a5f6c5647fc0b35132eda6", "name": "Av Nações Unidas 2475", "lat": -29.6833994, "lng": -51.1349382}, {"id": "67a5f6c5647fc0b35132eda5", "name": "Rua Nações Unidas. terminal rodoviário", "lat": -29.7007785, "lng": -51.1352323}, {"id": "67a5f6c5647fc0b35132eda4", "name": "Rua José Patrocínio  798", "lat": -29.6843821, "lng": -51.1376027}, {"id": "67a5f6c5647fc0b35132eda3", "name": "Rua José de Alencar 382", "lat": -29.685974, "lng": -51.138301}, {"id": "67a5f6c5647fc0b35132eda2", "name": "Avenida Nações Unidas. 3368 - 3628", "lat": -29.7005243, "lng": -51.1348071}, {"id": "67a5f6c5647fc0b35132eda1", "name": "Avenida Nações Unidas. 3560", "lat": -29.699874, "lng": -51.1346858}, {"id": "67a5f6c5647fc0b35132eda0", "name": "Rua José de Alencar 350", "lat": -29.6861537, "lng": -51.1386511}, {"id": "67a5f6c5647fc0b35132ed9f", "name": "Avenida Nações Unidas. 3398 - 3358", "lat": -29.6978889, "lng": -51.1342848}, {"id": "67a5f6c5647fc0b35132ed9e", "name": "Rua Joaquin Nabuco 84", "lat": -29.685586, "lng": -51.13643}, {"id": "67a5f6c5647fc0b35132ed9d", "name": "Rua Guarujá. 129 - 203", "lat": -29.6976486, "lng": -51.1341349}, {"id": "67a5f6c5647fc0b35132ed9c", "name": "Rua Vinte e Cinco de Julho 510", "lat": -29.6857156, "lng": -51.1373127}, {"id": "67a5f6c5647fc0b35132ed9b", "name": "Rua Vinte e Cinco de Julho 562", "lat": -29.6851552, "lng": -51.1375215}, {"id": "67a5f6c5647fc0b35132ed9a", "name": "Rua Joaquin Nabuco 171", "lat": -29.685375, "lng": -51.135481}, {"id": "67a5f6c5647fc0b35132ed99", "name": "Avenida Nações Unidas. 2901", "lat": -29.6940023, "lng": -51.1338}, {"id": "67a5f6c5647fc0b35132ed98", "name": "Rua tapes. 939", "lat": -29.692315, "lng": -51.133459}, {"id": "67a5f6c5647fc0b35132ed97", "name": "Rua Borges de Medeiros 87", "lat": -29.6846495, "lng": -51.1359182}, {"id": "67a5f6c5647fc0b35132ed96", "name": "Rua Pelotas 59", "lat": -29.6846959, "lng": -51.1342968}, {"id": "67a5f6c5647fc0b35132ed95", "name": "Avenida Nações Unidas. nações centro profissional", "lat": -29.6899416, "lng": -51.1329323}, {"id": "67a5f6c5647fc0b35132ed94", "name": "Avenida Nações Unidas. 2453", "lat": -29.6895685, "lng": -51.1328531}, {"id": "67a5f6c5647fc0b35132ed93", "name": "Avenida Joaquin Nabuco 280", "lat": -29.685072, "lng": -51.134425}, {"id": "67a5f6c5647fc0b35132ed92", "name": "Avenida Nações unidas. shopping Bourbon.", "lat": -29.6863844, "lng": -51.1332608}, {"id": "67a5f6c5647fc0b35132ed91", "name": "Avenida Nações Unidas. 3198", "lat": -29.6962533, "lng": -51.1338771}, {"id": "67a5f6c5647fc0b35132ed90", "name": "Avenida Nações Unidas. 3066 - 3000", "lat": -29.6947246, "lng": -51.1336689}, {"id": "67a5f6c5647fc0b35132ed8f", "name": "Avenida Nações Unidas. 2898 - 2824", "lat": -29.6935663, "lng": -51.1332967}, {"id": "67a5f6c5647fc0b35132ed8e", "name": "Rua Tapes. 1012 - 964", "lat": -29.6921951, "lng": -51.1330667}, {"id": "67a5f6c5647fc0b35132ed8d", "name": "Avenida Nações Unidas. Tumelero", "lat": -29.6906861, "lng": -51.1328793}, {"id": "67a5f6c5647fc0b35132ed8c", "name": "Avenida das Nações Unidas. 2506 - 2430", "lat": -29.6899256, "lng": -51.1327029}, {"id": "67a5f6c5647fc0b35132ed8b", "name": "Avenida Nações Unidas. 2428 - 2322", "lat": -29.6892018, "lng": -51.1325444}, {"id": "67a5f6c5647fc0b35132ed8a", "name": "Avenida Nações Unidas. 2258", "lat": -29.6883714, "lng": -51.1324203}, {"id": "67a5f6c5647fc0b35132ed89", "name": "Avenida Nações Unidas. 1904", "lat": -29.6867956, "lng": -51.1331016}, {"id": "67a5f6c5647fc0b35132ed88", "name": "Avenida Nações Unidas. 1563 - 1667", "lat": -29.6840096, "lng": -51.1341088}, {"id": "67a5f6c5647fc0b35132ed87", "name": "Praça João XXIII", "lat": -29.6834687, "lng": -51.1343384}, {"id": "67a5f6c5647fc0b35132ed7f", "name": "Avenida Pedro Adams Filho. 3185 - 3281", "lat": -29.7036276, "lng": -51.1321635}, {"id": "67a5f6c5647fc0b35132ed7e", "name": "Avenida Pedro Adams Filho. 3393", "lat": -29.7018858, "lng": -51.132192}, {"id": "67a5f6c5647fc0b35132ed78", "name": "Rua Bento Gonçalves. 1059", "lat": -29.6970263, "lng": -51.1270535}, {"id": "67a5f6c5647fc0b35132ed77", "name": "Rua Bento Gonçalves. 1334 - 1326", "lat": -29.6947394, "lng": -51.1269352}, {"id": "67a5f6c5647fc0b35132ed76", "name": "Rua Cuiabá. 2 - 92", "lat": -29.6941482, "lng": -51.1267776}, {"id": "67a5f6c5647fc0b35132ed75", "name": "Rua Bento Gonçalves. 1620 - 1540", "lat": -29.691946, "lng": -51.126849}, {"id": "67a5f6c5647fc0b35132ed74", "name": "Rua Bento Gonçalves. 1737", "lat": -29.6908827, "lng": -51.1268024}, {"id": "67a5f6c5647fc0b35132ed73", "name": "Rua Côrte Real. 355 - 281", "lat": -29.6896262, "lng": -51.1268755}, {"id": "67a5f6c5647fc0b35132ed72", "name": "Rua Major Luís Bender. 5 - 137", "lat": -29.6887139, "lng": -51.1270485}, {"id": "67a5f6c5647fc0b35132ed71", "name": "Rua Bento Gonçalves. 2176 - 2148", "lat": -29.687264, "lng": -51.1272235}, {"id": "67a5f6c5647fc0b35132ed70", "name": "Passeio calção Osvaldo Cruz", "lat": -29.6857975, "lng": -51.1296258}, {"id": "67a5f6c5647fc0b35132ed6f", "name": "Passeio Calçadão Osvaldo Cruz", "lat": -29.6856943, "lng": -51.1288231}, {"id": "67a5f6c5647fc0b35132ed6e", "name": "Passeio calçadão Osvaldo Cruz", "lat": -29.6850841, "lng": -51.127882}, {"id": "67a5f6c5647fc0b35132ed6d", "name": "Rua Bento Gonçalves.2423", "lat": -29.6850841, "lng": -51.127882}, {"id": "67a5f6c5647fc0b35132ed6c", "name": "Rua Bento Gonçalves. 2454 - 2424", "lat": -29.6848808, "lng": -51.1280805}, {"id": "67a5f6c5647fc0b35132ed6b", "name": "Rua Bento Gonçalves. 2517", "lat": -29.6843262, "lng": -51.128116}, {"id": "67a5f6c5647fc0b35132ed6a", "name": "Rua Joaquim Pedro Soares. 358 - 326", "lat": -29.6839575, "lng": -51.1265469}, {"id": "67a5f6c5647fc0b35132ed69", "name": "Praça 20 de setembro", "lat": -29.683134, "lng": -51.1277023}, {"id": "67a5f6c5647fc0b35132ed68", "name": "Praça 20 de setembro", "lat": -29.6822121, "lng": -51.1280721}, {"id": "67a5f6c5647fc0b35132ed67", "name": "Praça 20 de setembro", "lat": -29.6823429, "lng": -51.1285844}, {"id": "67a5f6c5647fc0b35132ed66", "name": "Praça 20 de setembro", "lat": -29.6834288, "lng": -51.1284114}, {"id": "67a5f6c5647fc0b35132ed65", "name": "Rua Joaquim Nabuco. 901 - 973", "lat": -29.6834288, "lng": -51.1284114}, {"id": "67a5f6c5647fc0b35132ed64", "name": "Rua Joaquim Nabuco. 764 - 752", "lat": -29.6835645, "lng": -51.1301009}, {"id": "67a5f6c5647fc0b35132ed63", "name": "Rua Joaquim Nabuco. 645 - 653", "lat": -29.6836886, "lng": -51.1309551}, {"id": "67a5f6c5647fc0b35132ed62", "name": "Rua Joaquim Nabuco. Paróquia São Luiz Gonzaga", "lat": -29.684028, "lng": -51.1322667}, {"id": "67a5f6c5647fc0b35132ed61", "name": "Rua cidade Atlântida. 210", "lat": -29.6846187, "lng": -51.1316478}, {"id": "67a5f6c5647fc0b35132ed60", "name": "Praça do imigrante", "lat": -29.6861886, "lng": -51.1300546}, {"id": "67a5f6c5647fc0b35132ed5f", "name": "Avenida Pedro Adams 5027 - 5079", "lat": -29.6878827, "lng": -51.1293602}, {"id": "67a5f6c5647fc0b35132ed5e", "name": "Rua primeiro de março. 291 - 245", "lat": -29.6869378, "lng": -51.1300918}, {"id": "67a5f6c5647fc0b35132ed5d", "name": "Rua primeiro de Março. 137 - 121", "lat": -29.6855994, "lng": -51.130465}, {"id": "67a5f6c5647fc0b35132ed5c", "name": "Rua Cinco de Abril. 581 - 635", "lat": -29.6858371, "lng": -51.1316656}, {"id": "67a5f6c5647fc0b35132ed5b", "name": "Avenida das Nações Unidas. Estação Novo Hamburgo", "lat": -29.687227, "lng": -51.1325112}, {"id": "67a5f6c5647fc0b35132ed5a", "name": "Rua Marcílio Dias. McDonald’s", "lat": -29.6880967, "lng": -51.1322493}, {"id": "67a5f6c5647fc0b35132ed59", "name": "Praça Punta del Leste", "lat": -29.6858074, "lng": -51.1333772}, {"id": "67a5f6c5647fc0b35132ed58", "name": "Avenida das Nações Unidas. 1932", "lat": -29.6855892, "lng": -51.1333349}, {"id": "67a5f6c5647fc0b35132ed57", "name": "Avenida as Nações Unidas. 806", "lat": -29.6848488, "lng": -51.1337171}, {"id": "67a5f6c5647fc0b35132ed56", "name": "Rua José patrocínio. 798 - 622", "lat": -29.6840696, "lng": -51.1369143}, {"id": "67a5f6c5647fc0b35132ed55", "name": "Rua José Patrocínio. 286 - 264", "lat": -29.6856212, "lng": -51.1411066}, {"id": "67a5f6c5647fc0b35132ed54", "name": "Rua José do Patrocínio. 501", "lat": -29.6848237, "lng": -51.1391382}, {"id": "67a5f6c5647fc0b35132ed52", "name": "Rua Borges de Medeiros. 164 - 142", "lat": -29.68391, "lng": -51.1363253}, {"id": "67a5f6c5647fc0b35132ed51", "name": "Avenida Pedro Adams Filhos. 5757. INSS", "lat": -29.6816115, "lng": -51.1303744}, {"id": "67a5f6c5647fc0b35132ed4f", "name": "Rua Lima e Silva. 277 - 339", "lat": -29.6844617, "lng": -51.1301756}, {"id": "67a5f6c5647fc0b35132ed4e", "name": "Praça do Imigrante", "lat": -29.6849015, "lng": -51.1300033}, {"id": "67a5f6c5647fc0b35132ed4d", "name": "Praça do imigrante", "lat": -29.6855685, "lng": -51.1300174}, {"id": "67a5f6c5647fc0b35132ed4a", "name": "Rua Bento Gonçalves. 2105 - 2161", "lat": -29.6877999, "lng": -51.1271719}, {"id": "67a5f6c5647fc0b35132ed49", "name": "Rua Marcílio dias. Praiô", "lat": -29.6885319, "lng": -51.123917}, {"id": "67a5f6c5647fc0b35132ed48", "name": "Rua Marcílio Dias. 1880 - 1838", "lat": -29.6885319, "lng": -51.123917}, {"id": "67a5f6c5647fc0b35132ed47", "name": "Rua Marcílio Dias. 1949 - 2005", "lat": -29.6889577, "lng": -51.121587}, {"id": "67a5f6c5647fc0b35132ed46", "name": "Avenida Dr. Maurício Cardoso", "lat": -29.6889577, "lng": -51.121587}, {"id": "67a5f6c5647fc0b35132ed45", "name": "Rua São Jerônimo. 100. condomínio Weekend", "lat": -29.6920352, "lng": -51.1155459}, {"id": "67a5f6c5647fc0b35132ed44", "name": "Rua São Jerônimo. 163 - 239", "lat": -29.6916457, "lng": -51.1157775}, {"id": "67a5f6c5647fc0b35132ed43", "name": "Rua São Jerônimo. 101", "lat": -29.6927767, "lng": -51.113737}, {"id": "67a5f6c5647fc0b35132ed42", "name": "Rua Sapiranga.", "lat": -29.6927767, "lng": -51.113737}, {"id": "67a5f6c5647fc0b35132ed41", "name": "Rua Sapiranga. 901 - 959", "lat": -29.6903604, "lng": -51.1096591}, {"id": "67a5f6c5647fc0b35132ed40", "name": "Rua Santo Ângelo. esquina Parcão.", "lat": -29.6902961, "lng": -51.1083495}, {"id": "67a5f6c5647fc0b35132ed3f", "name": "Rua Santo Ângelo. Parcão.", "lat": -29.6891741, "lng": -51.1082613}, {"id": "67a5f6c5647fc0b35132ed3e", "name": "Avenida Victor Hugo Kunz. 1551 - 1649", "lat": -29.6723033, "lng": -51.1106703}, {"id": "67a5f6c5647fc0b35132ed3d", "name": "Avenida Victor Hugo Kunz. 1420 - 1346", "lat": -29.6731706, "lng": -51.1143985}, {"id": "67a5f6c5647fc0b35132ed3c", "name": "Avenida Victor Kunz", "lat": -29.6731706, "lng": -51.1143985}, {"id": "67a5f6c5647fc0b35132ed3a", "name": "Avenida Victor Hugo Kunz. 587", "lat": -29.6763825, "lng": -51.1180212}, {"id": "67a5f6c5647fc0b35132ed39", "name": "Avenida Victor Hugo Kunz. 4283", "lat": -29.6785658, "lng": -51.1208948}, {"id": "67a5f6c5647fc0b35132ed38", "name": "Avenida Nicolau Becker. Pista skate parque Dimelo.", "lat": -29.6786896, "lng": -51.1235972}, {"id": "67a5f6c5647fc0b35132ed37", "name": "Avenida Nicolai Becker. 1014", "lat": -29.6790213, "lng": -51.1249607}, {"id": "67a5f6c5647fc0b35132ed36", "name": "Rua Andrade Neves. 15-127", "lat": -29.6788955, "lng": -51.1272349}, {"id": "67a5f6c5647fc0b35132ed35", "name": "Rua Nicolau Becker.  762", "lat": -29.6797883, "lng": -51.1287447}, {"id": "67a5f6c5647fc0b35132ed33", "name": "Rua Bento Gonçalves. 2962", "lat": -29.6805296, "lng": -51.1293569}, {"id": "67a5f6c5647fc0b35132ed32", "name": "Avenida Pedro Adams Filho 5812", "lat": -29.6813482, "lng": -51.1305354}, {"id": "67a5f6c5647fc0b35132ed31", "name": "Avenida Nicolau Becker. 436", "lat": -29.6817018, "lng": -51.1311721}, {"id": "67a5f6c5647fc0b35132ed2e", "name": "Avenida Nações Unidas", "lat": -29.6831958, "lng": -51.1346908}, {"id": "67a5f6c5647fc0b35132ed2d", "name": "Av. Nicolau Becker. 238", "lat": -29.6831512, "lng": -51.1337306}, {"id": "67a5f6c5647fc0b35132ed2c", "name": "Avenida Nicolau Becker. 244", "lat": -29.6828215, "lng": -51.1331968}]}