{"city": "Ilhabela", "areaId": "68aef97ce618bd3b8e4f2248", "count": 176, "source": "gojet-managers-map", "parkings": [{"id": "6a46b30ab641cce14feac5ad", "name": "R. dos Carijós, 128-160 - Barra Velha", "lat": -23.827329500000005, "lng": -45.3728205}, {"id": "6a0b7cc5614a03a9ef7ed8cd", "name": "R. Deolino Mariano Leite, 67-15 - Zabumba, Ilhabela - SP, 11630-000", "lat": -23.8269014, "lng": -45.37258}, {"id": "69d6a9fa582e8fb84f4c31d5", "name": "avenida Brasil, 1040 point da Lalá Ilhabela - SP 11630-000", "lat": -23.825654166666663, "lng": -45.383710666666666}, {"id": "69b87057b7006d392324f206", "name": "Próximo a Rua Olímpio Leite da Silva, 107-1 - Perequê, Ilhabela - SP, 11630-000", "lat": -23.8135863, "lng": -45.3656411}, {"id": "69b87047b7006d392324e702", "name": "Próximo a R. Crispim Dias Pinto, 241-183 - Reino, Ilhabela - SP, 11630-000", "lat": -23.8276929, "lng": -45.3584546}, {"id": "69b87001b7006d392324c174", "name": "R. Rua Angelina pinto de oliveira número 409, bairro água branca SP 11630", "lat": -23.8253854, "lng": -45.3576252}, {"id": "699618dae105c4dcadce6ad6", "name": "praça coronel Julião, 47 - vila (centro ) Ilhabela - Sp 11630-000", "lat": -23.778805499999997, "lng": -45.358529}, {"id": "699618ace105c4dcadce5ecc", "name": "rua doutor carvalho, 10 - vila (centro) Ilhabela - 11630-00", "lat": -23.778370333333335, "lng": -45.359013000000004}, {"id": "69950f5efb4f294008804143", "name": "SP-131, 34-298 - Centro, Ilhabela - SP", "lat": -23.77999903495438, "lng": -45.35864353179932}, {"id": "699444e54743885a9c04c56a", "name": "avenida expedicionária brasileira , 32", "lat": -23.7762475, "lng": -45.3574765}, {"id": "698f062189012d931bcee092", "name": "Av. Ernesto de Oliveira, 416", "lat": -23.82306181756803, "lng": -45.36123991012574}, {"id": "697eee9f22179a57e0539487", "name": "R. Jonas Vieira, 210 - Barreiro, Ilhabela - SP, 11630-000", "lat": -23.776209242699775, "lng": -45.35561799898674}, {"id": "6967f0953e570c123469e455", "name": "Av. Brasil - Piúva, Ilhabela - SP, 11630-000", "lat": -23.8296301, "lng": -45.3882273}, {"id": "6967f0463e570c123469ceb4", "name": "Av. Princesa Isabel, 2095 - casa 2 - Barra Velha, Ilhabela - SP, 11630-000", "lat": -23.8211712, "lng": -45.371084}, {"id": "69596d7f725a2b8f28ea3c54", "name": "SP-131, 1751 - Piúva, Ilhabela - SP, 11630-000", "lat": -23.83085656015618, "lng": -45.39127729833126}, {"id": "693da672e75b8fc69009d909", "name": "R. Brasília, 52 - Barra Velha, Ilhabela - SP, 11630-000", "lat": -23.8248658, "lng": -45.3771722}, {"id": "693d88e2e75b8fc690ef76fe", "name": "Rua Benedito Mariano Leite, 725 - Barra Velha, Ilhabela - SP, 11630-000", "lat": -23.8292961, "lng": -45.3684628}, {"id": "690a3c3c8b7d7fff37457707", "name": "R. da Cocaia, 191-51 - Água Branca, Ilhabela - SP, 11630-000", "lat": -23.8176384, "lng": -45.363039}, {"id": "690a2fa0ae07048c81ef57df", "name": "Av. Cel. José Vicente de Faria Lima, 1911 - Reino, Ilhabela - SP, 11630-000", "lat": -23.8245717, "lng": -45.3535061}, {"id": "690a2f84ae07048c81eeed27", "name": "Tv. Maj. Joao Lima, 93 - Ilhabela, SP, 11630-000", "lat": -23.8063604, "lng": -45.3629662}, {"id": "690a2efdae07048c81ecdcac", "name": "R. Dom Lincolin Felt Ciano, 156 - Itaguassu, Ilhabela - SP, 11630-000", "lat": -23.8056125, "lng": -45.3620999}, {"id": "690a0dea9244b80311657675", "name": "Ilha Mares Mall - Av. São João, 492 - Loja 10 - Perequê, Ilhabela - SP, 11630-000", "lat": -23.814481, "lng": -45.3697291}, {"id": "690819a2ae07048c810fe580", "name": "Rua Benedito Mariano Leite, 152 - Barra Velha, Ilhabela - SP, 11630-000", "lat": -23.8258295, "lng": -45.3726313}, {"id": "68eff9074860c6894893bbef", "name": "R. Joaquim Sampaio de Oliveira, 194 - Barra Velha, Ilhabela - SP, 11630-097", "lat": -23.8206985, "lng": -45.3653464}, {"id": "68dc69f45b21f71a0e3adc21", "name": "R. Olinda Dias Barbosa, 5 - Água Branca", "lat": -23.8254986, "lng": -45.3619752}, {"id": "68dc69da5b21f71a0e3aa4f2", "name": "R. José Senno, 175-127 - Reino, Ilhabela - SP, 11630-000", "lat": -23.8275639, "lng": -45.3528771}, {"id": "68d610edd635bed248c397ee", "name": "Av. São João, 463", "lat": -23.8146899, "lng": -45.3691082}, {"id": "68d610c0d635bed248c366f3", "name": "R. José J. da Silva, 387", "lat": -23.8010541, "lng": -45.3608597}, {"id": "68d61047d635bed248c2eb9a", "name": "Av. dos Bandeirantes, 233", "lat": -23.799196, "lng": -45.3613462}, {"id": "68d6100fd635bed248c27b0b", "name": "Av. dos Bandeirantes, 55", "lat": -23.798804, "lng": -45.3632485}, {"id": "68d60fc9d635bed248c1e949", "name": "Rua Itaquanduba, 253", "lat": -23.79795853230239, "lng": -45.36373838782311}, {"id": "68d60f2fd635bed248c09632", "name": "Av. Alm. Tamandaré, 149", "lat": -23.7974702, "lng": -45.363734}, {"id": "68d598aadc5e9789c7c28f60", "name": "Avenida Ernesto de Oliveira, 1159", "lat": -23.8245999, "lng": -45.3657487}, {"id": "68d59895dc5e9789c7c281df", "name": "Av. Ernesto de Oliveira, 878", "lat": -23.8252581, "lng": -45.363392}, {"id": "68cc2b5b34198551a3342e32", "name": "Av. Cel. José Vicente de Faria Lima, n° 15 - Perequê, Ilhabela - SP, 11630-000", "lat": -23.8158413, "lng": -45.3663468}, {"id": "68c8722ad25c157e40cd60f8", "name": "Balsa Ilha Bela 🏝️", "lat": -23.819434, "lng": -45.3763823}, {"id": "68c6103acf4c1a0f1639dacc", "name": "Velinn Hotel Santa Tereza", "lat": -23.7693835, "lng": -45.3508624}, {"id": "68c33d135e37542139b7d0e3", "name": "Pousada Bons Ventos", "lat": -23.8157815, "lng": -45.3699122}, {"id": "68c3145a5e375421399f86d4", "name": "El Pirata Burger", "lat": -23.7817687, "lng": -45.3582248}, {"id": "68c1d185f23662619c6284ac", "name": "Av. Princesa Isabel, 750", "lat": -23.8106977, "lng": -45.3661587}, {"id": "68c1caaff23662619c5d9531", "name": "Av. Brasil, 1080 - Piúva, Ilhabela - SP, 11630-000", "lat": -23.8276577, "lng": -45.3852966}, {"id": "68c1c3f7f23662619c58dbb9", "name": "SP-131, 2763 - Barra Velha, Ilhabela - SP, 11630-000", "lat": -23.8221968, "lng": -45.3765416}, {"id": "68c1c2a0f23662619c57edcc", "name": "Praça Alan Kardec", "lat": -23.8223888, "lng": -45.3751066}, {"id": "68c1c1c5f23662619c572b9f", "name": "Av. Princesa Isabel, 2384 - Barra Velha, Ilhabela - SP, 11630-000", "lat": -23.8216527, "lng": -45.373736}, {"id": "68c1bf97f23662619c555d77", "name": "Rua Benedito Mariano Leite, 216 - Barra Velha, Ilhabela - SP, 11630-300", "lat": -23.8263524, "lng": -45.372004}, {"id": "68c1bea7f23662619c54ab1f", "name": "R. Ceará, 182 - Barra Velha, Ilhabela - SP, 11630-000", "lat": -23.8263242, "lng": -45.3679736}, {"id": "68c1bce2bc6c734deb0ba293", "name": "Ilha Beer", "lat": -23.823908, "lng": -45.3705063}, {"id": "68c1bc98bc6c734deb0aa45e", "name": "Cocaia ilha bela", "lat": -23.8187414, "lng": -45.3640847}, {"id": "68c1bc75bc6c734deb09d016", "name": "Pra Cão ilha bela", "lat": -23.8210605, "lng": -45.36562}, {"id": "68c1bc4abc6c734deb0916e3", "name": "Polícia Civil ilha bela", "lat": -23.8216089, "lng": -45.3660605}, {"id": "68c1bc2abc6c734deb083873", "name": "Escola Euripedes da Silva", "lat": -23.8226952, "lng": -45.3678103}, {"id": "68c1bc06bc6c734deb072536", "name": "Ilha bela - litoral Norte", "lat": -23.82411346545736, "lng": -45.36908804413195}, {"id": "68c1b633bc6c734debedb2fb", "name": "Av. Cel. José Vicente de Faria Lima, 1163 - Reino, Ilhabela - SP, 11630-000", "lat": -23.820544578020048, "lng": -45.3572890162468}, {"id": "68c1b168bc6c734debd80b53", "name": "Rua Benedito Mariano Leite, 307", "lat": -23.8269459, "lng": -45.3711285}, {"id": "68c1ada0bc6c734debc58b32", "name": "R. Antônio Carlos Aires da Fé, 149", "lat": -23.8243116, "lng": -45.3675699}, {"id": "68c1acb3bc6c734debc15f02", "name": "Av. Ernesto de Oliveira, 847 - Água Branca, Ilhabela - SP, 11631-028", "lat": -23.825808, "lng": -45.3615222}, {"id": "68c1a6ddbc6c734deb9cc73b", "name": "Conjunto Porto Perequê, 1274", "lat": -23.814532811490196, "lng": -45.36605044657017}, {"id": "68c19fe4bc6c734deb7cd5aa", "name": "Mercado do Peixe", "lat": -23.8129323, "lng": -45.3685925}, {"id": "68c19fb8bc6c734deb7c1713", "name": "Mirante da baleia", "lat": -23.8123743, "lng": -45.3682844}, {"id": "68c182f2f65e989fc1558d3a", "name": "R. Pref. M De Araujo Carvalho, 2", "lat": -23.814019, "lng": -45.3660273}, {"id": "68c182d4f65e989fc15565f7", "name": "Praça da mangueira", "lat": -23.8174047, "lng": -45.3653269}, {"id": "68c04c122c2e1501eeaf2e82", "name": "Inovacell 2 🛴", "lat": -23.8211154, "lng": -45.369766}, {"id": "68bb6dea8043e2d467e2d665", "name": "Av. Ernesto de Oliveira, 1215", "lat": -23.8235915, "lng": -45.3667552}, {"id": "68b8df5f7835eb861aab5256", "name": "Campo do galera 1", "lat": -23.8192205, "lng": -45.3630102}, {"id": "68b8b2ed06688d818199cdb2", "name": "Campo do Galera", "lat": -23.819652, "lng": -45.3613398}, {"id": "68b8aaf206688d8181820e28", "name": "Brasa Emporio Parrilla", "lat": -23.7840924, "lng": -45.3579234}, {"id": "68b8aa8c06688d81818101e0", "name": "Câmara Municipal Ilha Bela", "lat": -23.7802184, "lng": -45.3584645}, {"id": "68b88e7ccf44b454c874543b", "name": "Praça de esportes e lazer ilha bela", "lat": -23.7733478, "lng": -45.3522632}, {"id": "68b8886ecf44b454c8700484", "name": "Dedo de Moça Restaurante", "lat": -23.7856108, "lng": -45.3583133}, {"id": "68b88859cf44b454c86ff103", "name": "Escola de Vela portão 2", "lat": -23.7866505, "lng": -45.3613687}, {"id": "68b88840cf44b454c86fdc98", "name": "Escola de Vela Lars Grael", "lat": -23.7873638, "lng": -45.3617271}, {"id": "68b88829cf44b454c86fcc4d", "name": "Rua francisco gomes da silva prado, 186", "lat": -23.7880219, "lng": -45.3622612}, {"id": "68b8873acf44b454c86f10cd", "name": "R. São Sebastião, 3", "lat": -23.7889193, "lng": -45.3623571}, {"id": "68b88710cf44b454c86ef39d", "name": "Píer Praia do Engenho D’água", "lat": -23.7900418, "lng": -45.3628365}, {"id": "68b886fecf44b454c86ee6a7", "name": "Paraíso da Castanheira", "lat": -23.7909493, "lng": -45.363376}, {"id": "68b886cfcf44b454c86ec6de", "name": "Engenho D’ÁGUA", "lat": -23.7917095, "lng": -45.3637079}, {"id": "68b886b7cf44b454c86eb764", "name": "Exposição paixão de Cristo", "lat": -23.7932204, "lng": -45.3645062}, {"id": "68b8869ccf44b454c86ea23a", "name": "Exposição de Gilmar Pinna", "lat": -23.7938481, "lng": -45.3646467}, {"id": "68b88676cf44b454c86e8a53", "name": "Beach Tennis Joaquim", "lat": -23.8005363, "lng": -45.3647472}, {"id": "68b8862ecf44b454c86e5738", "name": "Av. Alm. Tamandaré, 621", "lat": -23.8012425, "lng": -45.3649819}, {"id": "68b88519cf44b454c86d8b3d", "name": "Av. Alm. Tamandaré, 6", "lat": -23.8025535, "lng": -45.3649196}, {"id": "68b751dd66552f03abf3def1", "name": "Av. Princesa Isabel, 246", "lat": -23.8059318, "lng": -45.3652035}, {"id": "68b749be66552f03abef1a7f", "name": "Av. Princesa Isabel, 571", "lat": -23.8091747, "lng": -45.3653792}, {"id": "68b7484566552f03abee1a77", "name": "Av. Princesa Isabel, 658", "lat": -23.8100566, "lng": -45.3657849}, {"id": "68b5ae9d1f7970d2d237d848", "name": "EXCLUSIVE - IMOBILIARIA - BALSA - Ilhabela, SP, 11630-000", "lat": -23.818667427297257, "lng": -45.3764332830906}, {"id": "68af1dc7e56a5bc334cace4f", "name": "Itaquanduba, Ilhabela - SP", "lat": -23.79624, "lng": -45.3656}, {"id": "68af1daae56a5bc334ca6c64", "name": "R. Ernani de Azevedo, 27 - Itaquanduba, Ilhabela - SP, 11630-000", "lat": -23.79955, "lng": -45.36039}, {"id": "68af1d73e56a5bc334c9ba71", "name": "R. Alice Pinto Gouveia, 105 - Perequê, Ilhabela - SP", "lat": -23.80508, "lng": -45.36424}, {"id": "68af1d4ee56a5bc334c8dc44", "name": "Tv. Maj. Joao Lima, 91 - Ilhabela, SP, 11630-000", "lat": -23.80607, "lng": -45.36433}, {"id": "68af1c66e56a5bc334c65f5b", "name": "R. Piauí, 196 - Barra Velha, Ilhabela - SP, 11630-000", "lat": -23.82351, "lng": -45.37937}, {"id": "68af1b35e56a5bc334c371ab", "name": "R. Piauí, 368 - Barra Velha, Ilhabela - SP, 11630-031", "lat": -23.82573, "lng": -45.3803}, {"id": "68af1ab6e56a5bc334c0d4c0", "name": "R. Piauí, 353 - Barra Velha, Ilhabela - SP, 11630-000", "lat": -23.82514, "lng": -45.38012}, {"id": "68af19e2e56a5bc334bd2304", "name": "R. Piauí, 325 - Barra Velha, Ilhabela - SP, 11630-000", "lat": -23.82468, "lng": -45.37986}, {"id": "68af19aee56a5bc334bc9b7c", "name": "R. Piauí, 20 - Ilhabela, SP, 11630-000", "lat": -23.82432, "lng": -45.37963}, {"id": "68af194ce56a5bc334bb487c", "name": "Av. Força Expedicionária Brasileira, 820 - Praia de Santa Tereza, Ilhabela - SP, 11630-000", "lat": -23.77252, "lng": -45.3516}, {"id": "68af194ce56a5bc334bb487b", "name": "Av. Força Expedicionária Brasileira, 768 - Praia Santa Tereza, Ilhabela - SP, 11630-000", "lat": -23.77298, "lng": -45.35189}, {"id": "68af194ce56a5bc334bb487a", "name": "Av. Força Expedicionária Brasileira, 581 - Santa Tereza, Ilhabela - SP, 11630-000", "lat": -23.774, "lng": -45.35303}, {"id": "68af194ce56a5bc334bb4879", "name": "Av. Força Expedicionária Brasileira, 260 - Santa Tereza, Ilhabela - SP, 11635-300", "lat": -23.77538, "lng": -45.35595}, {"id": "68af194ce56a5bc334bb4878", "name": "Av. Força Expedicionária Brasileira, 299 - Barreiro, Ilhabela - SP, 11630-000", "lat": -23.77493, "lng": -45.35546}, {"id": "68af194ce56a5bc334bb4877", "name": "R. Francisco Gomes da Silva Prado, 2 - Barreiro, Ilhabela - SP, 11630-000", "lat": -23.77487, "lng": -45.35486}, {"id": "68af194ce56a5bc334bb4876", "name": "SP-131, 4905 - Santa Tereza, Ilhabela - SP, 11630-000", "lat": -23.7744, "lng": -45.35383}, {"id": "68af194ce56a5bc334bb4873", "name": "Av. Força Expedicionária Brasileira, 125 - Santa Tereza, Ilhabela - SP, 11630-000", "lat": -23.77558, "lng": -45.3574}, {"id": "68af194ce56a5bc334bb486b", "name": "R. Antônio Lisboa Alves, 76 - Vila, Ilhabela - SP, 11630-000", "lat": -23.77941, "lng": -45.35743}, {"id": "68af194ce56a5bc334bb4868", "name": "Av. Pedro Paulo de Moraes, 250 - Saco da Capela, Ilhabela - SP, 11630-000", "lat": -23.78315, "lng": -45.35794}, {"id": "68af194ce56a5bc334bb4864", "name": "Av. Pedro de Paula Moraes, 570 - Saco da Capela, Ilhabela - SP, 11630-000", "lat": -23.78598, "lng": -45.35894}, {"id": "68af194ce56a5bc334bb4861", "name": "Av. Pedro de Paula Moraes, 663 - Saco da Capela, Ilhabela - SP, 11630-000", "lat": -23.78696, "lng": -45.35959}, {"id": "68af194ce56a5bc334bb485f", "name": "R. Caraguatatuba, 65 - Pequeá, Ilhabela - SP, 11630-000", "lat": -23.78854, "lng": -45.36137}, {"id": "68af194ce56a5bc334bb485e", "name": "R. Ubatuba, 89 - Pequeá, Ilhabela - SP, 11630-000", "lat": -23.78812, "lng": -45.36095}, {"id": "68af194ce56a5bc334bb485d", "name": "Av. Pedro de Paula Moraes, 1006 - Saco da Capela, Ilhabela - SP, 11630-000", "lat": -23.7893, "lng": -45.36217}, {"id": "68af194ce56a5bc334bb4857", "name": "Eng. d'Água 111", "lat": -23.79341, "lng": -45.36334}, {"id": "68af194ce56a5bc334bb4856", "name": "Eng. d Água, Ilhabela1 - SP, 11630-000", "lat": -23.79295, "lng": -45.36376}, {"id": "68af194ce56a5bc334bb4854", "name": "Eng. d Água 07", "lat": -23.79457, "lng": -45.36429}, {"id": "68af194ce56a5bc334bb4853", "name": "Av. Pedro de Paula Moraes, 1551 - Eng. d'Água, Ilhabela - SP, 11630-000", "lat": -23.79498, "lng": -45.36359}, {"id": "68af194ce56a5bc334bb4852", "name": "Alameda Baepi II, 47 - Itaquanduba, Ilhabela - SP, 11634-008", "lat": -23.7958, "lng": -45.36318}, {"id": "68af194ce56a5bc334bb4851", "name": "Av. Alm. Tamandaré, 33 - Itaquanduba, Ilhabela - SP, 11634-000", "lat": -23.79597, "lng": -45.36369}, {"id": "68af194ce56a5bc334bb484f", "name": "Av. dos Bandeirantes, 10 - Itaquanda, Ilhabela - SP, 11630-000", "lat": -23.79888, "lng": -45.36518}, {"id": "68af194ce56a5bc334bb484c", "name": "R. Pedro Pinto, 81 - Itaquanda, Ilhabela - SP, 11630-000", "lat": -23.79738, "lng": -45.36291}, {"id": "68af194ce56a5bc334bb484a", "name": "R. Pedro Pinto, 250 - Itaquanduba, Ilhabela - SP, 11630-000", "lat": -23.79744, "lng": -45.36195}, {"id": "68af194ce56a5bc334bb4849", "name": "SP-131, 359 - Itaquanda, Ilhabela - SP, 11630-000", "lat": -23.79908, "lng": -45.36406}, {"id": "68af194ce56a5bc334bb4847", "name": "R. Alzira Simões Bertini, 160-236 - Itaquanda, Ilhabela - SP, 11630-000", "lat": -23.799, "lng": -45.36214}, {"id": "68af194ce56a5bc334bb4846", "name": "R. Alzira Simões Bertini - Itaquanduba, Ilhabela - SP, 11630-000", "lat": -23.79747, "lng": -45.36057}, {"id": "68af194ce56a5bc334bb4845", "name": "R. Jacob Eduardo Toedtli, 324 - Itaquanduba, Ilhabela - SP, 11630-000", "lat": -23.79795, "lng": -45.35975}, {"id": "68af194ce56a5bc334bb4843", "name": "Av. Alm. Tamandaré, 468 - Itaguassu, Ilhabela - SP, 11630-000", "lat": -23.79973, "lng": -45.36493}, {"id": "68af194ce56a5bc334bb4841", "name": "R. José J. da Silva, 271 - Itaguassu, Ilhabela - SP, 11630-000", "lat": -23.8001, "lng": -45.36231}, {"id": "68af194ce56a5bc334bb4840", "name": "R. Euclides da Cunha, 22-38 - Itaquanda, Ilhabela - SP, 11630-000", "lat": -23.80065, "lng": -45.36179}, {"id": "68af194ce56a5bc334bb483e", "name": "Av. dos Bandeirantes, 439 - Itaquanduba, Ilhabela - SP, 11630-000", "lat": -23.80041, "lng": -45.36025}, {"id": "68af194ce56a5bc334bb4839", "name": "R. Arapongas, 117 - Ilhabela, SP, 11630-000", "lat": -23.80283, "lng": -45.36332}, {"id": "68af194ce56a5bc334bb4838", "name": "R. Morro da Cruz, 474 - Itaguassu, Ilhabela - SP, 11630-000", "lat": -23.80262, "lng": -45.36193}, {"id": "68af194ce56a5bc334bb4837", "name": "R. Arapongas, 294 - Itaguassu, Ilhabela - SP, 11630-000", "lat": -23.80316, "lng": -45.36207}, {"id": "68af194ce56a5bc334bb4835", "name": "R. Morro Vista, 9 - Itaguassu, Ilhabela - SP, 11630-000", "lat": -23.80389, "lng": -45.3627}, {"id": "68af194ce56a5bc334bb4834", "name": "Av. Alm. Tamandaré, 887 - Itaguassu, Ilhabela - SP, 11630-000", "lat": -23.80362, "lng": -45.36458}, {"id": "68af194ce56a5bc334bb4832", "name": "Av. Princesa Isabel, 132 - Perequê, Ilhabela - SP, 11630-000", "lat": -23.80494, "lng": -45.36542}, {"id": "68af194ce56a5bc334bb4831", "name": "Praia do Perequê - Perequê, Ilhabela - SP, 11630-000", "lat": -23.80528, "lng": -45.36536}, {"id": "68af194ce56a5bc334bb482f", "name": "Av. Princesa Isabel, 336 - Perequê, Ilhabela - SP, 11630-000", "lat": -23.80704, "lng": -45.36524}, {"id": "68af194ce56a5bc334bb4828", "name": "Av. Princesa Isabel, 988 - Perequê, Ilhabela - SP, 11630-000", "lat": -23.8124, "lng": -45.36642}, {"id": "68af194ce56a5bc334bb4824", "name": "Av. São João, 84 - Perequê, Ilhabela - SP, 11630-000", "lat": -23.81148, "lng": -45.36689}, {"id": "68af194ce56a5bc334bb4822", "name": "Av: SÃO JOÃO, 310, Av. São João, 310 - Perequê, Ilhabela - SP, 11630-000", "lat": -23.81331, "lng": -45.36835}, {"id": "68af194ce56a5bc334bb4821", "name": "Av. Princesa Isabel, 1104 - Perequê, Ilhabela - SP, 11630-000", "lat": -23.81314, "lng": -45.36637}, {"id": "68af194ce56a5bc334bb4820", "name": "Av. Princesa Isabel, 1101 - Perequê, Ilhabela - SP, 11630-000", "lat": -23.81345, "lng": -45.36609}, {"id": "68af194ce56a5bc334bb481c", "name": "Av. Princesa Isabel, 2284 - Perequê, Ilhabela - SP, 11630-000", "lat": -23.81635, "lng": -45.36683}, {"id": "68af194ce56a5bc334bb481b", "name": "Av. São João, 512 - Perequê, Ilhabela - SP, 11633-036", "lat": -23.81475, "lng": -45.36961}, {"id": "68af194ce56a5bc334bb481a", "name": "Av. São João, 462 - Perequê, Ilhabela - SP, 11630-000", "lat": -23.81435, "lng": -45.36912}, {"id": "68af194ce56a5bc334bb4818", "name": "Rua do Guajamu, 574 - Perequê, Ilhabela - SP, 11630-000", "lat": -23.81512, "lng": -45.36975}, {"id": "68af194ce56a5bc334bb4817", "name": "Rua Geraldo procopio da c, Rua Prefeito. Geraldo Augusto P.C. Junqueira - Perequê, Ilhabela - SP, 11630-000", "lat": -23.8181, "lng": -45.36784}, {"id": "68af194ce56a5bc334bb4815", "name": "Av. Princesa Isabel, 1603B - Perequê, Ilhabela - SP, 11630-000", "lat": -23.81778, "lng": -45.36711}, {"id": "68af194ce56a5bc334bb4814", "name": "R. do Guaiá, 151 - Ilhabela, SP, 11630-000", "lat": -23.81546, "lng": -45.37036}, {"id": "68af194ce56a5bc334bb4813", "name": "Perequê, Ilhabela - SP, 11630-000", "lat": -23.81641, "lng": -45.37096}, {"id": "68af194ce56a5bc334bb4812", "name": "Rua Prefeito. Geraldo Augusto P.C. Junqueira, 351 - Perequê, Ilhabela - SP, 11630-000", "lat": -23.8173, "lng": -45.37146}, {"id": "68af194ce56a5bc334bb4811", "name": "R. Caminho Perequê, 188-246 - Piúva, Ilhabela - SP, 11630-000", "lat": -23.821, "lng": -45.37261}, {"id": "68af194ce56a5bc334bb4810", "name": "R. Caminho Perequê, 160 - Piúva, Ilhabela - SP, 11630-000", "lat": -23.82071, "lng": -45.37309}, {"id": "68af194ce56a5bc334bb480e", "name": "R. Benjamim Pinto de Souza, 1763 - Barra Velha, Ilhabela - SP, 11633-002", "lat": -23.81943, "lng": -45.36799}, {"id": "68af194ce56a5bc334bb480d", "name": "Av. Princesa Isabel, 1980 - Barra Velha, Ilhabela - SP, 11630-000", "lat": -23.8203, "lng": -45.36975}, {"id": "68af194ce56a5bc334bb480a", "name": "Av. Princesa Isabel, 2660 - Barra Velha, Ilhabela - SP, 11630-000", "lat": -23.82143, "lng": -45.37215}, {"id": "68af194ce56a5bc334bb4808", "name": "CAPI - Centro de Apoio Pedagógico de Ilhabela - Av. Tiradentes, 300 - Piúva, Ilhabela - SP, 11630-000", "lat": -23.81974, "lng": -45.37382}, {"id": "68af194ce56a5bc334bb4804", "name": "Av. Tiradentes, 5-1 - Barra Velha, Ilhabela - SP, 11630-000", "lat": -23.8202, "lng": -45.37611}, {"id": "68af194ce56a5bc334bb4803", "name": "Av. Princesa Isabel, n2808 - Barra Velha, Ilhabela - SP, 11630-000", "lat": -23.82052, "lng": -45.37675}, {"id": "68af194ce56a5bc334bb4801", "name": "Av. Prof7 Malaquias de O. Freitas, 45 - Barra Velha, Ilhabela - SP, 11630-000", "lat": -23.82278, "lng": -45.37767}, {"id": "68af194ce56a5bc334bb47fe", "name": "Rua Carlos Rizzini, 167 - Piúva, Ilhabela - SP, 11630-000", "lat": -23.82133, "lng": -45.37493}, {"id": "68af194ce56a5bc334bb47fd", "name": "R. Mato Grosso, 148 - Barra Velha, Ilhabela - SP, 11630-000", "lat": -23.82171, "lng": -45.37788}, {"id": "68af194ce56a5bc334bb47fa", "name": "Av. Brasil, 81 - Barra Velha, Ilhabela - SP, 11630-000", "lat": -23.82221, "lng": -45.37785}, {"id": "68af194ce56a5bc334bb47f9", "name": "R. Sergipe, 11 - Piúva, Ilhabela - SP, 11630-000", "lat": -23.82223, "lng": -45.37958}, {"id": "68af194ce56a5bc334bb47f8", "name": "R. Piauí, 112 - Barra Velha, Ilhabela - SP, 11630-000", "lat": -23.82305, "lng": -45.37907}, {"id": "68af194ce56a5bc334bb47f6", "name": "R. Pernambuco - Barra Velha, Ilhabela - SP, 11640-053", "lat": -23.82332, "lng": -45.37476}, {"id": "68af194ce56a5bc334bb47f4", "name": "R. Alagoas, 345 - Barra Velha, Ilhabela - SP, 11630-000", "lat": -23.82369, "lng": -45.37614}, {"id": "68af194ce56a5bc334bb47f2", "name": "Av. Prof1 Malaquias de O. Freitas, 154 - Barra Velha, Ilhabela - SP, 11630-043", "lat": -23.82336, "lng": -45.37836}, {"id": "68af194ce56a5bc334bb47f1", "name": "Av. Prof2 Malaquias de O. Freitas, 372 - Barra Velha, Ilhabela - SP, 11630-000", "lat": -23.82519, "lng": -45.37954}, {"id": "68af194ce56a5bc334bb47f0", "name": "R. Antônio Lisboa Alves, 244 - Barreiro, Ilhabela - SP, 11630-000", "lat": -23.77984, "lng": -45.35578}, {"id": "68af194ce56a5bc334bb47ef", "name": "Av. Prof3 Malaquias de O. Freitas, 0096 - Barra Velha, Ilhabela - SP, 11630-000", "lat": -23.82485, "lng": -45.37934}, {"id": "68af194ce56a5bc334bb47ee", "name": "R. Antônio Lisboa Alves, 329 - Barreiro, Ilhabela - SP, 11630-000", "lat": -23.77945, "lng": -45.35514}, {"id": "68af194ce56a5bc334bb47ec", "name": "R. Francisco Gomes da Silva Prado, 99 - Vila, Ilhabela - SP, 11630-000", "lat": -23.77541, "lng": -45.35397}, {"id": "68af194ce56a5bc334bb47eb", "name": "R. Antônio Lisboa Alves, 469 - Ilhabela, SP, 11630-000", "lat": -23.779, "lng": -45.35396}, {"id": "68af194ce56a5bc334bb47ea", "name": "Av. Prof4 Malaquias de O. Freitas, 296 - Barra Velha, Ilhabela - SP, 11630-000", "lat": -23.82447, "lng": -45.37911}, {"id": "68af194ce56a5bc334bb47e9", "name": "R. Francisco Gomes da Silva Prado, 167 - Barreiro, Ilhabela - SP, 11630-000", "lat": -23.77578, "lng": -45.35351}, {"id": "68af194ce56a5bc334bb47e8", "name": "Viela Projetada Cento e Vinte e Três, 986 - Barreiro, Ilhabela - SP, 11630-000", "lat": -23.77109, "lng": -45.35102}, {"id": "68af194ce56a5bc334bb47e7", "name": "Tv. Alcatrazes - Barreiro, Ilhabela - SP, 11630-000", "lat": -23.77022, "lng": -45.35084}, {"id": "68af194ce56a5bc334bb47e6", "name": "Av. Prof6 Malaquias de O. Freitas, 448 - Barra Velha, Ilhabela - SP, 11630-000", "lat": -23.82571, "lng": -45.37982}]}