{"city": "Matinhos", "areaId": "6903959e4a51c49c7a0f7023", "count": 6, "source": "gojet-managers-map", "parkings": [{"id": "69fbc2407b2dec4e99ed1346", "name": "Praia Brava Caiobá", "lat": -25.8265076, "lng": -48.5341111}, {"id": "69fb943e0d6592d4b861740d", "name": "Av. Atlântica N5482", "lat": -25.8324735, "lng": -48.5368054}, {"id": "69fb94050d6592d4b8613326", "name": "Av. Atlântica N 948", "lat": -25.8351771, "lng": -48.5374532}, {"id": "69fb93c10d6592d4b860d5e5", "name": "Rua Cambara N2350", "lat": -25.841858, "lng": -48.539215}, {"id": "69fb93c10d6592d4b860d5e4", "name": "Av. Augusto Blitzkow, N253", "lat": -25.8434006, "lng": -48.5394531}, {"id": "69fb93c10d6592d4b860d5e3", "name": "Itapoá N 16", "lat": -25.8192419, "lng": -48.5309384}]}