{"city": "Itanhaem", "areaId": "691daaddbd6bf79e82c06895", "count": 100, "source": "gojet-managers-map", "parkings": [{"id": "69e296f0881362c926c4d3a6", "name": "Rua Urcezino Ferreira, 30 - Guaraú, Itanhaém - SP, 11740-000", "lat": -24.183617, "lng": -46.791473}, {"id": "69e24bb78610423fc31aff39", "name": "R. Alziro Ramiro dos Santos, 202 - Boca da Barra, Itanhaém - SP, 11740-000", "lat": -24.183064, "lng": -46.792666}, {"id": "69e167bc8610423fc32bdf8c", "name": "Praça kardec rangel R. Silvia Maria dos Passos, 105-87 - Praia dos Sonhos, Itanhaém - SP, 11740-000", "lat": -24.192359, "lng": -46.80633}, {"id": "69e1678d8610423fc32bb6e5", "name": "Parque Turístico Amazônia Paulista - Rua Urcezino Ferreira, 140 - Baixio, Itanhaém - SP, 11740-000", "lat": -24.183997, "lng": -46.791904}, {"id": "69e114e90d0344d0176f09ba", "name": "Praça Kardec Rangel Veloso, 70 - Praia dos Sonhos", "lat": -24.191913, "lng": -46.806411}, {"id": "69d021130c78b2bf95be22a0", "name": "Studio Linuá - Av. Dr. Edson Batista de Andrade, Itanhaém - SP, 11746-210", "lat": -24.200151, "lng": -46.815692}, {"id": "69c2f5285a14d6b5b56aeb83", "name": "Condominio residecial satelite Av. Rui Barbosa, 1870 - Guarda Civil, Itanhaém - SP, 11740-464", "lat": -24.174182, "lng": -46.769872}, {"id": "69c2f4e25a14d6b5b56ac48f", "name": "Condominio residencial satélite Av. Rui Barbosa, 1862 - Guarda Civil, Itanhaém - SP, 11740-000", "lat": -24.174398, "lng": -46.770363}, {"id": "69bf24ea5d0a8b62a52911ee", "name": "Calçadão Itanhaém", "lat": -24.1835042, "lng": -46.7888524}, {"id": "69bd9e5a5d0a8b62a5c7376d", "name": "condomínio bem eztar a R. Dr. Egas Muniz de Arruda Botelho - Satélite, Itanhaém - SP, 11740-000", "lat": -24.178503, "lng": -46.775301}, {"id": "69bd9e475d0a8b62a5c72f05", "name": "bombeiro R. Olímpia, 2 - Itanhaem, Itanhaém - SP, 11740-000", "lat": -24.178566, "lng": -46.773131}, {"id": "69bd9e345d0a8b62a5c71f5d", "name": "quiosque quebra onda a R. Olímpia, 1511-1513 - Satélite, Itanhaém - SP, 11740-000", "lat": -24.177976, "lng": -46.771924}, {"id": "69bd9e125d0a8b62a5c6fb79", "name": "Clube Melissa Itanhaem - Praça Carlos Botelho, 231 - loja 4 - Centro, Itanhaém - SP, 11740-000", "lat": -24.182938, "lng": -46.788505}, {"id": "69bd9dec5d0a8b62a5c6ce6a", "name": "restaurante caseiro 12 Cidade Itanhaém - Praia dos Pescadores, Itanhaém - SP, 11740-", "lat": -24.192183, "lng": -46.797452}, {"id": "69bd9dd75d0a8b62a5c6a508", "name": "R. dos Fundadores, 267-221 - Praia dos Sonhos, Itanhaém - SP, 11740-000", "lat": -24.196442, "lng": -46.807145}, {"id": "69bd9dc65d0a8b62a5c652c0", "name": "Pusada porto raiz R. André Ricardo Munhoz, 435 - Praia dos Sonhos, Itanhaém - SP, 11740-000", "lat": -24.194972, "lng": -46.806505}, {"id": "69bd9db35d0a8b62a5c62027", "name": "pusada paranambucoR.270 Ipiranga - Praia dos Sonhos, Itanhaém - SP, 11740-000", "lat": -24.196752, "lng": -46.805143}, {"id": "69b9add3a27998002bc22fa7", "name": "a Av. Carlos Gomes Camargo, 2021 - Jardim Oasis, Itanhaém - SP, 11740-000", "lat": -24.175938, "lng": -46.770866}, {"id": "69b9ad9ba27998002bc1fcad", "name": "satelite esporte cluba R. Emídio de Souza, 138 - Satélite, Itanhaém - SP, 11740-000", "lat": -24.177064, "lng": -46.77276}, {"id": "69b839adb7006d3923c3ed43", "name": "restaurante caseiro 12 Cidade Itanhaém - Praia dos Pescadores, Itanhaém - SP, 11740-000", "lat": -24.192183, "lng": -46.797452}, {"id": "69b83971b7006d3923c364f7", "name": "pousada ABU DHABI Praia dos Sonhos, Itanhaém - SP, 11740-000", "lat": -24.19710868159844, "lng": -46.80432334542275}, {"id": "69b83937b7006d3923c2ee6e", "name": "cafeteria praia do Sonhos Az Modas - Praia dos Sonhos, Itanhaém - SP, 11740-000", "lat": -24.194822, "lng": -46.804339}, {"id": "69b83926b7006d3923c2b6d5", "name": "igreja catolica R. Europa, 88 - Praia dos Sonhos, Itanhaém - SP, 11740-000", "lat": -24.194634, "lng": -46.802786}, {"id": "69b8390fb7006d3923c2a5a8", "name": "restaurante Praia dos Sonhos n363 Pescadores, Itanhaém - SP, 11740-000", "lat": -24.19226, "lng": -46.797558}, {"id": "69b838feb7006d3923c298fc", "name": "bar restaurante vegas n 230Av. Pres. Kennedy - Praia dos Sonhos, Itanhaém - SP, 11740-000", "lat": -24.1911, "lng": -46.797643}, {"id": "69aca38cc74d9cbb56dd2a6f", "name": "Praia dos Sonhos n363 Pescadores, Itanhaém - SP, 11740-000", "lat": -24.19226, "lng": -46.797558}, {"id": "69aca33ec74d9cbb56dcdb31", "name": "R. Europa, 88 - Praia dos Sonhos, Itanhaém - SP, 11740-000", "lat": -24.194634, "lng": -46.802786}, {"id": "699a169b310167b85cc171d4", "name": "Barco de Pesca Xerife - Centro - Itanhaém", "lat": -24.1897067, "lng": -46.7975655}, {"id": "6999e6a4310167b85c9bb810", "name": "Av. Pres. Kennedy, 157-125 - Praia dos Sonhos, Itanhaém - SP, 11740-000", "lat": -24.189921, "lng": -46.797627}, {"id": "6999e68b310167b85c9ba7bc", "name": "Rua nove de julho n 645 Boca da Barra, Itanhaém - SP, 11740-000 -24.186901,-46.794740", "lat": -24.186901, "lng": -46.79474}, {"id": "69990cceae0c7ac1d1810ec2", "name": "RESORT N:1000 Centro, Itanhaém - SP, 11740-000", "lat": -24.180768, "lng": -46.779742}, {"id": "69990cacae0c7ac1d180f800", "name": "AUTO ESCOLA CLASSE AB N 867 Itanhaém litoral sul - Three-Bedroo m House - Centro, Itanhaém - SP, 11740-000", "lat": -24.18136, "lng": -46.781281}, {"id": "69990c92ae0c7ac1d180f455", "name": "R. João Alves Ferreira - Centro, Itanhaém - SP, 11740-000", "lat": -24.179971, "lng": -46.778337}, {"id": "69990af1ae0c7ac1d17edae3", "name": "Av. Condessa de Vimieiros, 1417 - Centro, Itanhaém - SP, 11740-000", "lat": -24.178848, "lng": -46.77634}, {"id": "69990ad8ae0c7ac1d17e9bfe", "name": "Av. Jaime de Castro, 505-405 - Satélite, Itanhaém - SP, 11740-000", "lat": -24.177287, "lng": -46.776773}, {"id": "69990abbae0c7ac1d17e5efa", "name": "Av. Raul Cury, 89-1 - Cibratel I, Itanhaém - SP,", "lat": -24.198101, "lng": -46.81202}, {"id": "69493e32223734f8dc65f3f3", "name": "Quiosque Canoa Quebrada - Av. Pres. Vargas, 620 - Centro, Itanhaém - SP", "lat": -24.182663, "lng": -46.78065}, {"id": "69493e0f223734f8dc65ee5c", "name": "Av. Condessa de Vimieiros, 869-751 - Centro, Itanhaém", "lat": -24.1841847, "lng": -46.7865158}, {"id": "69493df6223734f8dc65e98e", "name": "Centro Clínico Peruíbe - Avenida Condessa de Vimieiros, 385 - Centro, Itanhaém - SP Cep:, R. Leopoldino Araújo, 213 - Centro, Itanhaém", "lat": -24.183299, "lng": -46.7852944}, {"id": "69493ddc223734f8dc65e6e2", "name": "Av. Condessa de Vimieiros, 470 - Centro, Itanhaém", "lat": -24.1832329, "lng": -46.7843627}, {"id": "69493dc4223734f8dc65e27a", "name": "Av. Condessa de Vimieiros, 49-45 - Centro, Itanhaém", "lat": -24.1839186, "lng": -46.7862741}, {"id": "69493d9f223734f8dc65de93", "name": "Av. Pres. Vargas, 443-335 - Centro, Itanhaém", "lat": -24.182027, "lng": -46.779578}, {"id": "69493d5e223734f8dc65d53f", "name": "Av. Pres. Vargas, 443-335 - Centro, Itanhaém - SP", "lat": -24.181605, "lng": -46.778739}, {"id": "69493d3e223734f8dc65ccdd", "name": "Ita Temakeria E Sushi - Av. Condessa de Vimieiros, 631 - Centro, Itanhaém", "lat": -24.1823417, "lng": -46.783387}, {"id": "69470331e75b8fc69089e73a", "name": "Guarda-Vidas - Av. Pres. Kennedy - Praia dos Pescadores, Itanhaém - SP", "lat": -24.193171, "lng": -46.797406}, {"id": "69470319e75b8fc69089e1ef", "name": "Av. João Batista Leal, 08 - Centro, Itanhaém", "lat": -24.183736, "lng": -46.7893308}, {"id": "694702fde75b8fc69089da44", "name": "R. Antônio Mendes Júnior, 2 - Praia dos Sonhos, Itanhaém - SP", "lat": -24.190067, "lng": -46.796565}, {"id": "694702b9e75b8fc69089c743", "name": "Av. Pedro de Toledo, 129-119 - Boca da Barra, Itanhaém", "lat": -24.1851433, "lng": -46.790627}, {"id": "6947025ee75b8fc6908948dd", "name": "Av. Pres. Vargas, 45 - Boca da Barra, Itanhaém -", "lat": -24.187362, "lng": -46.790741}, {"id": "69470246e75b8fc690894201", "name": "Defensoria Pública do Estado - Av. Pedro de Toledo, 196 - Boca da Barra, Itanhaém", "lat": -24.1859226, "lng": -46.7915718}, {"id": "69470211e75b8fc69089268f", "name": "Av. Pres. Vargas, 1573-1499 - Centro, Itanhaém - SP", "lat": -24.186935, "lng": -46.789393}, {"id": "694701f8e75b8fc690891fbf", "name": "Boca da Barra, Itanhaém", "lat": -24.1876139, "lng": -46.7937253}, {"id": "694701bee75b8fc690891466", "name": "Av. Pres. Vargas, 1421-1403 - Centro, Itanhaém -", "lat": -24.186342, "lng": -46.788096}, {"id": "6947017ee75b8fc69088fdcb", "name": "Av. Pres. Vargas, 1272-1280 - Centro, Itanhaém - SP", "lat": -24.185744, "lng": -46.786818}, {"id": "694700dfe75b8fc69088d7ce", "name": "Árvore de Natal Itanhaém - Boca da Barra, Itanhaém", "lat": -24.1871894, "lng": -46.7925488}, {"id": "694700bbe75b8fc69088c9d8", "name": "Av. Pres. Vargas, 692 - Centro, Itanhaém - SP", "lat": -24.1852, "lng": -46.785757}, {"id": "6947007fe75b8fc690885b4a", "name": "R. David Longo, 2346 - Satélite, Itanhaém - SP", "lat": -24.1756436, "lng": -46.767618}, {"id": "6947003de75b8fc690880491", "name": "R. Cap. Mendes, 136-174 - Boca da Barra, Itanhaém", "lat": -24.1863764, "lng": -46.7915269}, {"id": "69470028e75b8fc6908800b8", "name": "Av. Pres. Vargas, 910 - Centro, Itanhaém - SP", "lat": -24.184175, "lng": -46.783732}, {"id": "69470009e75b8fc69087fc13", "name": "Edifício Serenity - Av. Condessa de Vimieiros, 459 - Centro, Itanhaém", "lat": -24.1858476, "lng": -46.7899323}, {"id": "6946fff1e75b8fc69087f6b7", "name": "Quiosque Litoral - Av. Pres. Vargas, 1032 - Centro, Itanhaém - SP", "lat": -24.184709, "lng": -46.784734}, {"id": "6946ffd7e75b8fc69087f2eb", "name": "Av. Condessa de Vimieiros, 79 - Centro, Itanhaém", "lat": -24.184612, "lng": -46.7880162}, {"id": "6946ff95e75b8fc690879839", "name": "Av. Pres. Vargas, 1142 - Centro, Itanhaém - SP, 11740-000", "lat": -24.183167, "lng": -46.781647}, {"id": "6946ff75e75b8fc69087632f", "name": "Av. Condessa de Vimieiros, 58-62 - Centro, Itanhaém", "lat": -24.1850595, "lng": -46.7885959}, {"id": "6946ff5be75b8fc690875505", "name": "Quiosque Ventania - Av. Pres. Vargas, 681-791 - Centro, Itanhaém - SP", "lat": -24.183705, "lng": -46.782743}, {"id": "6946ff45e75b8fc690872db4", "name": "Agibank - R. Antonio Olivio de Araujo, 181 - Centro, Itanhaém", "lat": -24.1844652, "lng": -46.7873932}, {"id": "6946f890e75b8fc69081c82a", "name": "Rua Jacome Fajardo, 55 - Centro, Itanhaém", "lat": -24.1805775, "lng": -46.7829233}, {"id": "6946f84ce75b8fc690819ced", "name": "R. Peruíbe, 235 - Praia dos Sonhos, Itanhaém - SP", "lat": -24.193468, "lng": -46.805842}, {"id": "6946f81de75b8fc69081729e", "name": "Av. Roberto Iwakichi Uraguchi, 409-357 - Praia dos Sonhos, Itanhaém - SP", "lat": -24.193939, "lng": -46.805143}, {"id": "6946f806e75b8fc69081489f", "name": "Avenida Rui Barbosa, 1024 - Centro, Itanhaém", "lat": -24.1795902, "lng": -46.7809911}, {"id": "6946f780e75b8fc69080d897", "name": "Lorena Modas - Av. Rui Barbosa, 75 - Loja 1 - Centro, Itanhaém", "lat": -24.1791919, "lng": -46.7801191}, {"id": "6946f766e75b8fc69080d263", "name": "Av. Rui Barbosa, 1870 - Centro, Itanhaém", "lat": -24.1791057, "lng": -46.77929}, {"id": "6946f6b0e75b8fc69080aade", "name": "- Av. Vicente de Carvalho -746 Praia dos Sonhos, Itanhaém - SP", "lat": -24.195504, "lng": -46.801803}, {"id": "6946f698e75b8fc69080a26f", "name": "Av. Rui Barbosa, 554 - Centro, Itanhaém", "lat": -24.1811124, "lng": -46.7834511}, {"id": "6946f652e75b8fc69080895f", "name": "Av. Vicente de Carvalho, 114 - Praia dos Sonhos, Itanhaém - SP", "lat": -24.19494, "lng": -46.801286}, {"id": "6946f63fe75b8fc690806a44", "name": "Av. Vicente de Carvalho, 1700 - Praia dos Sonhos, Itanhaém - SP", "lat": -24.194345, "lng": -46.800283}, {"id": "6946f629e75b8fc690804521", "name": "R. Leopoldino Araújo, 78-104 - Centro, Itanhaém", "lat": -24.182512, "lng": -46.7860907}, {"id": "6946f5fde75b8fc6907fef34", "name": "Crédito Pessoal - Centro, Itanhaém", "lat": -24.1834085, "lng": -46.7895782}, {"id": "6946f5dde75b8fc6907fb97e", "name": "Av. Vicente de Carvalho, 402 - Praia dos Sonhos, Itanhaém - SP", "lat": -24.193549, "lng": -46.798772}, {"id": "6946eea9e75b8fc690773499", "name": "R. Emídio de Souza, 142-298 - Satélite, Itanhaém", "lat": -24.1763428, "lng": -46.7740221}, {"id": "6946ee73e75b8fc69077265f", "name": "Av. Dr. Edson Batista de Andrade, 408-452, Itanhaém - SP", "lat": -24.20002, "lng": -46.813868}, {"id": "6946ee43e75b8fc690771e0f", "name": "Litoral Sul Águas - Av. Rui Barbosa, 1172 - Centro, Itanhaém", "lat": -24.1783022, "lng": -46.7778771}, {"id": "6946edf0e75b8fc69076ef48", "name": "Av. Dr. Edson Batista de Andrade, 235 - Cibratel I, Itanhaém - SP", "lat": -24.199943, "lng": -46.812266}, {"id": "6946edace75b8fc69076615c", "name": "Av. Atlântica, 57 - Cibratel I, Itanhaém - SP", "lat": -24.20004, "lng": -46.810387}, {"id": "6946ed74e75b8fc69075fedd", "name": "Osanseg Corretora de Seguros e Representação - Av. Rui Barbosa, 801 - Centro, Itanhaém", "lat": -24.1826157, "lng": -46.7870848}, {"id": "6946ed49e75b8fc69075f731", "name": "Av. Rui Barbosa, 1187-1117 - Centro, Itanhaém", "lat": -24.1813614, "lng": -46.7842484}, {"id": "6946ed0de75b8fc69075ed3f", "name": "Av. Rui Barbosa, 561 - Centro, Itanhaém", "lat": -24.1810565, "lng": -46.7838775}, {"id": "6946ecd8e75b8fc69075a528", "name": "R. Maestro Alberto Marino, 21 - Cibratel I, Itanhaém - SP", "lat": -24.197657, "lng": -46.810817}, {"id": "6946ecbce75b8fc6907599a2", "name": "R. dos Fundadores, 483-399 - Praia dos Sonhos, Itanhaém - SP", "lat": -24.195291, "lng": -46.808826}, {"id": "6946b448e75b8fc690487d6f", "name": "Av. Raul Cury, 89-1 - Cibratel I, Itanhaém - SP", "lat": -24.198101, "lng": -46.81202}, {"id": "6946b436e75b8fc69048508b", "name": "R. Peruíbe, 666 - Praia dos Sonhos, Itanhaém - SP", "lat": -24.195887, "lng": -46.809458}, {"id": "6946b415e75b8fc690483b4c", "name": "Av. Anchieta, 22 - Cibratel I, Itanhaém - SP", "lat": -24.199303, "lng": -46.812238}, {"id": "6946b400e75b8fc6904836d6", "name": "Av. Nsª de Peruibe, 925 - Jardim, Itanhaém - SP", "lat": -24.19804, "lng": -46.811177}, {"id": "6946b3ece75b8fc69048271a", "name": "Av. Nsª de Peruibe, 755 - Jardim, Itanhaém - SP,", "lat": -24.196534, "lng": -46.809883}, {"id": "6946b3bde75b8fc69047d64e", "name": "Av. Dr. Edson Batista de Andrade, 1115 - Gaivota, Itanhaém - SP", "lat": -24.202261, "lng": -46.819648}, {"id": "6946b39ce75b8fc69047a692", "name": "Av. Dr. Edson Batista de Andrade, 786-816 - Cibratel I, Itanhaém - SP", "lat": -24.200835, "lng": -46.81715}, {"id": "6946b387e75b8fc6904781cf", "name": "Av. Rui Barbosa, 1756 - Satélite, Itanhaém", "lat": -24.1752664, "lng": -46.7720135}, {"id": "6946b376e75b8fc69047667a", "name": "Av. Dr. Edson Batista de Andrade, 135-99 - Cibratel I, Itanhaém - SP", "lat": -24.201544, "lng": -46.818424}, {"id": "6946b366e75b8fc6904739dc", "name": "Av. Armênia, 325-129 - Satélite, Itanhaém", "lat": -24.1755543, "lng": -46.7724926}, {"id": "6946b355e75b8fc690471d38", "name": "Av. Rui Barbosa, 1676 - Satélite, Itanhaém", "lat": -24.1756347, "lng": -46.7727678}]}