{"city": "Anchieta", "areaId": "692aff853460cff7c27b1cc4", "count": 165, "source": "gojet-managers-map", "parkings": [{"id": "699a2f34af54f91edc45bd70", "name": "BH supermercado", "lat": -20.815704, "lng": -40.629939}, {"id": "698cdbefe9454d5b3b4226ab", "name": "Paulo Freire", "lat": -20.80558, "lng": -40.635456}, {"id": "698cd2d6eb458abe12fcabdc", "name": "Senai", "lat": -20.80519, "lng": -40.635096}, {"id": "6981169e5d2674bcf23444f7", "name": "Festclan", "lat": -20.80865, "lng": -40.641626}, {"id": "69531f802479703707fdbfd3", "name": "Posto saúde - Nova Anchieta", "lat": -20.818289, "lng": -40.625108}, {"id": "69531f642479703707fdb6db", "name": "Jr Cristo - rua pirarucu - Anchieta", "lat": -20.817999, "lng": -40.626088}, {"id": "69531f422479703707fdaed9", "name": "Rua icarahy, 242- nova Anchieta", "lat": -20.819864, "lng": -40.624638}, {"id": "69531f262479703707fda4b3", "name": "Refazer - Anchieta", "lat": -20.818943, "lng": -40.626752}, {"id": "69531f092479703707fd9e3c", "name": "Rua icarahy - Anchieta", "lat": -20.819315, "lng": -40.627354}, {"id": "69531eec2479703707fd94cf", "name": "Rua tucunaré - Anchieta", "lat": -20.818349, "lng": -40.626342}, {"id": "69531ec82479703707fd842f", "name": "Ponto ônibus - rodovia castelhanos", "lat": -20.82888, "lng": -40.624638}, {"id": "69531eab2479703707fd1430", "name": "Centro integrado de segurança - castelhanos", "lat": -20.830603, "lng": -40.624088}, {"id": "69531e8a2479703707fc83f5", "name": "Rua meatrides José Simões - castelhanos", "lat": -20.8293, "lng": -40.626546}, {"id": "69531e6c2479703707fc46cb", "name": "Vila Madalena - castelhanos", "lat": -20.831625, "lng": -40.62555}, {"id": "69531e4f2479703707fc084f", "name": "Pousada ventura - Guanabara", "lat": -20.82227, "lng": -40.62456}, {"id": "69531e322479703707fbf456", "name": "Rodovia castelhanos", "lat": -20.824592, "lng": -40.628674}, {"id": "69531e112479703707fbe839", "name": "Rodovia castelhanos 2", "lat": -20.826815, "lng": -40.625824}, {"id": "69480d2fe75b8fc690585b4d", "name": "IPCMAR - Guanabara", "lat": -20.823449, "lng": -40.616475}, {"id": "69480d1ee75b8fc690584c6e", "name": "Salvador empreendimentos - Guanabara", "lat": -20.822776, "lng": -40.624564}, {"id": "69480d0de75b8fc690583ed0", "name": "Entrada Guanabara", "lat": -20.822697, "lng": -40.621079}, {"id": "69480cfee75b8fc69058305e", "name": "Pousada da tina - Guanabara", "lat": -20.823744, "lng": -40.61691}, {"id": "69480cede75b8fc690582355", "name": "Avenida dos capixabas - Guanabara", "lat": -20.823395, "lng": -40.621}, {"id": "69480cdfe75b8fc690581883", "name": "Pracinha do.ponto - Guanabara", "lat": -20.82408, "lng": -40.62078}, {"id": "69480ccde75b8fc690580f20", "name": "Rua Tanharu , 200", "lat": -20.82823, "lng": -40.620723}, {"id": "69480cbbe75b8fc69057fd18", "name": "Pracinha Tanharu", "lat": -20.825742, "lng": -40.620576}, {"id": "69480caae75b8fc69057f93f", "name": "Caps - Guanabara", "lat": -20.824416, "lng": -40.622647}, {"id": "69480c99e75b8fc69057f70b", "name": "Centro de convivência Guanabara", "lat": -20.824387, "lng": -40.624351}, {"id": "69480c88e75b8fc69057f4e6", "name": "Rua Tanharu , 21", "lat": -20.82984, "lng": -40.619815}, {"id": "69474b83e75b8fc690c2b0af", "name": "Rua mato grosso ,344", "lat": -20.834973, "lng": -40.629044}, {"id": "69474b31e75b8fc690c2a2d2", "name": "Recanto do sossego - castelhanos", "lat": -20.832603, "lng": -40.625026}, {"id": "69474b1de75b8fc690c29d39", "name": "Rua Acácio oliveira, 714", "lat": -20.833526, "lng": -40.626804}, {"id": "69474b06e75b8fc690c29924", "name": "Rua Acácio oliveira,221", "lat": -20.835271, "lng": -40.628602}, {"id": "69474aede75b8fc690c29493", "name": "Rua Acácio oliveira, 591", "lat": -20.83431, "lng": -40.627647}, {"id": "69474ad5e75b8fc690c28e90", "name": "Rua Acácio oliveira, ponto ônibus.", "lat": -20.832148, "lng": -40.623428}, {"id": "69474abce75b8fc690c28a32", "name": "Rua Acácio oliveira , 1226", "lat": -20.831661, "lng": -40.62258}, {"id": "69474aa3e75b8fc690c283c2", "name": "EMEB Alcides Ceccon - castelhanos", "lat": -20.83074, "lng": -40.622022}, {"id": "69474a82e75b8fc690c27c23", "name": "Ladeira castelhanos", "lat": -20.831494, "lng": -40.623625}, {"id": "69474a71e75b8fc690c276ce", "name": "Rua Guaracy Gomes, 1342", "lat": -20.832036, "lng": -40.622112}, {"id": "69474a56e75b8fc690c26fde", "name": "Rua Guaracy Gomes,1193", "lat": -20.832671, "lng": -40.623368}, {"id": "69474a42e75b8fc690c2698d", "name": "Hotel Tanharu - castelhanos", "lat": -20.833245, "lng": -40.624967}, {"id": "69474a2de75b8fc690c265be", "name": "Rua Guaracy Gomes , muro amarelo.", "lat": -20.830737, "lng": -40.621369}, {"id": "69474a19e75b8fc690c26201", "name": "Rua Guaracy Gomes, 175", "lat": -20.833891, "lng": -40.626417}, {"id": "69474a06e75b8fc690c25ca9", "name": "Rua Guaracy Gomes, 400", "lat": -20.836718, "lng": -40.628629}, {"id": "694749eee75b8fc690c25864", "name": "Rua Guaracy Gomes, 769", "lat": -20.834501, "lng": -40.627026}, {"id": "694749dae75b8fc690c254f4", "name": "Rua Guaracy Gomes, 568", "lat": -20.835778, "lng": -40.628097}, {"id": "694749c5e75b8fc690c24f59", "name": "Pousada João de barro - castelhanos", "lat": -20.838672, "lng": -40.628465}, {"id": "6947498de75b8fc690c24541", "name": "Guaraci Gomes , 201", "lat": -20.837843, "lng": -40.629046}, {"id": "6944665fe75b8fc690a07123", "name": "Rua vilciria nogueira - Anchieta", "lat": -20.8095692, "lng": -40.6314775}, {"id": "6944664fe75b8fc690a06edb", "name": "Unidade de saúde da família - Anchieta", "lat": -20.8103182, "lng": -40.629146}, {"id": "6944663ee75b8fc690a06aa7", "name": "Rua Godofredo Garcia soares - Anchieta", "lat": -20.8081821, "lng": -40.635541}, {"id": "6944662fe75b8fc690a0688d", "name": "Igreja batista central - Anchieta", "lat": -20.8091063, "lng": -40.633118}, {"id": "6944661be75b8fc690a06616", "name": "Rua do kito - Anchieta", "lat": -20.8087381, "lng": -40.6342817}, {"id": "6944660de75b8fc690a0642d", "name": "Status distribuidora - Anchieta", "lat": -20.8108893, "lng": -40.633704}, {"id": "694465fbe75b8fc690a05fec", "name": "Fundos vila olímpica - Anchieta", "lat": -20.803852, "lng": -40.6402184}, {"id": "694465ebe75b8fc690a05dc0", "name": "Rua professora Patrícia rofes", "lat": -20.8028678, "lng": -40.6408183}, {"id": "694465d9e75b8fc690a05b73", "name": "Praça floriano Peixoto - Anchieta", "lat": -20.8070243, "lng": -40.6390001}, {"id": "694465c8e75b8fc690a04fa8", "name": "Praça dias Lopes - Anchieta", "lat": -20.8011027, "lng": -40.6454615}, {"id": "694465b9e75b8fc690a03cbf", "name": "Rua Celso Nazário de Paulo - Anchieta", "lat": -20.8078076, "lng": -40.6360979}, {"id": "694465aae75b8fc690a021ca", "name": "Praça dias Lopes 2 - Anchieta", "lat": -20.800483, "lng": -40.6440694}, {"id": "69446598e75b8fc690a01b71", "name": "Rua três/gov dias lopes - Anchieta", "lat": -20.8027472, "lng": -40.6468941}, {"id": "69446587e75b8fc690a0193f", "name": "EEEFM - Coronel Gomes - Anchieta", "lat": -20.7995358, "lng": -40.642507}, {"id": "69446576e75b8fc690a0153d", "name": "Rua dr Jairo de matos pereira", "lat": -20.8022843, "lng": -40.6406717}, {"id": "69446561e75b8fc690a01296", "name": "Conselho tutelar - Anchieta", "lat": -20.8035103, "lng": -40.647961}, {"id": "69446551e75b8fc690a01072", "name": "Governador dias Lopes - 330", "lat": -20.8040466, "lng": -40.6489269}, {"id": "694460b9e75b8fc6909dfb10", "name": "Parque sede RDS papagaio", "lat": -20.7966153, "lng": -40.6406275}, {"id": "69446075062fc25ed667ea9d", "name": "Secretaria", "lat": -20.81110896091308, "lng": -40.631338166003495}, {"id": "69446044062fc25ed667c640", "name": "Dias Tristao", "lat": -20.81078081135045, "lng": -40.633787084685316}, {"id": "6944601b062fc25ed6678706", "name": "Peixoto", "lat": -20.811721981105094, "lng": -40.632412804050006}, {"id": "6942f859062fc25ed66c6d8c", "name": "Kadosh", "lat": -20.81196315454131, "lng": -40.630587210373}, {"id": "6936c5d26850ed9bec0f848f", "name": "Capela São José Anchieta - Castelhanos", "lat": -20.8370219, "lng": -40.627092}, {"id": "6936c5d26850ed9bec0f848e", "name": "Batelão / Quiosque maré da Alzira", "lat": -20.836117, "lng": -40.6265016}, {"id": "6936c5d26850ed9bec0f848d", "name": "Quiosque raízes da praia - Castelhanos", "lat": -20.8349171, "lng": -40.6254029}, {"id": "6936c5d26850ed9bec0f848c", "name": "Placa castelhanos", "lat": -20.8345386, "lng": -40.6244219}, {"id": "6936c5d26850ed9bec0f848b", "name": "Papaco Restaurante - Castelhanos", "lat": -20.8337142, "lng": -40.6219841}, {"id": "6936c5d26850ed9bec0f848a", "name": "SP engenharia - Castelhanos", "lat": -20.8339652, "lng": -40.6228404}, {"id": "6936c5d26850ed9bec0f8489", "name": "Casa verde - Frente 1300", "lat": -20.8321668, "lng": -40.6216827}, {"id": "6936c5d26850ed9bec0f8488", "name": "Residêncial Marieta augusta", "lat": -20.8334043, "lng": -40.6231388}, {"id": "6936c5d26850ed9bec0f8487", "name": "Residencial da Mata - Castelhanos", "lat": -20.8337834, "lng": -40.6247589}, {"id": "6936c5d26850ed9bec0f8486", "name": "Hotel castelhanos", "lat": -20.8344192, "lng": -40.624387}, {"id": "6936c5d26850ed9bec0f8485", "name": "Rua Salma souki oliveira - Castelhanos", "lat": -20.8341971, "lng": -40.6258338}, {"id": "6936c5d26850ed9bec0f8484", "name": "Quiosque do Chico - castelhanos", "lat": -20.8354486, "lng": -40.6260322}, {"id": "6936c5d26850ed9bec0f8483", "name": "Taberna da praia - castelhanos", "lat": -20.835113, "lng": -40.6265496}, {"id": "6936c5d26850ed9bec0f8482", "name": "Pousada Tortuga - Castelhanos", "lat": -20.8364927, "lng": -40.6278099}, {"id": "6936c5d26850ed9bec0f8481", "name": "Pousada BigMar - castelhanos", "lat": -20.8368988, "lng": -40.6279544}, {"id": "6936c5d26850ed9bec0f8480", "name": "Ed. Castelhanos", "lat": -20.8377461, "lng": -40.6282159}, {"id": "69355bc74c666045dc840d3c", "name": "Detran - Anchieta", "lat": -20.802367, "lng": -40.6448292}, {"id": "69355ba64c666045dc8402a4", "name": "Mirante castelhanos - Anchieta", "lat": -20.8200798, "lng": -40.6274813}, {"id": "6931f8eae37e1bcaafb9fdbb", "name": "Marechal floriano , 508", "lat": -20.8059258, "lng": -40.6440879}, {"id": "6931f8ace37e1bcaafb9ecd7", "name": "Salão Rigoni's - Anchieta", "lat": -20.8050091, "lng": -40.6450967}, {"id": "6931f877e37e1bcaafb9dd06", "name": "Vila olímpica / Rua Um", "lat": -20.8055065, "lng": -40.6412786}, {"id": "6931f836e37e1bcaafb9cd57", "name": "Renadriana modas - Anchieta", "lat": -20.807779, "lng": -40.6416551}, {"id": "6931f7eee37e1bcaafb9b4b8", "name": "Tiffany Studio - Anchieta", "lat": -20.8079082, "lng": -40.6412109}, {"id": "6931f798e37e1bcaafb9a161", "name": "Papelaria Brunoro - Anchieta", "lat": -20.8081633, "lng": -40.6399928}, {"id": "6931f702e37e1bcaafb978c5", "name": "GCM - Anchieta", "lat": -20.8014603, "lng": -40.6414144}, {"id": "6931f6c1e37e1bcaafb96317", "name": "CMEI Tia Irene Amaral", "lat": -20.803416, "lng": -40.6416709}, {"id": "6931f68de37e1bcaafb95538", "name": "EMEF irmã Terezinha Godoy", "lat": -20.8040062, "lng": -40.6417275}, {"id": "6931f5c3e37e1bcaafb9168e", "name": "Vila olímpica - entrada lateral", "lat": -20.8050705, "lng": -40.6417976}, {"id": "6931f574e37e1bcaafb8ff45", "name": "Vila olímpica / padaria da vila", "lat": -20.8060625, "lng": -40.6418757}, {"id": "693098596b1fad4fd9bde0c5", "name": "GCM", "lat": -20.80143, "lng": -40.641383}, {"id": "692f61179305057d0601307a", "name": "Pronto Atendimento", "lat": -20.79916, "lng": -40.641988}, {"id": "692da8a74c666045dc6e8d00", "name": "Praia boca da baleia 2", "lat": -20.838482, "lng": -40.630742}, {"id": "692da8a74c666045dc6e8cff", "name": "Praia boca da baleia", "lat": -20.837576, "lng": -40.631532}, {"id": "692da8a74c666045dc6e8cfe", "name": "Praia bela vista 2", "lat": -20.833813, "lng": -40.632382}, {"id": "692da8a74c666045dc6e8cfd", "name": "Peri Embalagens - Anchieta", "lat": -20.8083751, "lng": -40.6428202}, {"id": "692da8a74c666045dc6e8cfc", "name": "Praia bela vista", "lat": -20.83147, "lng": -40.632301}, {"id": "692da8a74c666045dc6e8cfb", "name": "Extrabom - Anchieta", "lat": -20.8088631, "lng": -40.6407331}, {"id": "692da8a74c666045dc6e8cfa", "name": "Praia porto velho", "lat": -20.828079, "lng": -40.632084}, {"id": "692da8a74c666045dc6e8cf9", "name": "Banestes - Anchieta", "lat": -20.8108131, "lng": -40.6357532}, {"id": "692da8a74c666045dc6e8cf8", "name": "Pavilhão do empreendedor - Anchieta", "lat": -20.8115211, "lng": -40.6347544}, {"id": "692da8a74c666045dc6e8cf7", "name": "Casa de Maria", "lat": -20.826053, "lng": -40.631004}, {"id": "692da8a74c666045dc6e8cf6", "name": "Prefeitura de Anchieta", "lat": -20.8121858, "lng": -40.6339216}, {"id": "692da8a74c666045dc6e8cf5", "name": "Estrada castelhano 24", "lat": -20.824186, "lng": -40.629486}, {"id": "692da8a74c666045dc6e8cf4", "name": "Secretaria da saúde - Anchieta", "lat": -20.8124315, "lng": -40.6334737}, {"id": "692da8a74c666045dc6e8cf3", "name": "Posto BR/Pontal Casa - Anchieta", "lat": -20.8137381, "lng": -40.6315536}, {"id": "692da8a74c666045dc6e8cf2", "name": "Câmara municipal de Anchieta", "lat": -20.813441, "lng": -40.6313735}, {"id": "692da8a74c666045dc6e8cf1", "name": "Av Atílio Rauta, 2163", "lat": -20.810825, "lng": -40.6305873}, {"id": "692da8a74c666045dc6e8cf0", "name": "Estrada castelhano", "lat": -20.822764, "lng": -40.629314}, {"id": "692da8a74c666045dc6e8cef", "name": "Centro de convivência canta galo - Anchieta", "lat": -20.8102126, "lng": -40.632943}, {"id": "692da8a74c666045dc6e8cee", "name": "Orla 4449", "lat": -20.820707, "lng": -40.628186}, {"id": "692da8a74c666045dc6e8ced", "name": "Emanuel trasporte - Anchieta", "lat": -20.8097482, "lng": -40.6345818}, {"id": "692da8a74c666045dc6e8cec", "name": "Vila da praia", "lat": -20.819849, "lng": -40.628357}, {"id": "692da8a74c666045dc6e8ceb", "name": "Av Atílio Rauta,1428", "lat": -20.8089286, "lng": -40.6372298}, {"id": "692da8a74c666045dc6e8cea", "name": "Orla guarda sol", "lat": -20.819309, "lng": -40.628631}, {"id": "692da8a74c666045dc6e8ce9", "name": "Escola municipal Amarílis Fernandes - Anchieta", "lat": -20.8085102, "lng": -40.6387825}, {"id": "692da8a74c666045dc6e8ce8", "name": "Orla 444", "lat": -20.818835, "lng": -40.628826}, {"id": "692da8a74c666045dc6e8ce7", "name": "Rua Atílio Rauta , 1085", "lat": -20.8080367, "lng": -40.6404733}, {"id": "692da8a74c666045dc6e8ce6", "name": "Orla 67", "lat": -20.8178, "lng": -40.629442}, {"id": "692da8a74c666045dc6e8ce5", "name": "Fundos BH", "lat": -20.816833, "lng": -40.630252}, {"id": "692da8a74c666045dc6e8ce4", "name": "Jcb imóveis - Anchieta", "lat": -20.8075932, "lng": -40.6423173}, {"id": "692da8a74c666045dc6e8ce3", "name": "Studio Villaça - Anchieta", "lat": -20.8071472, "lng": -40.6434056}, {"id": "692da8a74c666045dc6e8ce2", "name": "Orla 42", "lat": -20.815394, "lng": -40.631736}, {"id": "692da8a74c666045dc6e8ce1", "name": "Orla 790", "lat": -20.814588, "lng": -40.632726}, {"id": "692da8a74c666045dc6e8ce0", "name": "Propriedade privada", "lat": -20.813697, "lng": -40.63393}, {"id": "692da8a74c666045dc6e8cdf", "name": "Casa Marchesi - Anchieta", "lat": -20.8063054, "lng": -40.6462058}, {"id": "692da8a74c666045dc6e8cde", "name": "Amexeira", "lat": -20.813255, "lng": -40.634564}, {"id": "692da8a74c666045dc6e8cdd", "name": "Rua José silvino de melo , 307", "lat": -20.8060807, "lng": -40.647498}, {"id": "692da8a74c666045dc6e8cdc", "name": "Pista skate", "lat": -20.812124, "lng": -40.636097}, {"id": "692da8a74c666045dc6e8cdb", "name": "Banca sorvete", "lat": -20.811709, "lng": -40.637569}, {"id": "692da8a74c666045dc6e8cda", "name": "Pista patins", "lat": -20.811336, "lng": -40.637569}, {"id": "692da8a74c666045dc6e8cd9", "name": "Semas", "lat": -20.811111, "lng": -40.638067}, {"id": "692da8a74c666045dc6e8cd8", "name": "Casa amarela", "lat": -20.810075, "lng": -40.640409}, {"id": "692da8a74c666045dc6e8cd7", "name": "Nova odonta", "lat": -20.809534, "lng": -40.641776}, {"id": "692da8a74c666045dc6e8cd6", "name": "Jucelino 28", "lat": -20.80927, "lng": -40.642384}, {"id": "692da8a74c666045dc6e8cd5", "name": "Nossa Senhora Aparecida 35", "lat": -20.808982, "lng": -40.643126}, {"id": "692da8a74c666045dc6e8cd4", "name": "Castanheira", "lat": -20.80824, "lng": -40.645467}, {"id": "692da8a74c666045dc6e8cd3", "name": "Santuário orla - Anchieta", "lat": -20.8058111, "lng": -40.6521694}, {"id": "692da8a74c666045dc6e8cd2", "name": "Gas Anchieta", "lat": -20.807655, "lng": -40.646755}, {"id": "692da8a74c666045dc6e8cd1", "name": "Pousada beira mar", "lat": -20.806828, "lng": -40.648832}, {"id": "692da8a74c666045dc6e8cd0", "name": "Cartório/casa cidadão  - Anchieta", "lat": -20.8062646, "lng": -40.6493715}, {"id": "692da8a74c666045dc6e8ccf", "name": "Natural farma", "lat": -20.806493, "lng": -40.649676}, {"id": "692da8a74c666045dc6e8cce", "name": "Revitalize fisioterapia - Anchieta", "lat": -20.8057707, "lng": -40.6490127}, {"id": "692da8a74c666045dc6e8ccd", "name": "Banca da praça", "lat": -20.806241, "lng": -40.650866}, {"id": "692da8a74c666045dc6e8ccc", "name": "Praça São Pedro - Anchieta", "lat": -20.8050906, "lng": -40.6486885}, {"id": "692da8a74c666045dc6e8ccb", "name": "Saturnino", "lat": -20.806023, "lng": -40.651463}, {"id": "692da8a74c666045dc6e8cca", "name": "Casa de ração sabia - Anchieta", "lat": -20.8049392, "lng": -40.6496927}, {"id": "692da8a74c666045dc6e8cc9", "name": "Parquinho da orla", "lat": -20.805773, "lng": -40.65241}, {"id": "692da8a74c666045dc6e8cc8", "name": "Santamarinha", "lat": -20.805661, "lng": -40.653362}, {"id": "692da8a74c666045dc6e8cc7", "name": "Tv João Jorge Assad - Anchieta", "lat": -20.8049204, "lng": -40.654353}, {"id": "692da8a74c666045dc6e8cc6", "name": "Honda", "lat": -20.805594, "lng": -40.654233}, {"id": "692da8a74c666045dc6e8cc5", "name": "Hospital padre Humberto - Anchieta", "lat": -20.8044377, "lng": -40.6551369}, {"id": "692da8a74c666045dc6e8cc4", "name": "Bora bora burguer", "lat": -20.805504, "lng": -40.654984}, {"id": "692da8a74c666045dc6e8cc3", "name": "Casa pescador - Anchieta", "lat": -20.8040171, "lng": -40.6558155}, {"id": "692da8a74c666045dc6e8cc2", "name": "Quiosque da Bruna", "lat": -20.805044, "lng": -40.655911}, {"id": "692da8a74c666045dc6e8cc1", "name": "Parquinho", "lat": -20.803527, "lng": -40.655342}, {"id": "692da8a74c666045dc6e8cc0", "name": "Rua 7 de setembro  - Anchieta", "lat": -20.8033862, "lng": -40.6551372}]}