{"city": "Joinville", "areaId": "693046569305057d06bedfd8", "count": 557, "source": "gojet-managers-map", "parkings": [{"id": "69e810b94330c824bb398e67", "name": "Entrada Perini", "lat": -26.244332, "lng": -48.883594}, {"id": "69e8109e4330c824bb393eb9", "name": "Perini", "lat": -26.243784, "lng": -48.882669}, {"id": "69e8107e4330c824bb38f94c", "name": "Cafeteria Catarina", "lat": -26.240909, "lng": -48.881264}, {"id": "69e810584330c824bb38c92b", "name": "Restaurante Catarina", "lat": -26.240267, "lng": -48.881405}, {"id": "69e810314330c824bb38aef7", "name": "Catarina", "lat": -26.237479, "lng": -48.882356}, {"id": "69e810014330c824bb3896f2", "name": "Entrada UFSC", "lat": -26.234583, "lng": -48.883872}, {"id": "69e80fe84330c824bb388213", "name": "Entrada", "lat": -26.23394, "lng": -48.883991}, {"id": "69e80fa94330c824bb37f56e", "name": "doTerra", "lat": -26.236059, "lng": -48.889458}, {"id": "69e80f7c4330c824bb37d11c", "name": "Sicredi", "lat": -26.236988, "lng": -48.883196}, {"id": "69e80f554330c824bb37b199", "name": "Katoen", "lat": -26.238483, "lng": -48.882167}, {"id": "69e80f284330c824bb379376", "name": "Pollux", "lat": -26.242907, "lng": -48.880969}, {"id": "698fcc01d70248a31f0f9dcd", "name": "Recepção agora", "lat": -26.234272, "lng": -48.883343}, {"id": "698fcc01d70248a31f0f9dcc", "name": "MLAB", "lat": -26.234812, "lng": -48.883085}, {"id": "698fcc01d70248a31f0f9dcb", "name": "Meu replay", "lat": -26.23474, "lng": -48.883225}, {"id": "698fcc01d70248a31f0f9dca", "name": "Sicred", "lat": -26.235489, "lng": -48.882892}, {"id": "698fcc01d70248a31f0f9dc9", "name": "Ponto de encontro Business", "lat": -26.235735, "lng": -48.88293}, {"id": "698fcc01d70248a31f0f9dc8", "name": "HUB 2", "lat": -26.23632, "lng": -48.882748}, {"id": "698fcc01d70248a31f0f9dc7", "name": "HUB", "lat": -26.236689, "lng": -48.882187}, {"id": "698cc600e9454d5b3b2cbca5", "name": "Justiça do trabalho", "lat": -26.2995778, "lng": -48.8452158}, {"id": "697d0a968c6e8876dab1e88c", "name": "FOCUS arquitetura - R. Expedicionário Holz - América, Joinville - SC, 89201-740", "lat": -26.299973, "lng": -48.853464}, {"id": "697d03118c6e8876daad86e6", "name": "Praça Nereu Ramos 3", "lat": -26.3024311, "lng": -48.8459494}, {"id": "697d03118c6e8876daad86e4", "name": "Mariana hair joinville - R. Eng. Niemeyer - Centro, Joinville - SC, 89201-130", "lat": -26.3029084, "lng": -48.84593}, {"id": "69729e984910c3a522d28e4d", "name": "Sisprime", "lat": -26.288716, "lng": -48.84971}, {"id": "69729e844910c3a522d289ce", "name": "R Expedicionário Holz, 311 - Atiradores 3 M", "lat": -26.301754, "lng": -48.853693}, {"id": "69729e774910c3a522d286c5", "name": "Av Cel. Procópio Gomes, 121 - Sala 03 - Bucarein, Joinville - SC, 89202 - 301 3М", "lat": -26.306962, "lng": -48.8408549}, {"id": "69729e584910c3a522d27fa5", "name": "Reabilitação Oral", "lat": -26.302701, "lng": -48.842189}, {"id": "69729e4b4910c3a522d27ad0", "name": "Auto Escola", "lat": -26.302702, "lng": -48.843375}, {"id": "69729e3f4910c3a522d276dc", "name": "Laboratório Municipal De Joinville", "lat": -26.302817, "lng": -48.842046}, {"id": "69729e324910c3a522d26f15", "name": "Advocacia", "lat": -26.30261, "lng": -48.843803}, {"id": "69729e244910c3a522d2512d", "name": "Banco Itaú", "lat": -26.30253, "lng": -48.844602}, {"id": "69729e114910c3a522d23294", "name": "Secretaria De Educaçao", "lat": -26.302003, "lng": -48.842042}, {"id": "69729dda4910c3a522d1b148", "name": "R Itajai", "lat": -26.301797, "lng": -48.842258}, {"id": "69729db34910c3a522d1539b", "name": "Praça Bandeira", "lat": -26.30128, "lng": -48.843507}, {"id": "69729da24910c3a522d1314b", "name": "Saint Bier", "lat": -26.290293, "lng": -48.849833}, {"id": "69729d944910c3a522d12587", "name": "Casa Di Lusso", "lat": -26.290635, "lng": -48.849987}, {"id": "69729d794910c3a522d0ef2f", "name": "R Felipe Camarão, 17 - Anita Garibaldi, Joinville - SC, 89203 - 430 2, 5 M", "lat": -26.3196488, "lng": -48.8526526}, {"id": "6972982e4910c3a522ccc276", "name": "R Benjamin Constant, 262 - 290 - Glória, Joinville - SC, 89204 - 328", "lat": -26.2842512, "lng": -48.8520223}, {"id": "6972982e4910c3a522ccc275", "name": "R Machado De Assis, 473 - 409 - América, Joinville - SC, 89204 - 390. 4М", "lat": -26.2801259, "lng": -48.8522171}, {"id": "6972982e4910c3a522ccc274", "name": "R Fernando Machado, 548 - 818 - América, Joinville - SC, 89204 - 250 5М", "lat": -26.27931, "lng": -48.8537128}, {"id": "6972982e4910c3a522ccc273", "name": "R Fernando Machado, 432 - 546 - América, Joinville - SC, 89204 - 400 4М", "lat": -26.2801538, "lng": -48.8536343}, {"id": "6972982e4910c3a522ccc272", "name": "R Gen. Andrade Neves, 499 - 401 - América, Joinville - SC, 89204 - 410 4М", "lat": -26.2803243, "lng": -48.8547035}, {"id": "6972982e4910c3a522ccc271", "name": "R Visc. De Mauá, 1111 - América, Joinville - SC, 89204 - 501 4М", "lat": -26.2795811, "lng": -48.8548061}, {"id": "6972982e4910c3a522ccc270", "name": "R Alvarenga Peixoto, 478 - América, Joinville - SC, 89204 - 430 4М", "lat": -26.2787571, "lng": -48.8546509}, {"id": "6972982e4910c3a522ccc26f", "name": "R Fernando Machado, 548 - 818 - América, Joinville - SC, 89204 - 250 6М", "lat": -26.2787084, "lng": -48.8536625}, {"id": "6972982e4910c3a522ccc26e", "name": "R Alvarenga Peixoto, 241 - 95 - América, Joinville - SC, 89204 - 430 4М", "lat": -26.2785906, "lng": -48.8520836}, {"id": "6972982e4910c3a522ccc26d", "name": "R João Pessoa, 450 - Santo Antônio, Joinville - SC, 89218 - 280 4М", "lat": -26.2774662, "lng": -48.8508113}, {"id": "6972982e4910c3a522ccc26c", "name": "R João Pessoa, 527 - América, Joinville - SC, 89204 - 440 4М", "lat": -26.2776803, "lng": -48.8516833}, {"id": "6972982e4910c3a522ccc26b", "name": "R João Pessoa, 620 - 704 - América, Joinville 4М", "lat": -26.2776592, "lng": -48.853472}, {"id": "6972982e4910c3a522ccc26a", "name": "R João Pessoa, 706 - 818 - América, Joinville - SC, 89218 - 280 4М", "lat": -26.2777596, "lng": -48.8545986}, {"id": "6972982e4910c3a522ccc269", "name": "R Pres. Prudente De Moraes, 240 - Santo Antônio, Joinville - SC, 89218 - 000 5М", "lat": -26.2746177, "lng": -48.8521755}, {"id": "6972982e4910c3a522ccc268", "name": "R Pres. Prudente De Moraes, 357 - Santo Antônio, Joinville - SC, 89218 - 000 4М", "lat": -26.2748183, "lng": -48.8536169}, {"id": "6972982e4910c3a522ccc267", "name": "R Visc. De Mauá, 1560 - 1656 - América, Joinville - SC, 89204 - 500 5М", "lat": -26.2749508, "lng": -48.8544825}, {"id": "6972982e4910c3a522ccc265", "name": "R Dona Francisca, 839 - 749 - Centro, Joinville - SC, 89221 - 007 4М", "lat": -26.2953042, "lng": -48.8419221}, {"id": "6972982e4910c3a522ccc264", "name": "R Orestes Guimarães, 720 - América, Joinville - SC, 89204 - 060 4М", "lat": -26.2903276, "lng": -48.8434707}, {"id": "6972982e4910c3a522ccc263", "name": "Av Dr. Albano Schulz - Centro, Joinville - SC, 89201 - 220. 4М", "lat": -26.2961004, "lng": -48.842649}, {"id": "6972982e4910c3a522ccc262", "name": "R Benjamin Constant, 104 - Costa E Silva, Joinville - SC, 89204 - 360 4М", "lat": -26.2841941, "lng": -48.8504549}, {"id": "6972982e4910c3a522ccc261", "name": "R Dr. João Colin, 1857 - América, Joinville - SC, 89204 - 003 5М", "lat": -26.2841181, "lng": -48.8492133}, {"id": "6972982e4910c3a522ccc260", "name": "R Dr. João Colin, 1661 - América, Joinville - SC, 89204 - 003 6М", "lat": -26.2858421, "lng": -48.8490095}, {"id": "6972982e4910c3a522ccc25f", "name": "R Tubarão, 19 - América, Joinville - SC, 89204 - 340 5М", "lat": -26.2865121, "lng": -48.8490015}, {"id": "6972982e4910c3a522ccc25e", "name": "R Dr. João Colin, 1495 - América, Joinville - SC, 89204 - 001 5М", "lat": -26.2871626, "lng": -48.8488854}, {"id": "6972982e4910c3a522ccc25d", "name": "R Dr. João Colin, 1415 - América, Joinville - SC, 89204 - 001 5М", "lat": -26.2879454, "lng": -48.8489458}, {"id": "6972982e4910c3a522ccc25c", "name": "R Germano Stein, 191 - 1 - América, Joinville - SC, 89204 - 003 5М", "lat": -26.2889259, "lng": -48.8485415}, {"id": "6972982e4910c3a522ccc25b", "name": "R Mário Lobo, 106 - 154 - Centro, Joinville - SC, 89201 - 330 5М", "lat": -26.2994669, "lng": -48.8490873}, {"id": "6972982e4910c3a522ccc25a", "name": "R Mário Lobo, 10 - Centro, Joinville - SC, 89237 - 721 7М", "lat": -26.2995519, "lng": -48.8479302}, {"id": "6972982e4910c3a522ccc259", "name": "Schuz", "lat": -26.278377, "lng": -48.850702}, {"id": "6972982e4910c3a522ccc258", "name": "Ropek", "lat": -26.276912, "lng": -48.85083}, {"id": "6972982e4910c3a522ccc257", "name": "Frigelar", "lat": -26.276337, "lng": -48.850906}, {"id": "6972982e4910c3a522ccc256", "name": "Nobre Imóveis", "lat": -26.275948, "lng": -48.850942}, {"id": "6972982e4910c3a522ccc255", "name": "Mundo Animal", "lat": -26.275454, "lng": -48.85103}, {"id": "6972982e4910c3a522ccc254", "name": "Ana Gê Imóveis", "lat": -26.274573, "lng": -48.851122}, {"id": "6972982e4910c3a522ccc253", "name": "Bk", "lat": -26.273442, "lng": -48.851263}, {"id": "6972982e4910c3a522ccc252", "name": "Mc Terminal", "lat": -26.272774, "lng": -48.850321}, {"id": "6972982e4910c3a522ccc251", "name": "Paroquia Santo Antônio", "lat": -26.272725, "lng": -48.849866}, {"id": "6972982e4910c3a522ccc250", "name": "Lanchonete Tião", "lat": -26.272827, "lng": -48.850138}, {"id": "6972982e4910c3a522ccc24f", "name": "Stop Carros", "lat": -26.273357, "lng": -48.850137}, {"id": "6972982e4910c3a522ccc24e", "name": "Catarinense", "lat": -26.274605, "lng": -48.849957}, {"id": "6972982e4910c3a522ccc24d", "name": "Felipe Automóvel", "lat": -26.274796, "lng": -48.850098}, {"id": "6972982e4910c3a522ccc24c", "name": "Central De Atendimento Cidadão", "lat": -26.276136, "lng": -48.849987}, {"id": "6972982e4910c3a522ccc24b", "name": "Gráfica", "lat": -26.277568, "lng": -48.849823}, {"id": "6972982e4910c3a522ccc24a", "name": "Yamara", "lat": -26.27921, "lng": -48.849671}, {"id": "6972982e4910c3a522ccc249", "name": "Docoll", "lat": -26.279851, "lng": -48.849607}, {"id": "6972982e4910c3a522ccc248", "name": "Farmácia Nisei", "lat": -26.280432, "lng": -48.849591}, {"id": "6972982e4910c3a522ccc247", "name": "Balaroti", "lat": -26.281221, "lng": -48.849473}, {"id": "6972982e4910c3a522ccc246", "name": "Barigui", "lat": -26.282077, "lng": -48.849361}, {"id": "6972982e4910c3a522ccc245", "name": "R Itaiópolis, 363 - 129 - América, Joinville - SC, 89204 - 100 4М", "lat": -26.2873367, "lng": -48.8462941}, {"id": "6972982e4910c3a522ccc244", "name": "R Orestes Guimarães, 668 - 702 - América, Joinville - SC, 89204 - 060 5М", "lat": -26.2918889, "lng": -48.8456235}, {"id": "6972982e4910c3a522ccc243", "name": "R Orestes Guimarães, 590 - América, Joinville - SC, 89204 - 060 7М", "lat": -26.2926338, "lng": -48.8456628}, {"id": "6972982e4910c3a522ccc242", "name": "R Orestes Guimarães, 521 - 453 - América, Joinville - SC 4М", "lat": -26.2930573, "lng": -48.8456058}, {"id": "6972982e4910c3a522ccc241", "name": "Forgetech - Anita Garibaldi, Joinville - SC, 89203 - 300 3 M", "lat": -26.314869, "lng": -48.8517259}, {"id": "6972982e4910c3a522ccc240", "name": "Edifício Eça De Queirós - R Major Navarro Lins, 745 - Anita Garibaldi, Joinville - SC, 89203 - 500 2, 5 M", "lat": -26.3155244, "lng": -48.8522198}, {"id": "6972982e4910c3a522ccc23f", "name": "R Porto União, 642 - 700 - Anita Garibaldi, Joinville - SC, 89203 - 460 2, 5 M", "lat": -26.3160681, "lng": -48.8529004}, {"id": "6972982e4910c3a522ccc23e", "name": "R Alagoas, 294 - 300 - Anita Garibaldi, Joinville - SC, 89203 - 540 3 M", "lat": -26.3166286, "lng": -48.8534965}, {"id": "6972982e4910c3a522ccc23d", "name": "R Major Navarro Lins, 900 - 974 - Anita Garibaldi, Joinville - SC, 89203 - 500 3 M", "lat": -26.3171202, "lng": -48.8542361}, {"id": "6972982e4910c3a522ccc23c", "name": "Excent Consultoria - Operações, Supply Chain E Logística - R Concórdia - Anita Garibaldi, Joinville - SC, 89203 - 600 3 M", "lat": -26.3162406, "lng": -48.8577877}, {"id": "6972982e4910c3a522ccc23b", "name": "R Paraíba, 720 - 774 - Anita Garibaldi, Joinville - SC, 89203 - 530 4 M", "lat": -26.3149958, "lng": -48.8563282}, {"id": "6972982e4910c3a522ccc23a", "name": "Av Dr. Albano Schulz, 865 - 727 - Centro, Joinville - SC, 89201 - 220 5М", "lat": -26.2983442, "lng": -48.8425652}, {"id": "6972982e4910c3a522ccc239", "name": "Ottokar Doerffel, 12 - Atiradores - Atiradores, Joinville - SC, 89203 - 001 5 M", "lat": -26.3114624, "lng": -48.8562833}, {"id": "6972982e4910c3a522ccc238", "name": "El Patron", "lat": -26.28616, "lng": -48.849827}, {"id": "6972982e4910c3a522ccc237", "name": "R Gothard Kaesemodel, 395 - Anita Garibaldi, Joinville - SC, 89203 - 400 2, 5 M", "lat": -26.3171893, "lng": -48.8584475}, {"id": "6972982e4910c3a522ccc236", "name": "El Patron", "lat": -26.286394, "lng": -48.849806}, {"id": "6972982e4910c3a522ccc235", "name": "L/A Autos", "lat": -26.286697, "lng": -48.849764}, {"id": "6972982e4910c3a522ccc234", "name": "Pietra Pan Festas", "lat": -26.287092, "lng": -48.849717}, {"id": "6972982e4910c3a522ccc232", "name": "Zior", "lat": -26.287859, "lng": -48.849665}, {"id": "6972982e4910c3a522ccc230", "name": "R Anita Garibaldi, 859 - 809 - Anita Garibaldi, Joinville - SC, 89203 - 300 2, 5 M", "lat": -26.3203641, "lng": -48.851911}, {"id": "6972982e4910c3a522ccc22f", "name": "C7 Multimarcas", "lat": -26.291042, "lng": -48.849903}, {"id": "6972982e4910c3a522ccc22d", "name": "R Rio Grande Do Norte, 225 - Anita Garibaldi, Joinville - SC, 89203 - 440 2, 5 M", "lat": -26.320615, "lng": -48.8499335}, {"id": "6972982e4910c3a522ccc22c", "name": "Quintino", "lat": -26.290856, "lng": -48.84852}, {"id": "6972982e4910c3a522ccc22b", "name": "Dr João Colin", "lat": -26.291768, "lng": -48.8483}, {"id": "6972982e4910c3a522ccc22a", "name": "Orthodontic", "lat": -26.292174, "lng": -48.849986}, {"id": "6972982e4910c3a522ccc229", "name": "R Rio Grande Do Norte, 368 - 426 - Anita Garibaldi, Joinville - SC, 89203 - 440 3 M", "lat": -26.321125, "lng": -48.848238}, {"id": "6972982e4910c3a522ccc228", "name": "Rolf Colin", "lat": -26.292668, "lng": -48.84815}, {"id": "6972982e4910c3a522ccc227", "name": "Disfrio", "lat": -26.292445, "lng": -48.850009}, {"id": "6972982e4910c3a522ccc226", "name": "R Leite Ribeiro, 507 - 427 - Anita Garibaldi, Joinville - SC, 89203 - 440 3 M", "lat": -26.321363, "lng": -48.8472436}, {"id": "6972982e4910c3a522ccc225", "name": "João Colin 867", "lat": -26.293166, "lng": -48.848164}, {"id": "6972982e4910c3a522ccc222", "name": "R Padre Kolb, 1353 - Anita Garibaldi, Joinville - SC, 89202 - 145 2, 5 M", "lat": -26.3148143, "lng": -48.8454264}, {"id": "6972982e4910c3a522ccc220", "name": "R Eugênio Moreira, 425 - 383 - Anita Garibaldi, Joinville - SC, 89202 - 100I 2, 5 M", "lat": -26.3147569, "lng": -48.8475236}, {"id": "6972982e4910c3a522ccc21f", "name": "R Eugênio Moreira, 370 - 382 - Anita Garibaldi, Joinville - SC, 89202 - 100 2, 5 M", "lat": -26.314453, "lng": -48.8476717}, {"id": "6972982e4910c3a522ccc21e", "name": "R Bahia, 273 - 235 - Anita Garibaldi, Joinville - SC, 89203 - 580 2, 5 M", "lat": -26.3149309, "lng": -48.8501712}, {"id": "6972982e4910c3a522ccc21d", "name": "R Major Navarro Lins, 549 - Anita Garibaldi, Joinville - SC, 89203 - 500 2, 5 M", "lat": -26.3143235, "lng": -48.8508552}, {"id": "6972982e4910c3a522ccc21c", "name": "R Paraná, 200 - 326 - Anita Garibaldi, Joinville - SC, 89202 - 160 2, 5 M", "lat": -26.3133915, "lng": -48.8477284}, {"id": "6972982e4910c3a522ccc21a", "name": "Av Getúlio Vargas - Anita Garibaldi, Joinville - SC, 89202 - 000 3, 5 M", "lat": -26.3132695, "lng": -48.8455045}, {"id": "6972982e4910c3a522ccc219", "name": "R Pres. Affonso Penna, 1193 - 1151 - Bucarein, Joinville - SC, 89202 - 420 4 M", "lat": -26.313015, "lng": -48.8453466}, {"id": "6972982e4910c3a522ccc217", "name": "R Gen. Valga Neves - Anita Garibaldi, Joinville - SC, 89202 - 138 2, 7 M", "lat": -26.3115534, "lng": -48.8502856}, {"id": "6972982e4910c3a522ccc216", "name": "Posto Ipiranga - Av Getúlio Vargas, 450 - Anita Garibaldi, Joinville - SC, 89202 - 002 4 M", "lat": -26.3113377, "lng": -48.8456544}, {"id": "6972982e4910c3a522ccc215", "name": "Av Getúlio Vargas, 395 - Bucarein, Joinville - SC, 89202 - 205 6 M", "lat": -26.3112355, "lng": -48.8454331}, {"id": "6972982e4910c3a522ccc214", "name": "SC - 418, 299 - 283 - Bucarein, Joinville - SC, 89202 - 205 4, 5 M", "lat": -26.3102915, "lng": -48.8456279}, {"id": "6972982e4910c3a522ccc213", "name": "R Saí, 2 - 100 - Anita Garibaldi, Joinville - SC, 89202 - 170", "lat": -26.3104676, "lng": -48.8466197}, {"id": "6972982e4910c3a522ccc212", "name": "Gr4 Construtora & Incorporadora Ltda. - R Eugênio Moreira, 503 - 1 - Anita Garibaldi, Joinville - SC, 89202 - 203 3 M", "lat": -26.3105124, "lng": -48.8478511}, {"id": "6972982e4910c3a522ccc211", "name": "R Dr. Plácido Gomes - Anita Garibaldi, Joinville - SC, 89202 - 050 3 M", "lat": -26.3105755, "lng": -48.8489538}, {"id": "6972982e4910c3a522ccc210", "name": "R Visc. De Taunay, 648 - 944 - Atiradores, Joinville - SC, 89203 - 005 2, 7 M", "lat": -26.3064462, "lng": -48.8543793}, {"id": "6972982e4910c3a522ccc20f", "name": "R Visc. De Taunay, 1065 - 945 - Atiradores, Joinville - SC, 89203 - 005 3, 5 M", "lat": -26.3071537, "lng": -48.8551725}, {"id": "6972982e4910c3a522ccc20e", "name": "Serv. Leonhard Grogel, 342 - Atiradores", "lat": -26.3048633, "lng": -48.8547657}, {"id": "6972982e4910c3a522ccc20d", "name": "R Jacob Eisenhuth, 190 - 272 - Atiradores, Joinville - SC, 89203 - 070 3 M", "lat": -26.3043703, "lng": -48.8542073}, {"id": "6972982e4910c3a522ccc20c", "name": "Ufficio Creativo - R Otto Boehm, 357 - América, Joinville - SC, 89201 - 700 4 M", "lat": -26.3021516, "lng": -48.8545905}, {"id": "6972982e4910c3a522ccc20b", "name": "R Otto Boehm, 127 - 69 - América, Joinville - SC, 89201 - 602 3, 5 M", "lat": -26.3014049, "lng": -48.8521631}, {"id": "6972982e4910c3a522ccc20a", "name": "Otto Boehm, 185 - América - Atiradores, Joinville - SC, 89201 - 602 3 M", "lat": -26.3016171, "lng": -48.8527931}, {"id": "6972982e4910c3a522ccc209", "name": "Av Getúlio Vargas, 1444 - Bucarein, Joinville - SC, 89202 - 002 5М", "lat": -26.3203012, "lng": -48.8451709}, {"id": "6972982e4910c3a522ccc208", "name": "R Leite Ribeiro, 54 - Anita Garibaldi, Joinville - SC, 89202 - 090 4М", "lat": -26.3215688, "lng": -48.8453144}, {"id": "6972982e4910c3a522ccc207", "name": "Anita Garibaldi, Joinville - SC, 89202 - 090 7М", "lat": -26.3218516, "lng": -48.8455769}, {"id": "6972982e4910c3a522ccc206", "name": "Museu Das Bikes - Av Getúlio Vargas, 1614 - Anita Garibaldi, Joinville - SC, 89202 - 090 8М", "lat": -26.3221807, "lng": -48.8450485}, {"id": "6972982e4910c3a522ccc205", "name": "Chantilly - R 9 De Março, 774 - Sala 4 E 5 - Centro, Joinville - SC, 89201 - 060 3 M", "lat": -26.3013223, "lng": -48.8491372}, {"id": "6972982e4910c3a522ccc204", "name": "Táxi Executivo Joinville - R Urussanga R Blumenau, R Ararangua, 123, Joinville - SC, 89202 - 400 4 M", "lat": -26.3015303, "lng": -48.8478478}, {"id": "6972982e4910c3a522ccc203", "name": "Vida Saudável - R Inácio Bastos, 183 - Bucarein, Joinville - SC, 89202 - 312 4М", "lat": -26.3162718, "lng": -48.8432166}, {"id": "6972982e4910c3a522ccc202", "name": "Praça Bailarina Liselott Trinks - Esquina Com A R 9 De Março, Av Juscelino Kubitscheck - Centro, Joinville - SC, 89201 - 400 4 M", "lat": -26.3016424, "lng": -48.8481237}, {"id": "6972982e4910c3a522ccc201", "name": "Servidão Luxemburgo, 1 - Bucarein, Joinville - SC, 89202 - 315 4М", "lat": -26.3161943, "lng": -48.8416083}, {"id": "6972982e4910c3a522ccc1ff", "name": "Ayana Ebooks - Editora Digital - R Henrique Meyer - Centro, Joinville - SC, 89201 - 405 3 M", "lat": -26.301377, "lng": -48.850705}, {"id": "6972982e4910c3a522ccc1fe", "name": "R Padre Kolb, 1074 - 1098 - Bucarein, Joinville - SC, 89202 - 350 4М", "lat": -26.3145197, "lng": -48.8424874}, {"id": "6972982e4910c3a522ccc1fd", "name": "R Max Colin, 905 - Centro, Joinville - SC, 89204 - 041 3, 5 M", "lat": -26.2946447, "lng": -48.8513045}, {"id": "6972982e4910c3a522ccc1fc", "name": "R Pres. Affonso Penna, 467 - 267 - Bucarein, Joinville - SC, 89202 - 420 5М", "lat": -26.312786, "lng": -48.8425588}, {"id": "6972982e4910c3a522ccc1fb", "name": "R Pres. Affonso Penna, 1015 - Bucarein, Joinville - SC, 89202 - 420 7М", "lat": -26.3128031, "lng": -48.8428669}, {"id": "6972982e4910c3a522ccc1fa", "name": "R Alexandre Schlemm, 211 - Bucarein, Joinville - SC, 89202 - 417 5М", "lat": -26.3121055, "lng": -48.8429661}, {"id": "6972982e4910c3a522ccc1f9", "name": "R Dr. Plácido Olímpio De Oliveira, 860 - Anita Garibaldi, Joinville - SC, 89202 - 165 5М", "lat": -26.3111291, "lng": -48.8431234}, {"id": "6972982e4910c3a522ccc1f7", "name": "R Dr. Plácido Gomes, 217 - 15 - Bucarein, Joinville - SC, 89202 - 203", "lat": -26.3102362, "lng": -48.8431036}, {"id": "6972982e4910c3a522ccc1f6", "name": "R São Paulo, 32 - Bucarein, Joinville - SC, 89202 - 200 4М", "lat": -26.3087794, "lng": -48.8430889}, {"id": "6972982e4910c3a522ccc1f5", "name": "SC - 418, 86 - 98 - Bucarein, Joinville - SC, 89210 - 001 6М", "lat": -26.3084332, "lng": -48.8428907}, {"id": "6972982e4910c3a522ccc1f4", "name": "R São Paulo, 30 - Itaum, Joinville - SC, 89202 - 200 7М", "lat": -26.3075631, "lng": -48.8431402}, {"id": "6972982e4910c3a522ccc1f3", "name": "Nelson Nunes Guimarães, 397 - Pirabeiraba, Joinville - SC, 89203 - 060 5М", "lat": -26.3074119, "lng": -48.8411493}, {"id": "6972982e4910c3a522ccc1f2", "name": "Alcateia - Av Cel. Procópio Gomes, 360 - Bucarein, Joinville - SC, 89202 - 300 4М", "lat": -26.3090433, "lng": -48.8410068}, {"id": "6972982e4910c3a522ccc1f1", "name": "Posto Ipiranga, Esq - R Padre Carlos, Av Juscelino Kubitscheck, 315 - Centro, Joinville - SC, 89201 - 110 8 M", "lat": -26.3037575, "lng": -48.8464027}, {"id": "6972982e4910c3a522ccc1f0", "name": "R Padre Carlos, 78 - 96 - Centro, Joinville - SC, 89201 - 110 4 M", "lat": -26.3044028, "lng": -48.8462207}, {"id": "6972982e4910c3a522ccc1ef", "name": "Posto Príncipe - Rede Damiani - R Padre Carlos, 315 - Centro, Joinville - SC, 89201 - 110 4 M", "lat": -26.304428, "lng": -48.8455018}, {"id": "6972982e4910c3a522ccc1ee", "name": "R Dr. Plácido Olímpio De Oliveira, 669 - Anita Garibaldi, Joinville - SC, 89202 - 450 5М", "lat": -26.3111657, "lng": -48.8410356}, {"id": "6972982e4910c3a522ccc1ed", "name": "R Alexandre Schlemm, 110 - Bucarein, Joinville - SC, 89202 - 417 4М", "lat": -26.3120779, "lng": -48.8417793}, {"id": "6972982e4910c3a522ccc1ec", "name": "Av Cel. Procópio Gomes - Bucarein, Joinville - SC, 89202 - 300 5М", "lat": -26.3118489, "lng": -48.8408492}, {"id": "6972982e4910c3a522ccc1eb", "name": "Av Dr. Paulo Medeiros, 3 - Centro, Joinville - SC, 89201 - 210 5 M", "lat": -26.3056495, "lng": -48.8411342}, {"id": "6972982e4910c3a522ccc1ea", "name": "R Pres. Affonso Penna, 467 - 267 - Bucarein, Joinville - SC, 89202 - 420 5М", "lat": -26.3128358, "lng": -48.8409039}, {"id": "6972982e4910c3a522ccc1e9", "name": "Waismann Corporation - R Abdon Batista, 298 - Sala 06 - Centro, Joinville - SC, 89201 - 010 5 M", "lat": -26.3056714, "lng": -48.8421065}, {"id": "6972982e4910c3a522ccc1e8", "name": "R Abdon Batista, 198 - 244 - Centro, Joinville - SC, 89201 - 010 5 M", "lat": -26.3056744, "lng": -48.8430195}, {"id": "6972982e4910c3a522ccc1e7", "name": "Política Prática, Edifíciohannover - R Abdon Batista, 121 - 1503 - Centro Do Município, Joinville - SC, 89201 - 010 3 M", "lat": -26.3056831, "lng": -48.843974}, {"id": "6972982e4910c3a522ccc1e6", "name": "R Abdon Batista, 24 - Centro 7 M", "lat": -26.305781, "lng": -48.845095}, {"id": "6972982e4910c3a522ccc1e5", "name": "Av Cel. Procópio Gomes - Bucarein, Joinville - SC, 89202 - 300 4М", "lat": -26.313103, "lng": -48.8405441}, {"id": "6972982e4910c3a522ccc1e4", "name": "Gestão Hidráulica Ltda - R Min. Calógeras, 474 - Centro, Joinville - SC, 89201 - 485 5, 5 M", "lat": -26.307261, "lng": -48.8447934}, {"id": "6972982e4910c3a522ccc1e2", "name": "Av Cel. Procópio Gomes, 934 - Bucarein, Joinville - SC, 89202 - 422 5М", "lat": -26.3144497, "lng": -48.8408184}, {"id": "6972982e4910c3a522ccc1e1", "name": "R Padre Kolb, 865 - Bucarein, Joinville - SC, 89202 - 350 5М", "lat": -26.3145414, "lng": -48.8403222}, {"id": "6972982e4910c3a522ccc1e0", "name": "Tábuas De Frios Joinville / Oh My Board - Tv. São José - Centro, Joinville - SC, 89201 - 495 3, 5 M", "lat": -26.307439, "lng": -48.8466478}, {"id": "6972982e4910c3a522ccc1df", "name": "R Conselheiro Mafra, 05 - Centro, Joinville - SC, 89201 - 480 3 M", "lat": -26.307381, "lng": -48.8477415}, {"id": "6972982e4910c3a522ccc1de", "name": "R Inácio Bastos, 427 - Bucarein, Joinville - SC, 89202 - 312 4М", "lat": -26.3161255, "lng": -48.8406189}, {"id": "6972982e4910c3a522ccc1dd", "name": "R Jaguaruna, 376 - 334 - Centro, Joinville - SC, 89201 - 450 3 M", "lat": -26.3068932, "lng": -48.8500428}, {"id": "6972982e4910c3a522ccc1dc", "name": "R Conselheiro Mafra, 286 - Centro 7 M", "lat": -26.3052432, "lng": -48.8497645}, {"id": "6972982e4910c3a522ccc1db", "name": "Praça Da Liberdade - Av Cel. Procópio Gomes - Bucarein, Joinville - SC, 89202 - 300 7М", "lat": -26.32056, "lng": -48.8402427}, {"id": "6972982e4910c3a522ccc1da", "name": "R Jaguaruna, 234 - 92 - Centro, Joinville - SC, 89201 - 450 3 M", "lat": -26.3059353, "lng": -48.8490487}, {"id": "6972982e4910c3a522ccc1d8", "name": "R Sen. Felipe Schmidt, 362 - Centro, Joinville - SC, 89201 - 440 2, 5 M", "lat": -26.305746, "lng": -48.8505876}, {"id": "6972982e4910c3a522ccc1d7", "name": "R Norberto Haritsch - Bucarein, Joinville - SC, 89210 - 085 5М", "lat": -26.3222774, "lng": -48.8389093}, {"id": "6972982e4910c3a522ccc1d6", "name": "R Sen. Felipe Schmidt, 479 - Centro, Joinville - SC, 89201 - 440 4 M", "lat": -26.3066753, "lng": -48.8515807}, {"id": "6972982e4910c3a522ccc1d5", "name": "Portal Kartweb - R Visc. De Taunay - Centro, Joinville - SC, 89201 - 420 5 M", "lat": -26.3056483, "lng": -48.8526888}, {"id": "6972982e4910c3a522ccc1d4", "name": "R Piauí, 530 - 594 - Bucarein, Joinville - SC, 89202 - 210 4М", "lat": -26.3206339, "lng": -48.8392295}, {"id": "6972982e4910c3a522ccc1d3", "name": "R Jacob Eisenhuth, 170 - Atiradores, Joinville - SC, 89203 - 070 2, 5 M", "lat": -26.304278, "lng": -48.8533805}, {"id": "6972982e4910c3a522ccc1d1", "name": "R Visc. De Taunay, 338 - 492 - Atiradores, Joinville - SC, 89201 - 420 3 M", "lat": -26.3044016, "lng": -48.8512733}, {"id": "6972982e4910c3a522ccc1d0", "name": "R Visc. De Taunay, 146 - 298 - Centro, Joinville - SC, 89201 - 420 2, 7 M", "lat": -26.3028359, "lng": -48.8494977}, {"id": "6972982e4910c3a522ccc1cf", "name": "R Pedro Lobo, 116 - 198 - Centro, Joinville - SC, 89201 - 430 7 M", "lat": -26.3035894, "lng": -48.848062}, {"id": "6972982e4910c3a522ccc1ce", "name": "R Dr. Plácido Olímpio De Oliveira, 448 - Anita Garibaldi, Joinville - SC, 89202 - 450", "lat": -26.3109716, "lng": -48.8394058}, {"id": "6972982e4910c3a522ccc1cc", "name": "SC - 418, 499 - 469 - Bucarein, Joinville - SC, 89202 - 207 3 M", "lat": -26.3073984, "lng": -48.8447237}, {"id": "6972982e4910c3a522ccc1ca", "name": "R Min. Calógeras, 290 - 306 - Bucarein, Joinville - SC, 89202 - 207 3 M", "lat": -26.3073533, "lng": -48.8429812}, {"id": "6972982e4910c3a522ccc1c9", "name": "R Urussanga, 409 - 227 - Bucarein, Joinville - SC, 89202 - 400", "lat": -26.3099852, "lng": -48.8396613}, {"id": "6972982e4910c3a522ccc1c7", "name": "Av Cel. Procópio Gomes - Centro, Joinville - SC, 89201 - 210 2, 5 M", "lat": -26.3059891, "lng": -48.8410886}, {"id": "6972982e4910c3a522ccc1c6", "name": "R Urussanga, 39 - 1 - Bucarein, Joinville - SC 3М", "lat": -26.3071255, "lng": -48.8396868}, {"id": "6972982e4910c3a522ccc1c5", "name": "Al. Carlos Adauto Vieira - Bucarein, Joinville - SC, 89201 - 210 3М", "lat": -26.3068285, "lng": -48.8399138}, {"id": "6972982e4910c3a522ccc1c4", "name": "Centro, Joinville - SC 10 M", "lat": -26.3055199, "lng": -48.8407299}, {"id": "6972982e4910c3a522ccc1c3", "name": "R Cais Conde D'Eu, 4 - 80 - Bucarein, Joinville - SC, 89202 - 460 5 M", "lat": -26.3062034, "lng": -48.838914}, {"id": "6972982e4910c3a522ccc1c2", "name": "R Cais Conde D'Eu - Bucarein, Joinville - SC, 89202 - 490 5 M", "lat": -26.3056621, "lng": -48.8396684}, {"id": "6972982e4910c3a522ccc1c1", "name": "R Carlos Frederico Adolfo Schneider, 241 - 7 - Saguaçu, Joinville - SC, 89205 - 070 3 M", "lat": -26.3044779, "lng": -48.8384946}, {"id": "6972982e4910c3a522ccc1c0", "name": "R Triângulo Mineiro, 253 - 1 - Saguaçu, Joinville - SC, 89221 - 017 3, 5 M", "lat": -26.3029177, "lng": -48.8401079}, {"id": "6972982e4910c3a522ccc1bf", "name": "Perto De Prefeitura Municipal De Joinville, Próximo A Saguaçu, Joinville 4 M", "lat": -26.2999319, "lng": -48.8417934}, {"id": "6972982e4910c3a522ccc1be", "name": "Ao Lado De Prefeitura Municipal De Joinville, Próximo A Saguaçu, Joinville 3, 5 M", "lat": -26.3013406, "lng": -48.8410055}, {"id": "6972982e4910c3a522ccc1bd", "name": "Praça Carlos Ficker 10 M", "lat": -26.3015095, "lng": -48.8416096}, {"id": "6972982e4910c3a522ccc1bc", "name": "Praça Da Bandeira 2, 5 M", "lat": -26.3016072, "lng": -48.8425175}, {"id": "6972982e4910c3a522ccc1bb", "name": "Ponto De Ônibus", "lat": -26.3005099, "lng": -48.8423771}, {"id": "6972982e4910c3a522ccc1ba", "name": "Camelódromo 3 M", "lat": -26.300031, "lng": -48.8424676}, {"id": "6972982e4910c3a522ccc1b8", "name": "Sentar 3, 5 M", "lat": -26.2992348, "lng": -48.8425383}, {"id": "6972982e4910c3a522ccc1b7", "name": "Hotel Lê Village 3, 5 M", "lat": -26.2984047, "lng": -48.8425263}, {"id": "6972982e4910c3a522ccc1b6", "name": "Jk Restaurante Choperia 3 M", "lat": -26.3023698, "lng": -48.8475856}, {"id": "6972982e4910c3a522ccc1b5", "name": "Deluka", "lat": -26.302419, "lng": -48.84212}, {"id": "6972982e4910c3a522ccc1b3", "name": "Divina Marmita", "lat": -26.300805, "lng": -48.842383}, {"id": "6972982e4910c3a522ccc1b0", "name": "Abplast", "lat": -26.292186, "lng": -48.851778}, {"id": "6972982e4910c3a522ccc1ae", "name": "A.A.P.J União", "lat": -26.291633, "lng": -48.853794}, {"id": "6972982e4910c3a522ccc1ad", "name": "Ed. On Concept", "lat": -26.29061, "lng": -48.853441}, {"id": "6972982e4910c3a522ccc1ac", "name": "Home Palace", "lat": -26.290583, "lng": -48.852763}, {"id": "6972982e4910c3a522ccc1a9", "name": "R Quintino Bocaiúva 397", "lat": -26.290805, "lng": -48.850491}, {"id": "6972982e4910c3a522ccc1a8", "name": "C7 Multimarcas", "lat": -26.290788, "lng": -48.850246}, {"id": "6972982e4910c3a522ccc1a7", "name": "Animal Farma", "lat": -26.289886, "lng": -48.849843}, {"id": "6972982e4910c3a522ccc1a6", "name": "Unimed", "lat": -26.28991, "lng": -48.84872}, {"id": "6972982e4910c3a522ccc1a5", "name": "Petisqueira Caixias", "lat": -26.293563, "lng": -48.867278}, {"id": "6972982e4910c3a522ccc1a4", "name": "Campos Sales", "lat": -26.293562, "lng": -48.868039}, {"id": "6972982e4910c3a522ccc1a3", "name": "R Max Colin 2411", "lat": -26.293641, "lng": -48.866786}, {"id": "6972982e4910c3a522ccc1a2", "name": "Rastreadores", "lat": -26.293646, "lng": -48.865826}, {"id": "6972982e4910c3a522ccc1a1", "name": "Capitão Space", "lat": -26.293729, "lng": -48.864794}, {"id": "6972982e4910c3a522ccc1a0", "name": "Capitão Spece", "lat": -26.293622, "lng": -48.865025}, {"id": "6972982e4910c3a522ccc19f", "name": "Acr Clinica De Nutriçao", "lat": -26.293901, "lng": -48.862054}, {"id": "6972982e4910c3a522ccc19e", "name": "Rodrigo Lanches", "lat": -26.293743, "lng": -48.862921}, {"id": "6972982e4910c3a522ccc19d", "name": "Monte Remote", "lat": -26.293857, "lng": -48.861731}, {"id": "6972982e4910c3a522ccc19c", "name": "Porto", "lat": -26.293951, "lng": -48.860984}, {"id": "6972982e4910c3a522ccc19b", "name": "Brothaus", "lat": -26.293931, "lng": -48.860308}, {"id": "6972982e4910c3a522ccc19a", "name": "Die Acht", "lat": -26.293586, "lng": -48.860097}, {"id": "6972982e4910c3a522ccc198", "name": "Chevrolet", "lat": -26.294021, "lng": -48.859203}, {"id": "6972982e4910c3a522ccc197", "name": "Boliche", "lat": -26.294141, "lng": -48.857536}, {"id": "6972982e4910c3a522ccc196", "name": "Lirica", "lat": -26.294248, "lng": -48.857025}, {"id": "6972982e4910c3a522ccc195", "name": "Auto Glass", "lat": -26.294323, "lng": -48.856101}, {"id": "6972982e4910c3a522ccc194", "name": "Rádio Joinville", "lat": -26.294352, "lng": -48.855058}, {"id": "6972982e4910c3a522ccc193", "name": "Don Toro", "lat": -26.294386, "lng": -48.854456}, {"id": "6972982e4910c3a522ccc192", "name": "Abc Da Contrução", "lat": -26.294443, "lng": -48.853834}, {"id": "6972982e4910c3a522ccc191", "name": "Difatto", "lat": -26.294532, "lng": -48.853184}, {"id": "6972982e4910c3a522ccc190", "name": "Brcondos", "lat": -26.295167, "lng": -48.852785}, {"id": "6972982e4910c3a522ccc18f", "name": "Espaço Gourmet", "lat": -26.295947, "lng": -48.852837}, {"id": "6972982e4910c3a522ccc18e", "name": "R Lajes", "lat": -26.296803, "lng": -48.852832}, {"id": "6972982e4910c3a522ccc18d", "name": "Rotatória José Oliveira", "lat": -26.294916, "lng": -48.843248}, {"id": "6972982e4910c3a522ccc18b", "name": "Escola Germano", "lat": -26.29446, "lng": -48.84446}, {"id": "6972982e4910c3a522ccc18a", "name": "Tranversal", "lat": -26.295006, "lng": -48.844546}, {"id": "6972982e4910c3a522ccc188", "name": "Concept", "lat": -26.295679, "lng": -48.845785}, {"id": "6972982e4910c3a522ccc187", "name": "Anagé Imóveis", "lat": -26.295073, "lng": -48.845741}, {"id": "6972982e4910c3a522ccc184", "name": "Restante Barão", "lat": -26.294856, "lng": -48.846797}, {"id": "6972982e4910c3a522ccc183", "name": "Posto Veneza", "lat": -26.294996, "lng": -48.847958}, {"id": "6972982e4910c3a522ccc182", "name": "Ortobom", "lat": -26.295838, "lng": -48.84776}, {"id": "6972982e4910c3a522ccc181", "name": "Escola Técnica", "lat": -26.296071, "lng": -48.84766}, {"id": "6972982e4910c3a522ccc180", "name": "Kilos Restaurante", "lat": -26.296157, "lng": -48.846473}, {"id": "6972982e4910c3a522ccc17f", "name": "Estacionamento Polaco", "lat": -26.296344, "lng": -48.843324}, {"id": "6972982e4910c3a522ccc17e", "name": "Vidraçaria Castelo", "lat": -26.296338, "lng": -48.844114}, {"id": "6972982e4910c3a522ccc17d", "name": "Bambihi", "lat": -26.296272, "lng": -48.844873}, {"id": "6972982e4910c3a522ccc17b", "name": "Tiajuli Vacinas", "lat": -26.296295, "lng": -48.845887}, {"id": "6972982e4910c3a522ccc17a", "name": "Juares Machado", "lat": -26.296905, "lng": -48.846232}, {"id": "6972982e4910c3a522ccc179", "name": "Edifício Renate", "lat": -26.296963, "lng": -48.846998}, {"id": "6972982e4910c3a522ccc178", "name": "Tecidos Norte Sul", "lat": -26.296892, "lng": -48.84761}, {"id": "6972982e4910c3a522ccc177", "name": "Baumer", "lat": -26.297292, "lng": -48.847716}, {"id": "6972982e4910c3a522ccc176", "name": "Opa Bier", "lat": -26.297787, "lng": -48.847597}, {"id": "6972982e4910c3a522ccc175", "name": "Semantha", "lat": -26.29787, "lng": -48.846848}, {"id": "6972982e4910c3a522ccc174", "name": "Banco Multiplo", "lat": -26.297912, "lng": -48.846215}, {"id": "6972982e4910c3a522ccc173", "name": "Lanchonete Rio São Paulo", "lat": -26.297922, "lng": -48.843819}, {"id": "6972982e4910c3a522ccc172", "name": "Acredicoop", "lat": -26.298006, "lng": -48.844791}, {"id": "6972982e4910c3a522ccc171", "name": "Dona Francisca Café", "lat": -26.297949, "lng": -48.845783}, {"id": "6972982e4910c3a522ccc170", "name": "Dentista", "lat": -26.297048, "lng": -48.84583}, {"id": "6972982e4910c3a522ccc16e", "name": "Via Café", "lat": -26.297053, "lng": -48.843667}, {"id": "697290db4910c3a522c67e72", "name": "R Alm. Barroso, 716 - América, Joinville - SC, 89204 - 200 4М", "lat": -26.282299, "lng": -48.8511489}, {"id": "697290db4910c3a522c67e71", "name": "R José De Alencar, 140 - América, Joinville - SC, 89204 - 210 5М", "lat": -26.2813587, "lng": -48.8510627}, {"id": "697290db4910c3a522c67e70", "name": "R Machado De Assis, 314 - 416 - América, Joinville - SC, 89204 - 390 7М", "lat": -26.281515, "lng": -48.8522657}, {"id": "697290db4910c3a522c67e6f", "name": "R Machado De Assis, 314 - 416 - América, Joinville - SC, 89204 - 390 4М", "lat": -26.2809577, "lng": -48.8520917}, {"id": "697290db4910c3a522c67e6e", "name": "Blumenau, 2342 - América - América, Joinville - SC, 89204 - 420 6М", "lat": -26.2795273, "lng": -48.8506081}, {"id": "697290db4910c3a522c67e6d", "name": "R Pará, 277 - América, Joinville - SC, 89204 - 420 6М", "lat": -26.2793283, "lng": -48.8522432}, {"id": "697290db4910c3a522c67e6c", "name": "R José Carlos De Souza - Santo Antônio, Joinville - SC, 89221 - 703 10М", "lat": -26.2770514, "lng": -48.8534952}, {"id": "697290db4910c3a522c67e6b", "name": "R Aracaju, 950 - Santo Antônio, Joinville - SC, 89221 - 632 4М", "lat": -26.2769407, "lng": -48.8547702}, {"id": "697290db4910c3a522c67e6a", "name": "R Coelho Neto, 430 - Santo Antônio, Joinville - SC, 89218 - 015 4М", "lat": -26.2761269, "lng": -48.8523287}, {"id": "697290db4910c3a522c67e69", "name": "R Visc. De Mauá, 1366 - 1340 - América, Joinville - SC, 89204 - 500 4М", "lat": -26.2763927, "lng": -48.8545338}, {"id": "697290db4910c3a522c67e68", "name": "R Marcílio Dias, 333 - 131 - Santo Antônio, Joinville - SC, 89218 - 005. 4М", "lat": -26.2754917, "lng": -48.8528498}, {"id": "697290db4910c3a522c67e67", "name": "R Marcílio Dias, 460 - Santo Antônio, Joinville - SC, 89218 - 005 4М", "lat": -26.2755587, "lng": -48.8544031}, {"id": "697290db4910c3a522c67e66", "name": "R Gen. Polidoro, 2 - 86 - Santo Antônio, Joinville - SC, 89221 - 703 3М", "lat": -26.2743499, "lng": -48.853124}, {"id": "697290db4910c3a522c67e65", "name": "R Visc. De Mauá, 1820 - América, Joinville - SC, 89218 - 040 3М", "lat": -26.2740369, "lng": -48.8544349}, {"id": "697290db4910c3a522c67e64", "name": "Av Alm. Jaceguay, 138 - Santo Antônio, Joinville - SC 5М", "lat": -26.2734419, "lng": -48.8526462}, {"id": "697290db4910c3a522c67e63", "name": "R Saguaçu, 28 - Saguaçu, Joinville - SC, 89221 - 010 4М", "lat": -26.2950691, "lng": -48.8409843}, {"id": "697290db4910c3a522c67e62", "name": "R Pastor Guilherme Rau, 265 - Saguaçu, Joinville - SC, 89221 - 020 5М", "lat": -26.2946856, "lng": -48.8381958}, {"id": "697290db4910c3a522c67e61", "name": "R Biguaçu, 110 - Saguaçu, Joinville - SC, 89221 - 030. 4М", "lat": -26.2931926, "lng": -48.8386481}, {"id": "697290db4910c3a522c67e60", "name": "R Biguaçu, 171 - 131 - Saguaçu, Joinville - SC, 89221 - 030 5 М", "lat": -26.2930306, "lng": -48.8395235}, {"id": "697290db4910c3a522c67e5e", "name": "R Chapecó, 340 - Saguaçu, Joinville - SC, 89221 - 040 5М", "lat": -26.2922003, "lng": -48.8394447}, {"id": "697290db4910c3a522c67e5d", "name": "R Dona Francisca, 1160 - 1214 - Centro, Joinville - SC, 89221 - 007 5М", "lat": -26.2923413, "lng": -48.8407543}, {"id": "697290db4910c3a522c67e5c", "name": "R Dona Francisca, 1485 - 1409 - Centro, Joinville - SC, 89221 - 007 5М", "lat": -26.2899612, "lng": -48.8405451}, {"id": "697290db4910c3a522c67e5b", "name": "R Dona Francisca, 1550 - Centro, Joinville - SC, 89221 - 006 6М", "lat": -26.2886145, "lng": -48.8407282}, {"id": "697290db4910c3a522c67e5a", "name": "Cabeleireiro", "lat": -26.29225, "lng": -48.867977}, {"id": "697290db4910c3a522c67e59", "name": "R Itaiópolis, 660 - 756 - América, Joinville - SC, 89221 - 155 4М", "lat": -26.2875753, "lng": -48.8416016}, {"id": "697290db4910c3a522c67e58", "name": "R Luiz Delfino", "lat": -26.292427, "lng": -48.866319}, {"id": "697290db4910c3a522c67e57", "name": "R Dona Francisca, 1883 - Saguaçu, Joinville - SC, 89221 - 007. 5 М", "lat": -26.286642, "lng": -48.8400197}, {"id": "697290db4910c3a522c67e56", "name": "Celesc", "lat": -26.292719, "lng": -48.864691}, {"id": "697290db4910c3a522c67e55", "name": "Feira", "lat": -26.293192, "lng": -48.858481}, {"id": "697290db4910c3a522c67e54", "name": "R Orleans", "lat": -26.293105, "lng": -48.857669}, {"id": "697290db4910c3a522c67e53", "name": "R Castelo Branco", "lat": -26.293297, "lng": -48.856797}, {"id": "697290db4910c3a522c67e52", "name": "Best Burguer", "lat": -26.293517, "lng": -48.855372}, {"id": "697290db4910c3a522c67e51", "name": "R Dona Francisca, 1988 - 2008 - Centro, Joinville - SC, 89221 - 007 4М", "lat": -26.2856226, "lng": -48.8397867}, {"id": "697290db4910c3a522c67e50", "name": "Trapp", "lat": -26.293678, "lng": -48.853927}, {"id": "697290db4910c3a522c67e4f", "name": "Ipa Odontologia", "lat": -26.293753, "lng": -48.852562}, {"id": "697290db4910c3a522c67e4e", "name": "R Dona Francisca, 2046 - 2060 - Centro, Joinville - SC, 89221 - 007 5М", "lat": -26.2851167, "lng": -48.8401689}, {"id": "697290db4910c3a522c67e4d", "name": "Correios", "lat": -26.293679, "lng": -48.851029}, {"id": "697290db4910c3a522c67e4c", "name": "R Dona Francisca, 2141 - 2061 - Centro, Joinville - SC, 89221 - 007. 5М", "lat": -26.2846105, "lng": -48.8404365}, {"id": "697290db4910c3a522c67e4b", "name": "R Dona Francisca, 2267 - Centro, Joinville - SC, 89221 - 007 4М", "lat": -26.2835078, "lng": -48.8409354}, {"id": "697290db4910c3a522c67e4a", "name": "R Dona Francisca, 2400 - 2442 - Centro, Joinville - SC, 89221 - 007 5М", "lat": -26.2825897, "lng": -48.8419992}, {"id": "697290db4910c3a522c67e49", "name": "R Dona Francisca, 2506 - 2630 - Centro, Joinville - SC, 89221 - 007 4М", "lat": -26.2820604, "lng": -48.8429209}, {"id": "697290db4910c3a522c67e48", "name": "R Mondaí, 2 - 208 - Saguaçu, Joinville - SC, 89221 - 370 5М", "lat": -26.281264, "lng": -48.8435123}, {"id": "697290db4910c3a522c67e47", "name": "R Eça De Queirós, 18 - 194 - Saguaçu, Joinville - SC, 89221 - 007 3М", "lat": -26.2824902, "lng": -48.8441135}, {"id": "697290db4910c3a522c67e46", "name": "R Eça De Queirós, 2 - 15 - Saguaçu, Joinville - SC, 89221 - 007 7М", "lat": -26.2832303, "lng": -48.8441802}, {"id": "697290db4910c3a522c67e45", "name": "Av Aluísio Pires Condeixa, 2500 - 2522 - Saguaçu, Joinville - SC, 89221 - 008 4М", "lat": -26.2813816, "lng": -48.8457339}, {"id": "697290db4910c3a522c67e44", "name": "Av Marcos Wehmuth, 2636 - América, Joinville - SC, 89204 - 110 5М", "lat": -26.2803739, "lng": -48.8463585}, {"id": "697290db4910c3a522c67e43", "name": "R Teresina, 93 - 1 - Saguaçu, Joinville - SC, 89221 - 720 4М", "lat": -26.2795363, "lng": -48.8467786}, {"id": "697290db4910c3a522c67e42", "name": "R Fortaleza, 144 - Saguaçu, Joinville - SC, 89221 - 650 5М", "lat": -26.2789604, "lng": -48.8474059}, {"id": "697290db4910c3a522c67e41", "name": "R Natal, 147 - 43 - Saguaçu, Joinville - SC, 89221 - 640", "lat": -26.2782743, "lng": -48.8477271}, {"id": "697290db4910c3a522c67e40", "name": "R João Pessoa, 2 - 182 - América, Joinville - SC, 89218 - 280 5М", "lat": -26.2773484, "lng": -48.8482353}, {"id": "697290db4910c3a522c67e3f", "name": "R Aracaju, 971 - Saguaçu, Joinville - SC, 89221 - 637 5М", "lat": -26.276785, "lng": -48.8485418}, {"id": "697290db4910c3a522c67e3d", "name": "R Maceió, 239 - 181 - Saguaçu, Joinville - SC, 89221 - 700 4М", "lat": -26.2744458, "lng": -48.8488818}, {"id": "697290db4910c3a522c67e3c", "name": "R Dona Francisca, 3388 - 3518 - Zona Industrial Norte, Joinville - SC, 89218 - 111 5М", "lat": -26.2753345, "lng": -48.8480419}, {"id": "697290db4910c3a522c67e3b", "name": "R Aracaju - Saguaçu, Joinville - SC, 89221 - 632 10М", "lat": -26.2765607, "lng": -48.8471172}, {"id": "697290db4910c3a522c67e3a", "name": "R Dona Francisca, 3219 - Saguaçu, Joinville - SC, 89221 - 009 4М", "lat": -26.27703, "lng": -48.846614}, {"id": "697290db4910c3a522c67e39", "name": "Saguaçu, Joinville - SC 8М", "lat": -26.2779872, "lng": -48.8462519}, {"id": "697290db4910c3a522c67e38", "name": "R Dona Francisca, 2965 - 2939 - Centro, Joinville - SC, 89221 - 007 5М", "lat": -26.2790698, "lng": -48.8457499}, {"id": "697290db4910c3a522c67e37", "name": "Av José Vieira, 621 - 595 - América, Joinville - SC, 89221 - 007 4М", "lat": -26.2896372, "lng": -48.8434027}, {"id": "697290db4910c3a522c67e36", "name": "R Orestes Guimarães, 720 - América, Joinville - SC, 89221 - 007 5М", "lat": -26.2913316, "lng": -48.8434962}, {"id": "697290db4910c3a522c67e35", "name": "Av José Vieira, 315 - América, Joinville - SC, 89204 - 110 6М", "lat": -26.2927381, "lng": -48.8434506}, {"id": "697290db4910c3a522c67e34", "name": "Av José Vieira, 175 - América, Joinville - SC, 89204 - 110 4М", "lat": -26.2940108, "lng": -48.8432914}, {"id": "697290db4910c3a522c67e33", "name": "Av José Vieira - América, Joinville - SC, 89204 - 110 8М", "lat": -26.2945726, "lng": -48.8432666}, {"id": "697290db4910c3a522c67e32", "name": "R Dr. Plácido Olímpio De Oliveira, 948 - Anita Garibaldi, Joinville - SC, 89202 - 165 5М", "lat": -26.3112063, "lng": -48.8442211}, {"id": "697290db4910c3a522c67e31", "name": "R Humberto De Campos, 98 - 266 - América, Joinville - SC, 89204 - 220 5М", "lat": -26.2805747, "lng": -48.8505836}, {"id": "697290db4910c3a522c67e30", "name": "R Blumenau, 2243 - América, Joinville - SC, 89204 - 413 4М", "lat": -26.2813314, "lng": -48.8504981}, {"id": "697290db4910c3a522c67e2f", "name": "SC - 418, 2114 - 2298 - América, Joinville - SC, 89218 - 055 4М", "lat": -26.2816455, "lng": -48.8502393}, {"id": "697290db4910c3a522c67e2e", "name": "SC - 418, 2103 - 1901 - América, Joinville - SC, 89218 - 055", "lat": -26.2828302, "lng": -48.8502675}, {"id": "697290db4910c3a522c67e2d", "name": "SC - 418, 1962 - 2008 - Santo Antônio, Joinville - SC, 89218 - 035 5М", "lat": -26.282771, "lng": -48.8491859}, {"id": "697290db4910c3a522c67e2c", "name": "R Pref. Aristides Largura, 96 - América, Joinville - SC, 89204 - 145 3М", "lat": -26.2842648, "lng": -48.8480271}, {"id": "697290db4910c3a522c67e2b", "name": "R Padre Antônio Vieira, 59 - 1 - América, Joinville - SC, 89204 - 003 6М", "lat": -26.2837474, "lng": -48.8491074}, {"id": "697290db4910c3a522c67e2a", "name": "SC - 418, 1758 - 1810 - Santo Antônio, Joinville - SC, 89218 - 035 5М", "lat": -26.2847517, "lng": -48.8491386}, {"id": "697290db4910c3a522c67e29", "name": "R Timbó, 145 - 51 - América, Joinville - SC, 89204 - 050 5М", "lat": -26.2937069, "lng": -48.8490692}, {"id": "697290db4910c3a522c67e28", "name": "R Max Colin, 704 - Centro, Joinville - SC, 89204 - 040 5М", "lat": -26.2947117, "lng": -48.8492566}, {"id": "697290db4910c3a522c67e27", "name": "R Mal. Deodoro, 106 - 160 - América, Joinville - SC 5М", "lat": -26.2958335, "lng": -48.8490323}, {"id": "697290db4910c3a522c67e26", "name": "R Lages, 582 - América, Joinville - SC, 89201 - 205 5М", "lat": -26.2968861, "lng": -48.8493139}, {"id": "697290db4910c3a522c67e25", "name": "R Dos Ginásticos, 121 - 39 - Centro, Joinville - SC, 89201 - 310 5М", "lat": -26.2983421, "lng": -48.8487637}, {"id": "697290db4910c3a522c67e24", "name": "R Xv De Novembro, 722 - Centro, Joinville - SC, 89201 - 600 6М", "lat": -26.3004374, "lng": -48.8495423}, {"id": "697290db4910c3a522c67e23", "name": "R Princesa Isabel, 435 - Sala 16 - Centro, Joinville - SC, 89201 - 270 5М", "lat": -26.2997133, "lng": -48.8465026}, {"id": "697290db4910c3a522c67e22", "name": "Happy Consultoria - R Princesa Isabel, 321 - Centro, Joinville - SC, 89201 - 904 6М", "lat": -26.2997999, "lng": -48.8450435}, {"id": "697290db4910c3a522c67e21", "name": "R Do Príncipe, 13 - Centro, Joinville - SC, 89201 - 002 7М", "lat": -26.2991405, "lng": -48.8452534}, {"id": "697290db4910c3a522c67e20", "name": "R Dona Francisca, 260 - Centro, Joinville - SC, 89201 - 250 5М", "lat": -26.2992649, "lng": -48.8438969}, {"id": "697290db4910c3a522c67e1f", "name": "Humm Doces & Bolos - R Dona Francisca, 141 - Sala 6 - Centro, Joinville - SC, 89201 - 250 6М", "lat": -26.2999577, "lng": -48.8442446}, {"id": "697290db4910c3a522c67e1e", "name": "Av Dr. Paulo Medeiros, 200 - Centro, Joinville - SC, 89201 - 210 5М", "lat": -26.3036721, "lng": -48.8414034}, {"id": "697290db4910c3a522c67e1d", "name": "R Sete De Setembro, 178 - 274 - Centro, Joinville - SC, 89201 - 200 6М", "lat": -26.3044644, "lng": -48.8412351}, {"id": "697290db4910c3a522c67e1c", "name": "Av José Vieira - América, Joinville - SC, 89221 - 007 4М", "lat": -26.2876045, "lng": -48.8433728}, {"id": "697290db4910c3a522c67e1b", "name": "R Capinzal, 377 - América, Joinville - SC, 89204 - 1 5М", "lat": -26.2867294, "lng": -48.8435331}, {"id": "697290db4910c3a522c67e1a", "name": "Av José Vieira, 2099 - América, Joinville - SC, 89204 - 110 15М", "lat": -26.2862719, "lng": -48.8435029}, {"id": "697290db4910c3a522c67e19", "name": "Av José Vieira, 1063 - 995 - América, Joinville - SC, 89239 - 286 5М", "lat": -26.2856611, "lng": -48.8434992}, {"id": "697290db4910c3a522c67e18", "name": "R Orestes Guimarães, 1396 - 1420 - América, Joinville - SC, 89204 - 061 4М", "lat": -26.2840237, "lng": -48.8449268}, {"id": "697290db4910c3a522c67e17", "name": "R Orestes Guimarães, 1396 - 1420 - América, Joinville - SC, 89204 - 061 4М", "lat": -26.284109, "lng": -48.8450325}, {"id": "697290db4910c3a522c67e16", "name": "Sergio Pneus", "lat": -26.280021, "lng": -48.850531}, {"id": "697290db4910c3a522c67e15", "name": "Byd", "lat": -26.279101, "lng": -48.850628}, {"id": "697290db4910c3a522c67e14", "name": "R Alm. Tamandaré, 173 - América, Joinville - SC. 6М", "lat": -26.2849072, "lng": -48.8474381}, {"id": "697290db4910c3a522c67e13", "name": "R Alm. Tamandaré, 399 - 201 - América, Joinville - SC, 89204 - 140 6М", "lat": -26.284976, "lng": -48.846448}, {"id": "697290db4910c3a522c67e12", "name": "R Alm. Tamandaré, 528 - 482 - América, Joinville - SC, 89204 - 140 6М", "lat": -26.2850776, "lng": -48.8440665}, {"id": "697290db4910c3a522c67e11", "name": "The Best", "lat": -26.27506, "lng": -48.851034}, {"id": "697290db4910c3a522c67e10", "name": "R Orestes Guimarães, 1298 - América, Joinville - SC, 89204 - 060 5М", "lat": -26.2850283, "lng": -48.8448839}, {"id": "697290db4910c3a522c67e0f", "name": "R Orestes Guimarães, 1220 - América, Joinville - SC, 89204 - 060 4М", "lat": -26.2860792, "lng": -48.8450536}, {"id": "697290db4910c3a522c67e0e", "name": "Posto Shell", "lat": -26.272156, "lng": -48.850968}, {"id": "697290db4910c3a522c67e0d", "name": "R Itaiópolis, 531 - América, Joinville - SC, 89204 - 100 4М", "lat": -26.2873727, "lng": -48.8438084}, {"id": "697290db4910c3a522c67e0c", "name": "Ferreira Lavandeira", "lat": -26.275411, "lng": -48.850058}, {"id": "697290db4910c3a522c67e0b", "name": "Prefeitura Joinville", "lat": -26.276689, "lng": -48.84995}, {"id": "697290db4910c3a522c67e0a", "name": "Banco Do", "lat": -26.278448, "lng": -48.849844}, {"id": "697290db4910c3a522c67e09", "name": "Rotatória", "lat": -26.282194, "lng": -48.848173}, {"id": "697290db4910c3a522c67e08", "name": "Ludos", "lat": -26.283668, "lng": -48.847818}, {"id": "697290db4910c3a522c67e07", "name": "Resistêncial Ana E Julia", "lat": -26.283626, "lng": -48.84647}, {"id": "697290db4910c3a522c67e06", "name": "Lanche Do Gordo", "lat": -26.283788, "lng": -48.845067}, {"id": "697290db4910c3a522c67e05", "name": "Fatto A Mano", "lat": -26.283561, "lng": -48.844554}, {"id": "697290db4910c3a522c67e04", "name": "Parque", "lat": -26.284753, "lng": -48.843574}, {"id": "697290db4910c3a522c67e03", "name": "Kg Motos", "lat": -26.285867, "lng": -48.843452}, {"id": "697290db4910c3a522c67e02", "name": "60 Sabores", "lat": -26.286777, "lng": -48.843378}, {"id": "697290db4910c3a522c67e01", "name": "Dunquer", "lat": -26.287476, "lng": -48.843466}, {"id": "697290db4910c3a522c67e00", "name": "R Eduardo Krisch, 784 - 688 - América, Joinville - SC, 89204 - 140 4М", "lat": -26.2868602, "lng": -48.8439777}, {"id": "697290db4910c3a522c67dff", "name": "R Capinzal, 459 - América, Joinville - SC, 89204 - 120 4М", "lat": -26.2866032, "lng": -48.8444792}, {"id": "697290db4910c3a522c67dfe", "name": "R Orestes Guimarães, 1184 - América, Joinville - SC, 89204 - 060 4М", "lat": -26.2863919, "lng": -48.845068}, {"id": "697290db4910c3a522c67dfd", "name": "R Orestes Guimarães, 1153 - 1107 - América, Joinville - SC, 89204 - 060 4М", "lat": -26.2871244, "lng": -48.845124}, {"id": "697290db4910c3a522c67dfc", "name": "R Itaiópolis, 495 - 437 - América, Joinville - SC, 89204 - 100 4М", "lat": -26.2874229, "lng": -48.8444212}, {"id": "697290db4910c3a522c67dfb", "name": "R Itaiópolis, 127 - 117 - América, Joinville - SC, 89204 - 100 4М", "lat": -26.2872672, "lng": -48.8477405}, {"id": "697290db4910c3a522c67dfa", "name": "R Itaiópolis, 363 - 129 - América, Joinville - SC, 89204 - 100 4М", "lat": -26.287389, "lng": -48.8454106}, {"id": "697290db4910c3a522c67df9", "name": "R Orestes Guimarães, 1028 - 1056 - América, Joinville - SC, 89204 - 060 4М", "lat": -26.2883416, "lng": -48.8453272}, {"id": "697290db4910c3a522c67df8", "name": "R Germano Stein, 107 - América, Joinville - SC, 89204 - 090 4М", "lat": -26.2886831, "lng": -48.8473687}, {"id": "697290db4910c3a522c67df7", "name": "R Germano Stein, 227 - 193 - América, Joinville - SC, 89204 - 003 5М", "lat": -26.288711, "lng": -48.8465268}, {"id": "697290db4910c3a522c67df6", "name": "R Orestes Guimarães, 905 - Centro, Joinville - SC, 89204 - 061 4М", "lat": -26.289479, "lng": -48.8454368}, {"id": "697290db4910c3a522c67df5", "name": "R Orestes Guimarães, 927 - 911 - América, Joinville - SC, 89204 - 003 4М", "lat": -26.2899447, "lng": -48.8454559}, {"id": "697290db4910c3a522c67df4", "name": "R Orestes Guimarães, 835 - 749 - América, Joinville - SC, 89204 - 061 5М", "lat": -26.2907563, "lng": -48.8455448}, {"id": "697290db4910c3a522c67df3", "name": "R Vinte E Cinco De Julho, 181 - América, Joinville - SC, 89204 - 080 5М", "lat": -26.2913932, "lng": -48.8464245}, {"id": "697290db4910c3a522c67df2", "name": "R Orestes Guimarães, 704 - 708 - América, Joinville - SC, 89204 - 061. 4М", "lat": -26.2915408, "lng": -48.8456172}, {"id": "697290db4910c3a522c67df1", "name": "Al. Rolf Colin, 109 - Sala 06 E 07 - América, Joinville - SC, 89204 - 070 4М", "lat": -26.2928192, "lng": -48.8465855}, {"id": "697290db4910c3a522c67df0", "name": "R Orestes Guimarães, 451 - 415 - América, Joinville - SC, 89204 - 060 5М", "lat": -26.2939119, "lng": -48.8456396}, {"id": "697290db4910c3a522c67def", "name": "R Paraíba, 521 - Anita Garibaldi, Joinville - SC, 89203 - 502 2, 5 M", "lat": -26.316304, "lng": -48.8551065}, {"id": "697290db4910c3a522c67dee", "name": "R Paraíba, 23 - Anita Garibaldi, Joinville - SC, 89203 - 530 4 M", "lat": -26.3146745, "lng": -48.8568171}, {"id": "697290db4910c3a522c67ded", "name": "R Concórdia, 339 - 241 - Anita Garibaldi, Joinville - SC, 89203 - 600 3 M", "lat": -26.3145297, "lng": -48.8557998}, {"id": "697290db4910c3a522c67dec", "name": "R Concórdia, 147 - 77 - Anita Garibaldi, Joinville - SC, 89203 - 600 4 M", "lat": -26.3138207, "lng": -48.8549982}, {"id": "697290db4910c3a522c67deb", "name": "R Cel. Santiago, 375 - 285 - Anita Garibaldi, Joinville - SC, 89203 - 560 3 M", "lat": -26.3129786, "lng": -48.8538033}, {"id": "697290db4910c3a522c67dea", "name": "Rio Grande Do Sul:260 - Sala 04 - Anita Garibaldi, Joinville - SC, 89203 - 570 4 M", "lat": -26.3123505, "lng": -48.8530821}, {"id": "697290db4910c3a522c67de9", "name": "R Min. Calógeras, 1639 - 1583 - Anita Garibaldi, Joinville - SC, 89203 - 005 4 M", "lat": -26.3108938, "lng": -48.8552362}, {"id": "697290db4910c3a522c67de8", "name": "R Borba Gato, 21 - Atiradores, Joinville - SC, 89203 - 020 2, 5 M", "lat": -26.3109082, "lng": -48.8557663}, {"id": "697290db4910c3a522c67de7", "name": "R Ottokar Doerffel, 29 - 25 - Anita Garibaldi, Joinville - SC 3 M", "lat": -26.3121551, "lng": -48.8566555}, {"id": "697290db4910c3a522c67de6", "name": "R Corupá, 2 - 98 - Anita Garibaldi, Joinville - SC, 89203 - 620 3, 4 M", "lat": -26.3125849, "lng": -48.8575497}, {"id": "697290db4910c3a522c67de5", "name": "Floricultura Sopé - R Ottokar Doerffel, 205 - Anita Garibaldi, Joinville - SC, 89203 - 307 3 M", "lat": -26.3131069, "lng": -48.8582648}, {"id": "697290db4910c3a522c67de4", "name": "R Ottokar Doerffel - Anita Garibaldi, Joinville - SC, 89203 - 495 4 M", "lat": -26.3132638, "lng": -48.8590497}, {"id": "697290db4910c3a522c67de3", "name": "R Marajó, 109 - 105 - Atiradores, Joinville - SC, 89203 - 145 3 M", "lat": -26.3131875, "lng": -48.8598295}, {"id": "697290db4910c3a522c67de2", "name": "Posto Ipiranga", "lat": -26.284851, "lng": -48.850053}, {"id": "697290db4910c3a522c67de1", "name": "Praça Plaenge - R Marajó, 286 - Atiradores, Joinville - SC, 89203 - 140 4 M", "lat": -26.312987, "lng": -48.8624671}, {"id": "697290db4910c3a522c67de0", "name": "Lf Máquinas E Ferramentas", "lat": -26.285117, "lng": -48.850018}, {"id": "697290db4910c3a522c67ddf", "name": "América, Joinville - SC, 89201 - 602 6М", "lat": -26.2993295, "lng": -48.8526328}, {"id": "697290db4910c3a522c67dde", "name": "Radar Eletrônico - R Ottokar Doerffel, 601 - Anita Garibaldi, Joinville - SC, 89203 - 001 2, 5 M", "lat": -26.3144693, "lng": -48.8612035}, {"id": "697290db4910c3a522c67ddd", "name": "Chopp Brahma Express", "lat": -26.285496, "lng": -48.849982}, {"id": "697290db4910c3a522c67ddc", "name": "Anita Garibaldi, Joinville - SC 3 M", "lat": -26.31646, "lng": -48.8595824}, {"id": "697290db4910c3a522c67ddb", "name": "Amanda Da Rosa Ferrao - R Gothard Kaesemodel - Anita Garibaldi, Joinville - SC, 89203 - 600 2, 5 M", "lat": -26.31805, "lng": -48.8573163}, {"id": "697290db4910c3a522c67dda", "name": "R Gothard Kaesemodel, 860 - Anita Garibaldi 3 M", "lat": -26.320131, "lng": -48.85501}, {"id": "697290db4910c3a522c67dd9", "name": "R Gothard Kaesemodel, 980 - Anita Garibaldi, Joinville - SC, 89203 - 522 2, 5 M", "lat": -26.3206213, "lng": -48.8544822}, {"id": "697290db4910c3a522c67dd8", "name": "Big Lanches Da Prainha - R Anita Garibaldi, 1012 - Anita Garibaldi, Joinville - SC, 89203 - 300 3 M", "lat": -26.3215108, "lng": -48.8530419}, {"id": "697290db4910c3a522c67dd7", "name": "Raçao Facil", "lat": -26.289308, "lng": -48.849766}, {"id": "697290db4910c3a522c67dd6", "name": "Mandella Dog", "lat": -26.29046, "lng": -48.849861}, {"id": "697290db4910c3a522c67dd5", "name": "Araranguá", "lat": -26.289866, "lng": -48.849052}, {"id": "697290db4910c3a522c67dd4", "name": "C7 Multimarcas", "lat": -26.291551, "lng": -48.849934}, {"id": "697290db4910c3a522c67dd3", "name": "Cartório", "lat": -26.291673, "lng": -48.849938}, {"id": "697290db4910c3a522c67dd2", "name": "Emílio Artann", "lat": -26.292916, "lng": -48.850029}, {"id": "697290db4910c3a522c67dd1", "name": "R Eugênio Moreira, 934 - Anita Garibaldi 2, 5 M", "lat": -26.320007, "lng": -48.8474379}, {"id": "697290db4910c3a522c67dd0", "name": "R Eugênio Moreira, 953 - 899 - Anita Garibaldi, Joinville - SC, 89202 - 100 2, 5 M", "lat": -26.3195253, "lng": -48.847309}, {"id": "697290db4910c3a522c67dcf", "name": "R Eugênio Moreira, 953 - 899 - Anita Garibaldi, Joinville - SC, 89202 - 100 3 M", "lat": -26.3190808, "lng": -48.8473381}, {"id": "697290db4910c3a522c67dce", "name": "R Eugênio Moreira, 766 - 898 - Anita Garibaldi, Joinville - SC, 89202 - 100 3 M", "lat": -26.3181588, "lng": -48.847542}, {"id": "697290db4910c3a522c67dcd", "name": "R Profa. Senhorinha Soares, 190 - 192 - Anita Garibaldi, Joinville - SC, 89202 - 060 2, 5 M", "lat": -26.3172341, "lng": -48.847428}, {"id": "697290db4910c3a522c67dcc", "name": "Lalosi - Decorações E Presentes - Av Getúlio Vargas, 1056 Sala 04 - Ao Lado Da Eletrobike - Bucarein, Joinville - SC, 89202 - 002 3 M", "lat": -26.3171229, "lng": -48.8453241}, {"id": "697290db4910c3a522c67dcb", "name": "SC - 418, 877 - 795 - Bucarein, Joinville - SC, 89202 - 295 4 M", "lat": -26.3152783, "lng": -48.845365}, {"id": "697290db4910c3a522c67dca", "name": "R Paraná, 431 - 381 - Anita Garibaldi, Joinville - SC, 89202 - 160 2, 5 M", "lat": -26.3135048, "lng": -48.8500599}, {"id": "697290db4910c3a522c67dc9", "name": "R Paraná, 379 - 341 - Anita Garibaldi, Joinville - SC, 89202 - 160 2, 5 M", "lat": -26.3134246, "lng": -48.8486715}, {"id": "697290db4910c3a522c67dc8", "name": "R Saí, 331 - 197 - Anita Garibaldi, Joinville - SC, 89202 - 170 3 M", "lat": -26.3133011, "lng": -48.8464902}, {"id": "697290db4910c3a522c67dc6", "name": "Nutricionista Clínica Rafaela Steuernagel - Joinville - R Alexandre Schlemm - Bucarein, Joinville - SC, 89202 - 181 4 M", "lat": -26.3121115, "lng": -48.8455525}, {"id": "697290db4910c3a522c67dc5", "name": "R Alexandre Schlemm, 699 - 567 - Bucarein, Joinville - SC, 89202 - 417 3 M", "lat": -26.3122669, "lng": -48.8466404}, {"id": "697290db4910c3a522c67dc4", "name": "R Eugênio Moreira, 160 - 196 - Anita Garibaldi, Joinville - SC, 89202 - 100 5 M", "lat": -26.3122901, "lng": -48.8476919}, {"id": "697290db4910c3a522c67dc3", "name": "R Miguel Couto, 196 - 236 - Anita Garibaldi, Joinville - SC, 89202 - 190 3 M", "lat": -26.3123279, "lng": -48.8488623}, {"id": "697290db4910c3a522c67dc2", "name": "R Pedro Mayerle, 331 - 217 - Anita Garibaldi, Joinville - SC, 89202 - 195", "lat": -26.3124199, "lng": -48.8500978}, {"id": "697290db4910c3a522c67dc1", "name": "R Miguel Couto, 102 - 194 - Anita Garibaldi, Joinville - SC, 89202 - 190 3 M", "lat": -26.3114672, "lng": -48.8487949}, {"id": "697290db4910c3a522c67dc0", "name": "R Eugênio Moreira, 102 - 152 - Anita Garibaldi, Joinville - SC, 89202 - 100 3 M", "lat": -26.3114425, "lng": -48.8477287}, {"id": "697290db4910c3a522c67dbf", "name": "R Dr. Plácido Olímpio De Oliveira, 1162 - 1218 - Anita Garibaldi, Joinville - SC, 89202 - 1653 M", "lat": -26.3113972, "lng": -48.8465747}, {"id": "697290db4910c3a522c67dbe", "name": "R Dr. Plácido Gomes - Anita Garibaldi, Joinville - SC, 89202 - 050 3 M", "lat": -26.3106395, "lng": -48.8500519}, {"id": "697290db4910c3a522c67dbd", "name": "R Gen. Sampaio - Anita Garibaldi, Joinville - SC, 89202 - 135 2, 5 M", "lat": -26.310375, "lng": -48.8505886}, {"id": "697290db4910c3a522c67dbb", "name": "R Min. Calógeras, 1399 - 1327 - Bucarein, Joinville - SC, 89202 - 005 4 M", "lat": -26.3096017, "lng": -48.8524773}, {"id": "697290db4910c3a522c67dba", "name": "R Min. Calógeras, 1465 - 1401 - Bucarein, Joinville - SC, 89202 - 005 3 M", "lat": -26.3099969, "lng": -48.853526}, {"id": "697290db4910c3a522c67db9", "name": "R Min. Calógeras, 1514 - Atiradores, Joinville - SC, 89203 - 000 3 M", "lat": -26.3102797, "lng": -48.8541704}, {"id": "697290db4910c3a522c67db8", "name": "Hotel Paraíso Das Flores - R Min. Calógeras, 1576 - Atiradores, Joinville - SC, 89203 - 000 3 M", "lat": -26.3105064, "lng": -48.8547927}, {"id": "697290db4910c3a522c67db6", "name": "R Visc. De Taunay, 1172 - 1224 - Atiradores, Joinville - SC, 89203 - 005 6 M", "lat": -26.3090821, "lng": -48.8545818}, {"id": "697290db4910c3a522c67db4", "name": "R Des. Nelson Nunes Guimarães, 143 - 101 - Atiradores, Joinville - SC, 89203 - 060", "lat": -26.3071574, "lng": -48.8560563}, {"id": "697290db4910c3a522c67db3", "name": "Outletdospescadores - R Jacob Eisenhuth, 600 - Atiradores, Joinville - SC, 89203 - 070 3 M", "lat": -26.3066909, "lng": -48.8562317}, {"id": "697290db4910c3a522c67db2", "name": "R Fernando De Noronha, 142 - Atiradores 3 M", "lat": -26.303361, "lng": -48.854548}, {"id": "697290db4910c3a522c67db0", "name": "R Cel. Francisco Gomes, 1290 - Anita Garibaldi, Joinville - SC, 89202 - 073 7М", "lat": -26.3188203, "lng": -48.8452826}, {"id": "697290db4910c3a522c67dae", "name": "SC - 418, 1515 - 1511 - Bucarein, Joinville - SC, 89202 - 205 7М", "lat": -26.3209326, "lng": -48.8451558}, {"id": "697290db4910c3a522c67dac", "name": "SC - 418, 1690 - 1746 - Bucarein, Joinville - SC, 83308 - 070 7М", "lat": -26.3228643, "lng": -48.8449969}, {"id": "697290db4910c3a522c67dab", "name": "SC - 418, 191 - 149 - Bucarein, Joinville - SC, 89211 - 300 5М", "lat": -26.3240817, "lng": -48.84478}, {"id": "697290db4910c3a522c67daa", "name": "R , 188 - Bucarein, Joinville - SC, 89211 - 300 5М", "lat": -26.3247317, "lng": -48.8445389}, {"id": "697290db4910c3a522c67da8", "name": "R Joaquim Dos Santos - Floresta, Joinville - SC, 89211 - 565. 3М", "lat": -26.3255923, "lng": -48.8441104}, {"id": "697290db4910c3a522c67da7", "name": "R Joaquim Dos Santos, 94 - 284 - Floresta, Joinville - SC, 89211 - 565 4М", "lat": -26.32562, "lng": -48.8430345}, {"id": "697290db4910c3a522c67da6", "name": "R São Paulo, 1996 - Floresta, Joinville - SC, 89211 - 570 6М", "lat": -26.3255824, "lng": -48.8422778}, {"id": "697290db4910c3a522c67da5", "name": "R São Paulo, 1835 - Itaum, Joinville - SC, 89210 - 000 6М", "lat": -26.3253453, "lng": -48.8420901}, {"id": "697290db4910c3a522c67da4", "name": "SC - 418, 1867 - 1801 - Itaum, Joinville - SC, 89210 - 001 4М", "lat": -26.3242199, "lng": -48.8423278}, {"id": "697290db4910c3a522c67da3", "name": "R Monsenhor Gercino, 99 - 35 - Floresta, Joinville - SC, 89210 - 000 4М", "lat": -26.3241995, "lng": -48.8435462}, {"id": "697290db4910c3a522c67da2", "name": "R Monsenhor Gercino, 145 - Bucarein, Joinville - SC, 89211 - 313 4М", "lat": -26.3240441, "lng": -48.8430939}, {"id": "697290db4910c3a522c67da1", "name": "R São Paulo, 1795 - Itaum, Joinville - SC, 89210 - 000 4М", "lat": -26.324027, "lng": -48.8420961}, {"id": "697290db4910c3a522c67da0", "name": "R Florianópolis, 100 - Bucarein, Joinville - SC, 89210 - 085 10М", "lat": -26.3233926, "lng": -48.8411637}, {"id": "697290db4910c3a522c67d9f", "name": "R São Paulo, 1702 - Bucarein, Joinville - SC, 89211 - 313 5М", "lat": -26.3229614, "lng": -48.8424582}, {"id": "697290db4910c3a522c67d9e", "name": "R São Paulo, 1495 - Bucarein, Joinville - SC, 89211 - 300 5М", "lat": -26.3213711, "lng": -48.8422953}, {"id": "697290db4910c3a522c67d9d", "name": "Clínica De Cirurgia Plástica, Edificio Med Clinicas - R Blumenau, 178 - América, Joinville - SC, 89204 - 250 5 M", "lat": -26.2985934, "lng": -48.8503643}, {"id": "697290db4910c3a522c67d9c", "name": "R Piauí, 132 - 192 - Bucarein, Joinville - SC, 89202 - 210 4М", "lat": -26.3209395, "lng": -48.8433041}, {"id": "697290db4910c3a522c67d9b", "name": "R Piauí, 307 - Bucarein, Joinville - SC, 89202 - 210 5М", "lat": -26.3208401, "lng": -48.8416153}, {"id": "697290db4910c3a522c67d9a", "name": "R Xv De Novembro, 554 - 610 - Centro, Joinville - SC, 89201 - 601 5 M", "lat": -26.300619, "lng": -48.8480023}, {"id": "697290db4910c3a522c67d99", "name": "R São Paulo, 1471 - Itaum, Joinville - SC, 89210 - 001 5М", "lat": -26.3206928, "lng": -48.8423258}, {"id": "697290db4910c3a522c67d98", "name": "R Cel. Francisco Gomes, 842 - 868 - Bucarein, Joinville - SC, 89202 - 250 6М", "lat": -26.3189522, "lng": -48.842313}, {"id": "697290db4910c3a522c67d97", "name": "Lojas Pompéia - R Xv De Novembro, 541 - Centro, Joinville - SC, 89201 - 600 7 M", "lat": -26.3006265, "lng": -48.8477834}, {"id": "697290db4910c3a522c67d95", "name": "R Xv De Novembro, 192 - Centro, Joinville - SC, 89201 - 600", "lat": -26.3007533, "lng": -48.8453728}, {"id": "697290db4910c3a522c67d94", "name": "Express Parking Estacionamento - R 9 De Março, 744 - Fundos - Centro, Joinville - SC, 89201 - 002 7 M", "lat": -26.3016072, "lng": -48.8460232}, {"id": "697290db4910c3a522c67d93", "name": "R São Paulo, 1075 - Bucarein, Joinville - SC, 89202 - 253 5М", "lat": -26.3173237, "lng": -48.8424723}, {"id": "697290db4910c3a522c67d90", "name": "Eugênio Alberto Fleischer - R 9 De Março, 737 - Centro, Joinville - SC, 89201 - 400 4 M", "lat": -26.3015639, "lng": -48.8470183}, {"id": "697290db4910c3a522c67d8f", "name": "R Visc. De Taunay, 40 - 146 - Centro, Joinville - SC, 89201 - 420 5 M", "lat": -26.3022444, "lng": -48.8489304}, {"id": "697290db4910c3a522c67d8e", "name": "Casa Enxaimel, Esquina Com - R Henrique Meyer, R Visc. De Taunay - Centro, Joinville - SC", "lat": -26.3033887, "lng": -48.8503255}, {"id": "697290db4910c3a522c67d8d", "name": "Teixeira Filho Advogados - Edifício Helbor Offices, R Henrique Meyer, 280 - Conj 1.809 - Centro, Joinville - SC, 89203 - 000 5 M", "lat": -26.3026123, "lng": -48.8509072}, {"id": "697290db4910c3a522c67d8c", "name": "R São Paulo, 955 - Itaum, Joinville - SC, 89210 - 001 4М", "lat": -26.3158286, "lng": -48.8425735}, {"id": "697290db4910c3a522c67d8b", "name": "Croasonho - R Xv De Novembro, 844 - América, Joinville - SC, 89201 - 601", "lat": -26.3003013, "lng": -48.8506876}, {"id": "697290db4910c3a522c67d8a", "name": "R Mário Lobo, 246 - Centro, Joinville - SC, 89201 - 330 6 M", "lat": -26.2993485, "lng": -48.850416}, {"id": "697290db4910c3a522c67d89", "name": "Porto & Hille Advocacia E Consultoria - R Blumenau, 178 - 10° Andar, Sala 1010 - América, Joinville - SC, 89204 - 250 7 M", "lat": -26.2982943, "lng": -48.8503711}, {"id": "697290db4910c3a522c67d88", "name": "R Blumenau, 317 - Centro, Joinville - SC, 89201 - 100 5 M", "lat": -26.2974798, "lng": -48.8504555}, {"id": "697290db4910c3a522c67d87", "name": "Estacionamento Sl 91 - R Lages, 660 - Centro, Joinville - SC, 89201 - 205", "lat": -26.2967163, "lng": -48.8502628}, {"id": "697290db4910c3a522c67d86", "name": "SC - 418, 527 - 501 - Centro, Joinville - SC, 89204 - 030 4 M", "lat": -26.2957707, "lng": -48.8503513}, {"id": "697290db4910c3a522c67d85", "name": "Fidalga Jardim - R São Paulo, 733 - Bucarein, Joinville - SC, 89202 - 200 5М", "lat": -26.3141883, "lng": -48.842589}, {"id": "697290db4910c3a522c67d84", "name": "SC - 418, 569 - 541 - Centro, Joinville - SC, 89204 - 030 2, 7 M", "lat": -26.2947379, "lng": -48.8502939}, {"id": "697290db4910c3a522c67d83", "name": "SC - 418, 781 - 597 - Bucarein, Joinville - SC, 89210 - 001 5 М", "lat": -26.3136127, "lng": -48.8427942}, {"id": "697290db4910c3a522c67d82", "name": "R Dr. Plácido Gomes, 217 - 15 - Bucarein, Joinville - SC, 89202 - 203 5М", "lat": -26.3102701, "lng": -48.8442777}, {"id": "697290db4910c3a522c67d81", "name": "SC - 418, 305 - 71 - Bucarein, Joinville - SC, 89210 - 001 4М", "lat": -26.3095073, "lng": -48.8428481}, {"id": "697290db4910c3a522c67d80", "name": "R Rio Do Sul, 274 - 288 - Bucarein, Joinville - SC, 89202 - 201 4М", "lat": -26.3088296, "lng": -48.8442727}, {"id": "697290db4910c3a522c67d7e", "name": "Riqueza Em Foco - R Do Príncipe, 301 - Centro, Joinville - SC, 89201 - 000", "lat": -26.3016415, "lng": -48.8453282}, {"id": "697290db4910c3a522c67d7d", "name": "Centro, Joinville - SC, 89201 - 002 7 M", "lat": -26.302493, "lng": -48.8453664}, {"id": "697290db4910c3a522c67d7b", "name": "Geek Games SC Galeria Centro - R Princesa Isabel, 238 - Centro, Joinville - SC, 89201 - 270 6 M", "lat": -26.3016986, "lng": -48.8445178}, {"id": "697290db4910c3a522c67d79", "name": "Perto De Terminal Central De Joinville, Em Centro, Joinville 10 M", "lat": -26.300894, "lng": -48.8441312}, {"id": "697290db4910c3a522c67d78", "name": "Centro, Joinville - SC, 89201 - 400 10 M", "lat": -26.3015513, "lng": -48.8441671}, {"id": "697290db4910c3a522c67d77", "name": "R Rio Branco, 88 - Centro, Joinville - SC, 89201 - 080 7 M", "lat": -26.301545, "lng": -48.8435536}, {"id": "697290db4910c3a522c67d76", "name": "R 9 De Março, 244 - Centro, Joinville - SC, 89201 - 400 5 M", "lat": -26.3017563, "lng": -48.8435502}, {"id": "697290db4910c3a522c67d75", "name": "Dr. Edson Maffezzolli - R Profa. Laura Andrade, 72 - Centro, Joinville - SC, 89201 - 510 3М", "lat": -26.3066179, "lng": -48.8427087}, {"id": "697290db4910c3a522c67d73", "name": "R Jerônimo Coelho, 393 - Centro, Joinville - SC, 89201 - 050 4, 5 M", "lat": -26.3027818, "lng": -48.8416083}, {"id": "697290db4910c3a522c67d72", "name": "R Min. Calógeras, 217 - 1 - Bucarein, Joinville - SC, 89201 - 485 5М", "lat": -26.3073933, "lng": -48.8419114}, {"id": "697290db4910c3a522c67d6f", "name": "Alameda Bruestlein, 270 - Centro, Joinville - SC, 89201 - 040 5 M", "lat": -26.3035462, "lng": -48.843864}, {"id": "697290db4910c3a522c67d6e", "name": "Barbearia Rota 47 Havan - Av Cel. Procópio Gomes, 249 - Bucarein, Joinville - SC, 89202 - 300 5 М", "lat": -26.3080731, "lng": -48.8409166}, {"id": "697290db4910c3a522c67d6c", "name": "R Das Palmeiras, 9 - Centro, Joinville - SC, 89201 - 040 8 M", "lat": -26.3033827, "lng": -48.845418}, {"id": "697290db4910c3a522c67d6b", "name": "Tr2 Multimarcas - Av Cel. Procópio Gomes, 416 - Bucarein, Joinville - SC, 89202 - 300 5М", "lat": -26.3096826, "lng": -48.8409629}, {"id": "697290db4910c3a522c67d6a", "name": "Av Cel. Procópio Gomes - Bucarein, Joinville - SC, 89202 - 300 5М", "lat": -26.310638, "lng": -48.8408093}, {"id": "697290db4910c3a522c67d69", "name": "R Dr. Plácido Olímpio De Oliveira, 676 - 784 - Bucarein, Joinville - SC, 89202 - 450 5М", "lat": -26.3111952, "lng": -48.8417917}, {"id": "697290db4910c3a522c67d68", "name": "R Do Príncipe, 550 - Loja 7 - Centro, Joinville - SC, 89201 - 001 6 M", "lat": -26.3040244, "lng": -48.8454894}, {"id": "697290db4910c3a522c67d67", "name": "R Rio Branco, 289 - 241 - Centro, Joinville - SC, 89201 - 080 5 M", "lat": -26.3039961, "lng": -48.8438965}, {"id": "697290db4910c3a522c67d66", "name": "San Valentino Restaurante - R Sete De Setembro, 299 - Centro, Joinville - SC, 89201 - 080 5 M", "lat": -26.304278, "lng": -48.8437939}, {"id": "697290db4910c3a522c67d65", "name": "Cia Da Belleza - R Dr. Marinho Lobo, 512 - 09 - Centro, Joinville - SC, 89201 - 020 6 M", "lat": -26.3045395, "lng": -48.8438989}, {"id": "697290db4910c3a522c67d64", "name": "Bucarein, Joinville - SC 5М", "lat": -26.3128938, "lng": -48.8415556}, {"id": "697290db4910c3a522c67d63", "name": "R Itajaí, 106 - 146 - Centro, Joinville - SC, 89201 - 090", "lat": -26.3044614, "lng": -48.8420374}, {"id": "697290db4910c3a522c67d62", "name": "R Pres. Affonso Penna, 680 - Bucarein, Joinville - SC, 89202 - 420 4М", "lat": -26.3127171, "lng": -48.840469}, {"id": "697290db4910c3a522c67d61", "name": "5° Comando Regional De Polícia Militar - R Min. Calógeras, 605 - Anita Garibaldi, Joinville - SC, 89202 - 207", "lat": -26.3074251, "lng": -48.8457976}, {"id": "697290db4910c3a522c67d60", "name": "Av Cel. Procópio Gomes, 1080 - Bucarein, Joinville - SC, 89202 - 300 5М", "lat": -26.3157204, "lng": -48.8405367}, {"id": "697290db4910c3a522c67d5f", "name": "R Duque De Caxias - Joinville 5 M", "lat": -26.3085144, "lng": -48.8498874}, {"id": "697290db4910c3a522c67d5e", "name": "R Duque De Caxias, 110 - Centro, Joinville - SC, 89201 - 460 3, 5 M", "lat": -26.3077485, "lng": -48.8504991}, {"id": "697290db4910c3a522c67d5d", "name": "Av Cel. Procópio Gomes, 416 - Bucarein, Joinville - SC, 89202 - 300 4М", "lat": -26.3168711, "lng": -48.8406058}, {"id": "697290db4910c3a522c67d5c", "name": "R Min. Calógeras, 928 - 998 - Bucarein, Joinville - SC, 89202 - 207 3 M", "lat": -26.3079667, "lng": -48.8490078}, {"id": "697290db4910c3a522c67d5b", "name": "Sandra Amaral - Av Cel. Procópio Gomes, 1410 - Bucarein, Joinville - SC, 89202 - 300 4М", "lat": -26.318966, "lng": -48.8404885}, {"id": "697290db4910c3a522c67d5a", "name": "Av Cel. Procópio Gomes, 1523 - 1401 - Bucarein, Joinville - SC, 89202 - 260 6М", "lat": -26.3202117, "lng": -48.8401237}, {"id": "697290db4910c3a522c67d59", "name": "R Conselheiro Mafra, 226 - Centro 3, 5 M", "lat": -26.305633, "lng": -48.849353}, {"id": "697290db4910c3a522c67d58", "name": "R Pedro Lobo, 5 - Centro 2, 5 M", "lat": -26.3043682, "lng": -48.8474151}, {"id": "697290db4910c3a522c67d57", "name": "Posto Ipiranga Mônaco - R Piauí, 480 - Bucarein, Joinville - SC, 89202 - 210 5М", "lat": -26.3211556, "lng": -48.8399651}, {"id": "697290db4910c3a522c67d56", "name": "R Norberto Haritsch - Bucarein, Joinville - SC, 89202 - 215 5М", "lat": -26.3229881, "lng": -48.8397797}, {"id": "697290db4910c3a522c67d55", "name": "R Visc. De Taunay, 555 - Atiradores, Joinville - SC, 89201 - 462 2, 8 M", "lat": -26.3050974, "lng": -48.8520699}, {"id": "697290db4910c3a522c67d54", "name": "R Urussanga, 10 - Bucarein, Joinville - SC, 89202 - 400 4М", "lat": -26.3195469, "lng": -48.8392188}, {"id": "697290db4910c3a522c67d53", "name": "Restaurante Romi - R Cel. Francisco Gomes, 546 - Bucarein, Joinville - SC, 89202 - 250 5М", "lat": -26.318634, "lng": -48.8393086}, {"id": "697290db4910c3a522c67d52", "name": "R Visc. De Taunay, 466 - Atiradores, Joinville - SC, 89201 - 420 4, 5 M", "lat": -26.3046132, "lng": -48.8516602}, {"id": "697290db4910c3a522c67d51", "name": "Dra. Luciane Martelet, Ginecologista E Acupunturista - R Urussanga, 1294 - Bucarein, Joinville - SC, 89202 - 400 4М", "lat": -26.3177285, "lng": -48.8393183}, {"id": "697290db4910c3a522c67d50", "name": "Elev Gestão Condominial - R Urussanga, 1217 - Bucarein, Joinville - SC, 89202 - 400 4М", "lat": -26.317098, "lng": -48.8392275}, {"id": "697290db4910c3a522c67d4f", "name": "R Visc. De Taunay, 363 - Atiradores, Joinville - SC, 89201 - 462", "lat": -26.3039799, "lng": -48.8507489}, {"id": "697290db4910c3a522c67d4e", "name": "R Visc. De Taunay, 146 - 298 - Centro, Joinville - SC, 89201 - 420 3 M", "lat": -26.3033144, "lng": -48.8500049}, {"id": "697290db4910c3a522c67d4c", "name": "R Inácio Bastos, 598 - 600 - Bucarein, Joinville - SC, 89202 - 310 3М", "lat": -26.316038, "lng": -48.8391527}, {"id": "697290db4910c3a522c67d4b", "name": "R Pedro Lobo, 116 - 198 - Centro, Joinville - SC, 89201 - 430 7 M", "lat": -26.3029246, "lng": -48.8486015}, {"id": "697290db4910c3a522c67d4a", "name": "Urussanga, 800 - Bucarein - Bucarein, Joinville - SC, 89202 - 400 5М", "lat": -26.3149459, "lng": -48.8393348}, {"id": "697290db4910c3a522c67d49", "name": "R Padre Kolb, 716 - 776 - Bucarein, Joinville - SC, 89202 - 350. 4М", "lat": -26.3143896, "lng": -48.8395473}, {"id": "697290db4910c3a522c67d48", "name": "R Urussanga, 825 - 731 - Bucarein, Joinville - SC, 89202 - 400", "lat": -26.3139692, "lng": -48.8393643}, {"id": "697290db4910c3a522c67d47", "name": "R Urussanga, 29 - Bucarein, Joinville - SC, 89202 - 400", "lat": -26.3132374, "lng": -48.8393864}, {"id": "697290db4910c3a522c67d46", "name": "R Pres. Affonso Penna, 554 - 572 - Bucarein, Joinville - SC, 89202 - 420. 4М", "lat": -26.3126606, "lng": -48.8393432}, {"id": "697290db4910c3a522c67d45", "name": "R Urussanga, 599 - 507 - Bucarein, Joinville - SC, 89202 - 400", "lat": -26.3119946, "lng": -48.8394333}, {"id": "697290db4910c3a522c67d44", "name": "Lt Direito & Negócios - Av Juscelino Kubitscheck, 461 - Sala 5 - Centro, Joinville - SC, 89201 - 100 4 M", "lat": -26.3050958, "lng": -48.8460507}, {"id": "697290db4910c3a522c67d43", "name": "Larissa Bonucielli Agne - R Min. Calógeras, 310 - Centro, Joinville - SC, 89201 - 490 5 M", "lat": -26.3074393, "lng": -48.8456064}, {"id": "697290db4910c3a522c67d42", "name": "R Urussanga, 355 - Bucarein, Joinville - SC, 89202 - 400", "lat": -26.3105553, "lng": -48.8395021}, {"id": "697290db4910c3a522c67d41", "name": "Mais Sabor Açaí - Av Cel. Procópio Gomes, 274 - Bucarein, Joinville - SC, 89202 - 300 4 M", "lat": -26.3084287, "lng": -48.8410534}, {"id": "697290db4910c3a522c67d40", "name": "R Urussanga, 253 - Bucarein, Joinville - SC, 89202 - 400", "lat": -26.3093998, "lng": -48.8395614}, {"id": "697290db4910c3a522c67d3e", "name": "R Urussanga, 110 - 178 - Bucarein, Joinville - SC, 89202 - 400", "lat": -26.3083662, "lng": -48.839727}]}