{"city": "Ilhéus", "areaId": "694937516237fb6f62b7bdf5", "count": 268, "parkings": [{"id": "69bc455b5d42065ad072de3a", "name": "Darcy Ribeiro", "lat": -14.827131, "lng": -39.033537}, {"id": "69bc455b5d42065ad072de39", "name": "Rua Jasmim", "lat": -14.820654, "lng": -39.034543}, {"id": "69bc455b5d42065ad072de38", "name": "Padaria Nelson Costa", "lat": -14.820104, "lng": -39.033451}, {"id": "69bc455b5d42065ad072de37", "name": "Rua Bem Me Quer", "lat": -14.820449, "lng": -39.033487}, {"id": "69bc455b5d42065ad072de36", "name": "R. Gardenia", "lat": -14.821248, "lng": -39.033221}, {"id": "69bc455b5d42065ad072de35", "name": "Delicatessen Modelo", "lat": -14.824889, "lng": -39.035223}, {"id": "69bc455b5d42065ad072de34", "name": "Selva Burger II", "lat": -14.825428, "lng": -39.03365}, {"id": "69bc455b5d42065ad072de33", "name": "Selva Burger", "lat": -14.824767, "lng": -39.033873}, {"id": "69bc44555d42065ad0713214", "name": "Ecobaba", "lat": -14.800141, "lng": -39.075414}, {"id": "69bc442c5d42065ad0710641", "name": "BR.415", "lat": -14.801488, "lng": -39.073758}, {"id": "69bc44045d42065ad070f210", "name": "Madeireira", "lat": -14.800955, "lng": -39.067592}, {"id": "699eede83426e1d4a1a03260", "name": "Rua dos Bem-te-vis", "lat": -14.84443869657628, "lng": -39.02632892131806}, {"id": "699eedd13426e1d4a1a02e2b", "name": "Tangarás", "lat": -14.844290980594483, "lng": -39.0269310772419}, {"id": "699eed8a3426e1d4a19fe8d6", "name": "Rua das Andorinhas", "lat": -14.844449073936614, "lng": -39.02782693505288}, {"id": "6982cc9bad1a67896999e6e8", "name": "Posto Shell – Branca", "lat": -14.800162, "lng": -39.066011}, {"id": "6982cc9bad1a67896999e6e7", "name": "Encontros Motel", "lat": -14.80054, "lng": -39.066907}, {"id": "6982cc9bad1a67896999e6d6", "name": "Mercadinho do H", "lat": -14.800403, "lng": -39.06542}, {"id": "6982cc9bad1a67896999e6d5", "name": "Estação Rodoviária", "lat": -14.797033, "lng": -39.058917}, {"id": "6982cc9bad1a67896999e6d4", "name": "Terminal Rodoviário", "lat": -14.796747, "lng": -39.058166}, {"id": "6982cc9bad1a67896999e6d3", "name": "Barraco Almeida", "lat": -14.796502, "lng": -39.056404}, {"id": "6982cc9bad1a67896999e6d2", "name": "Auto Mecânica Elson", "lat": -14.795053, "lng": -39.0548}, {"id": "6982cc9bad1a67896999e6d1", "name": "Instituto J. d'Arc", "lat": -14.794401, "lng": -39.053909}, {"id": "6982cc9bad1a67896999e6d0", "name": "Posto Shell, Av Itabuna", "lat": -14.793614, "lng": -39.052714}, {"id": "697b9cc58c6e8876da8b8a73", "name": "Indiana - Praia do Sul", "lat": -14.839088618948917, "lng": -39.02583673596383}, {"id": "69790c7d7d475b5550b92592", "name": "Av José Luis da Fonseca", "lat": -14.770957, "lng": -39.061199}, {"id": "69790c717d475b5550b92426", "name": "Av José Luis da Fonseca II", "lat": -14.76996, "lng": -39.061987}, {"id": "69790c647d475b5550b922bc", "name": "Arena Savoia", "lat": -14.767219, "lng": -39.063035}, {"id": "69790c567d475b5550b920e4", "name": "Arena Savoia FTV", "lat": -14.767897, "lng": -39.062723}, {"id": "69790c4a7d475b5550b91f6f", "name": "Ibec br", "lat": -14.766278, "lng": -39.063209}, {"id": "69790c337d475b5550b91aa5", "name": "Norte Village Residencial", "lat": -14.772297, "lng": -39.060899}, {"id": "69790c127d475b5550b9170a", "name": "Bem Melhor - Esperança", "lat": -14.787916, "lng": -39.049687}, {"id": "69790b1a7d475b5550b8cef5", "name": "Bem Melhor - Malhado", "lat": -14.78177, "lng": -39.053226}, {"id": "69790b1a7d475b5550b8cef4", "name": "4A Travessa Nerival", "lat": -14.778083, "lng": -39.055561}, {"id": "69790b1a7d475b5550b8ceee", "name": "Posto Caminho do Sol", "lat": -14.768786, "lng": -39.061706}, {"id": "69790b1a7d475b5550b8ceed", "name": "Rua Dois", "lat": -14.770671, "lng": -39.060923}, {"id": "69790b1a7d475b5550b8ceec", "name": "Quadra de Esportiva da Barra", "lat": -14.776343, "lng": -39.057011}, {"id": "69790b1a7d475b5550b8ceeb", "name": "Av Amilton de Castro", "lat": -14.773912, "lng": -39.058858}, {"id": "69790b1a7d475b5550b8cee9", "name": "Lion Paintball Club", "lat": -14.761251, "lng": -39.064096}, {"id": "69790b1a7d475b5550b8cee8", "name": "CacauAmado Savoia", "lat": -14.762187, "lng": -39.064009}, {"id": "69790b1a7d475b5550b8cee7", "name": "Quadra de Esporte Jardim Savoia", "lat": -14.763043, "lng": -39.063682}, {"id": "69790b1a7d475b5550b8cee6", "name": "Getsemani", "lat": -14.764166, "lng": -39.063073}, {"id": "69790b1a7d475b5550b8cee5", "name": "La-Biroska", "lat": -14.765313, "lng": -39.062705}, {"id": "69790b1a7d475b5550b8cee4", "name": "MRV", "lat": -14.76659, "lng": -39.062306}, {"id": "69790b1a7d475b5550b8cee3", "name": "Av Proclamação, Ponto de Ônibus II", "lat": -14.772072, "lng": -39.060296}, {"id": "69790b1a7d475b5550b8cee2", "name": "Av Proclamação, Ponto de Ônibus", "lat": -14.771915, "lng": -39.059942}, {"id": "69790b1a7d475b5550b8cee1", "name": "Complexo de Bombeiros Militares", "lat": -14.772857, "lng": -39.059508}, {"id": "69790b1a7d475b5550b8cee0", "name": "Colégio Estadual Rotary", "lat": -14.773317, "lng": -39.058504}, {"id": "69790b1a7d475b5550b8cedf", "name": "Mercado Bom Gosto", "lat": -14.775438, "lng": -39.056973}, {"id": "69790b1a7d475b5550b8cede", "name": "Rua da Linha", "lat": -14.778853, "lng": -39.055496}, {"id": "6965d5cf442cb4efdeefb49a", "name": "Av itabuna Ponto de Onibus", "lat": -14.791515, "lng": -39.04657}, {"id": "6965d5a2442cb4efdeefaeb4", "name": "Rua Uruguaiana", "lat": -14.785098, "lng": -39.046681}, {"id": "6965d562442cb4efdeefa69b", "name": "Posto Carioca", "lat": -14.780402, "lng": -39.054153}, {"id": "6965d545442cb4efdeefa30b", "name": "Drogaria Velanes, Ubaitaba", "lat": -14.783071, "lng": -39.052105}, {"id": "6965d520442cb4efdeef9a67", "name": "Master Center Ubaitaba", "lat": -14.78417, "lng": -39.051634}, {"id": "6965d4ff442cb4efdeef96a8", "name": "Supermercado Bem Melhor", "lat": -14.787748, "lng": -39.049858}, {"id": "6965d4d9442cb4efdeef90ae", "name": "Point do MiMi", "lat": -14.785078, "lng": -39.045743}, {"id": "6965d4b8442cb4efdeef74a7", "name": "Casa do Carpinteiro", "lat": -14.787765, "lng": -39.046743}, {"id": "6965d493442cb4efdeef42bf", "name": "Rua Lindolfo Collor II", "lat": -14.787528, "lng": -39.047451}, {"id": "6965d462442cb4efdeef3e18", "name": "Rua Lindolfo Collor", "lat": -14.788893, "lng": -39.048144}, {"id": "6965d42b442cb4efdeef372a", "name": "Home Center Pai Mendonça", "lat": -14.791832, "lng": -39.047787}, {"id": "6965d405442cb4efdeef31d3", "name": "Posto Dom Eduardo", "lat": -14.793254, "lng": -39.051599}, {"id": "6965d3e0442cb4efdeef2e0c", "name": "Allpfit Academia", "lat": -14.792982, "lng": -39.050492}, {"id": "6965d3bb442cb4efdeef27d6", "name": "Matiz Cores e Tintas", "lat": -14.792604, "lng": -39.049343}, {"id": "6965d392442cb4efdeef1c1e", "name": "1a Travessa Brasil, Hospital", "lat": -14.793805, "lng": -39.044621}, {"id": "6965d367442cb4efdeeecd0c", "name": "Prefeitura - Ilhéus", "lat": -14.793139, "lng": -39.043224}, {"id": "6965d304442cb4efdeee7279", "name": "Av Brasil", "lat": -14.793645, "lng": -39.047012}, {"id": "6965d2de442cb4efdeee6c9f", "name": "Colégio Vitoria - Ilhéus", "lat": -14.795816, "lng": -39.045894}, {"id": "6965d2b4442cb4efdeee6486", "name": "Praça Fabiano Amorim", "lat": -14.797841, "lng": -39.044192}, {"id": "6965d294442cb4efdeee5eca", "name": "Praça Santa Rita", "lat": -14.797777, "lng": -39.042748}, {"id": "6965d273442cb4efdeee5971", "name": "Praça Santo Antonio", "lat": -14.79542, "lng": -39.041552}, {"id": "6959b6fccb4131e9387e2883", "name": "r. Uruguaiana", "lat": -14.782107940080701, "lng": -39.04892462661975}, {"id": "6959b6e8cb4131e9387e142d", "name": "r. Visc. de Pedra Branca", "lat": -14.783031201419385, "lng": -39.05056525917617}, {"id": "6958230dff15bdb75145f9bc", "name": "Epiranga", "lat": -14.7973318, "lng": -39.0357646}, {"id": "69553c562479703707866520", "name": "r. Sol e Mar", "lat": -14.846166247955658, "lng": -39.02816891670228}, {"id": "69553c432479703707865fee", "name": "Vog Hotéis", "lat": -14.847539830261185, "lng": -39.027471542358406}, {"id": "69553aca2479703707851802", "name": "R. Ipanema", "lat": -14.785064437265236, "lng": -39.04294847044721}, {"id": "69553ab62479703707851438", "name": "rua Lindolfo Collor", "lat": -14.784089316327696, "lng": -39.04476240694049}, {"id": "69553aa52479703707851193", "name": "Tv. dos Palmares", "lat": -14.783277576674793, "lng": -39.045775372883405}, {"id": "69553a962479703707850ee1", "name": "Banco do Brasil", "lat": -14.782416558774, "lng": -39.04680007535995}, {"id": "69553a892479703707850c40", "name": "Ligue Pizza", "lat": -14.781686506282638, "lng": -39.04745803776673}, {"id": "69553a3f247970370784bb11", "name": "Br 415", "lat": -14.790616837627027, "lng": -39.04280306228489}, {"id": "69553a2e247970370784b6d8", "name": "r. das Pratas", "lat": -14.790471610841914, "lng": -39.04185939981648}, {"id": "69553a12247970370784b0aa", "name": "r. Santarem", "lat": -14.790900807577774, "lng": -39.041221903543594}, {"id": "695538ae2479703707841755", "name": "r. Caminho 4", "lat": -14.823378551567815, "lng": -39.030425256005415}, {"id": "695538a02479703707841504", "name": "r. Caminho seis", "lat": -14.82475799264987, "lng": -39.03015708719875}, {"id": "695538842479703707840da2", "name": "Camonho dez", "lat": -14.826280034921796, "lng": -39.02980631030966}, {"id": "69553872247970370783fc9d", "name": "r. armour perfeito", "lat": -14.82057556244573, "lng": -39.03018123055287}, {"id": "6955385a247970370783d9b4", "name": "desigh studio Grafica", "lat": -14.823993078097917, "lng": -39.03027773937178}, {"id": "6955383f247970370783acf6", "name": "Carlos Lanches", "lat": -14.82227654814734, "lng": -39.030637613119666}, {"id": "6955382b2479703707838cbe", "name": "Restaurante capixaba", "lat": -14.820353862867734, "lng": -39.03198461776361}, {"id": "6955381a2479703707836849", "name": "r. Margarida", "lat": -14.820878940447813, "lng": -39.031736249135314}, {"id": "695537fe2479703707834b50", "name": "r. Bela Vista, Igreja Adventista", "lat": -14.821786478942078, "lng": -39.03148188034844}, {"id": "69553608f73437e8d2294248", "name": "Cabana São Jorge ", "lat": -14.7788237, "lng": -39.0547325}, {"id": "695535bff73437e8d2293364", "name": "Atlantic Beach Condo Condomínio Praias do Atlântico", "lat": -14.8355637, "lng": -39.0303911}, {"id": "69553592f73437e8d229285d", "name": "Rua Hawai", "lat": -14.81798, "lng": -39.028022}, {"id": "69553548f73437e8d2291445", "name": "Lanches D'Licias", "lat": -14.819313, "lng": -39.028298}, {"id": "69553524f73437e8d2290df1", "name": "Bar Acarajé do Neinho", "lat": -14.820766, "lng": -39.028675}, {"id": "69553506f73437e8d228fa93", "name": "Shopcell ", "lat": -14.821279, "lng": -39.02915}, {"id": "695534e9f73437e8d228ee04", "name": "Av Nossa Senhora Aparecida", "lat": -14.824288, "lng": -39.029503}, {"id": "695534cef73437e8d228ce74", "name": "Escola Passo a Passo", "lat": -14.825492, "lng": -39.029483}, {"id": "69553470f73437e8d228aa63", "name": "Bromélias ", "lat": -14.827648, "lng": -39.030042}, {"id": "69553449f73437e8d228a19d", "name": "Madeireira Barreira ", "lat": -14.82802, "lng": -39.029465}, {"id": "69553429f73437e8d2289a47", "name": "Hamburgueria, Leo", "lat": -14.829104, "lng": -39.029492}, {"id": "6955340bf73437e8d22887a9", "name": "Centro De Promoção À Vida", "lat": -14.8304034, "lng": -39.0296193}, {"id": "695533ecf73437e8d2283aa3", "name": "ATT - Atlântico Transportes e Turismo", "lat": -14.8320498, "lng": -39.0302681}, {"id": "695533cef73437e8d227f1e8", "name": "Ville condominium Pontal Condomínio Pontal Ville", "lat": -14.8337468, "lng": -39.0309621}, {"id": "6955338df73437e8d2278e0b", "name": "Safira Sapatilha Atacado", "lat": -14.8347357, "lng": -39.0313762}, {"id": "694b455e173c7875276c0fd7", "name": "3Barcacas | Tap House", "lat": -14.7974006, "lng": -39.0320414}, {"id": "6949fa350f27fdf5dccdd4e2", "name": "Praia da Boca da Barra", "lat": -14.7787536, "lng": -39.0520241}, {"id": "6949fa350f27fdf5dccdd4e1", "name": "Associação de Praças da Polícia Militar", "lat": -14.777773, "lng": -39.0498958}, {"id": "6949fa350f27fdf5dccdd4e0", "name": "Vila Militar", "lat": -14.778659, "lng": -39.049494}, {"id": "6949fa350f27fdf5dccdd4df", "name": "Rua Praia do Marciano", "lat": -14.779662, "lng": -39.047068}, {"id": "6949fa350f27fdf5dccdd4de", "name": "VISGUEIRA BAR", "lat": -14.7811121, "lng": -39.045441}, {"id": "6949fa350f27fdf5dccdd4dd", "name": "Pousada Terra do Sol", "lat": -14.781799, "lng": -39.044832}, {"id": "6949fa350f27fdf5dccdd4dc", "name": "Cabana pinah III", "lat": -14.7826156, "lng": -39.0442069}, {"id": "6949fa350f27fdf5dccdd4db", "name": "Ana Doces", "lat": -14.7830364, "lng": -39.043781}, {"id": "6949fa350f27fdf5dccdd4da", "name": "Petiscaria Litorânea. 1", "lat": -14.7843127, "lng": -39.042226}, {"id": "6949fa350f27fdf5dccdd4d9", "name": "Petiscaria Litorânea", "lat": -14.7846035, "lng": -39.0417278}, {"id": "6949fa350f27fdf5dccdd4d8", "name": "Malhado, Ilhéus", "lat": -14.7845636, "lng": -39.039806}, {"id": "6949fa350f27fdf5dccdd4d7", "name": "Praia do Malhado 1", "lat": -14.7848839, "lng": -39.0387921}, {"id": "6949fa350f27fdf5dccdd4d6", "name": "Detinho Lavajato", "lat": -14.785033, "lng": -39.0406667}, {"id": "6949fa350f27fdf5dccdd4d5", "name": "Buriti", "lat": -14.8215064, "lng": -39.0268982}, {"id": "6949fa350f27fdf5dccdd4d4", "name": "Blue Park Residence", "lat": -14.8276283, "lng": -39.0275802}, {"id": "6949fa350f27fdf5dccdd4d3", "name": "Conveniência Squina 73", "lat": -14.8281547, "lng": -39.0276452}, {"id": "6949fa350f27fdf5dccdd4d2", "name": "Zona Sul", "lat": -14.82522, "lng": -39.027257}, {"id": "6949fa350f27fdf5dccdd4d1", "name": "Av. Walmir Chagas Góes, 1454-1496", "lat": -14.8300809, "lng": -39.0277461}, {"id": "6949fa350f27fdf5dccdd4d0", "name": "Jardins Residencial", "lat": -14.8313507, "lng": -39.0282189}, {"id": "6949fa350f27fdf5dccdd4cf", "name": "Bus Stop 1", "lat": -14.8344317, "lng": -39.0277894}, {"id": "6949fa350f27fdf5dccdd4ce", "name": "Sunset Barbershop Filial Sul", "lat": -14.836584, "lng": -39.0271014}, {"id": "6949fa350f27fdf5dccdd4cd", "name": "Real Park Residencial", "lat": -14.824185, "lng": -39.0286282}, {"id": "6949fa350f27fdf5dccdd4cc", "name": "Condomínio Villa Costeira", "lat": -14.8217019, "lng": -39.0278085}, {"id": "6949fa350f27fdf5dccdd4cb", "name": "Supermercado Meira", "lat": -14.8206164, "lng": -39.0279721}, {"id": "6949fa350f27fdf5dccdd4ca", "name": "R. Santa Felicidade, 164-218", "lat": -14.8207872, "lng": -39.0271245}, {"id": "6949fa350f27fdf5dccdd4c9", "name": "Rua Açaí", "lat": -14.820096, "lng": -39.02708}, {"id": "6949fa350f27fdf5dccdd4c8", "name": "Dona Ari Restaurante", "lat": -14.8194308, "lng": -39.0266448}, {"id": "6949fa350f27fdf5dccdd4c7", "name": "R. José Andrade Furtado, 60-104", "lat": -14.8068888, "lng": -39.0371707}, {"id": "6949fa350f27fdf5dccdd4c6", "name": "METAVERSOTEC", "lat": -14.8080589, "lng": -39.0365431}, {"id": "6949fa350f27fdf5dccdd4c5", "name": "Leleco Bar e Restaurante", "lat": -14.810273, "lng": -39.038355}, {"id": "6949fa350f27fdf5dccdd4c4", "name": "Av. Sapetinga, 436-506", "lat": -14.8107898, "lng": -39.0389856}, {"id": "6949fa350f27fdf5dccdd4c3", "name": "Baía da Sapetinga", "lat": -14.8120568, "lng": -39.0390979}, {"id": "6949fa350f27fdf5dccdd4c2", "name": "Av. Sapetinga 662", "lat": -14.8129424, "lng": -39.0392521}, {"id": "6949fa350f27fdf5dccdd4c1", "name": "Campo da Sapetinga", "lat": -14.8133673, "lng": -39.0370869}, {"id": "6949fa350f27fdf5dccdd4c0", "name": "Paróquia São João Batista", "lat": -14.8115087, "lng": -39.0365813}, {"id": "6949fa350f27fdf5dccdd4bf", "name": "Movida Aluguel de Carros", "lat": -14.812636, "lng": -39.0357964}, {"id": "6949fa350f27fdf5dccdd4be", "name": "Localiza Aluguel de Carros", "lat": -14.8138392, "lng": -39.0335816}, {"id": "6949fa350f27fdf5dccdd4bd", "name": "Ilhéus Airport 1", "lat": -14.8139316, "lng": -39.0321845}, {"id": "6949fa350f27fdf5dccdd4bc", "name": "Ilhéus Airport Aeroporto de Ilhéus - SBIL/IOS", "lat": -14.8138253, "lng": -39.0311894}, {"id": "6949fa350f27fdf5dccdd4bb", "name": "Praça do Pontal II", "lat": -14.813174, "lng": -39.02903}, {"id": "6949fa350f27fdf5dccdd4ba", "name": "Praça Do Pontal", "lat": -14.8131774, "lng": -39.0297581}, {"id": "6949fa350f27fdf5dccdd4b9", "name": "Daniel San", "lat": -14.8145092, "lng": -39.0288026}, {"id": "6949fa350f27fdf5dccdd4b8", "name": "Distribuidora Cristal", "lat": -14.8146256, "lng": -39.0279691}, {"id": "6949fa350f27fdf5dccdd4b7", "name": "Bar E Restaurante 3x4", "lat": -14.8145915, "lng": -39.0261338}, {"id": "6949fa350f27fdf5dccdd4b6", "name": "Av. Ver. Marcus Paiva, 236", "lat": -14.7881438, "lng": -39.0331156}, {"id": "6949fa350f27fdf5dccdd4b5", "name": "Carmo e Freitas Advogados Associados", "lat": -14.7856266, "lng": -39.0325074}, {"id": "6949fa350f27fdf5dccdd4b4", "name": "Triggos Delicatessen", "lat": -14.7867605, "lng": -39.0330334}, {"id": "6949fa350f27fdf5dccdd4b3", "name": "R. Maj. Homem Del Rei, 76-182", "lat": -14.7857779, "lng": -39.0345613}, {"id": "6949fa350f27fdf5dccdd4b2", "name": "Edf. Lumiere Cidade Nova", "lat": -14.7860302, "lng": -39.0339212}, {"id": "6949fa350f27fdf5dccdd4b1", "name": "Farani 221", "lat": -14.7849513, "lng": -39.0339591}, {"id": "6949fa350f27fdf5dccdd4b0", "name": "WAHOO PESCA ESPORTIVA", "lat": -14.7841039, "lng": -39.0340798}, {"id": "6949fa350f27fdf5dccdd4af", "name": "Fábrica de Gelo", "lat": -14.7831191, "lng": -39.0334328}, {"id": "6949fa350f27fdf5dccdd4ae", "name": "Ilhéus Pesca Oceânica", "lat": -14.7846459, "lng": -39.0349039}, {"id": "6949fa350f27fdf5dccdd4ad", "name": "Ilhéus Compras", "lat": -14.7875055, "lng": -39.0363564}, {"id": "6949fa350f27fdf5dccdd4ac", "name": "Day", "lat": -14.7891299, "lng": -39.0363493}, {"id": "6949fa350f27fdf5dccdd4ab", "name": "Morada Villa Real", "lat": -14.789538, "lng": -39.0372948}, {"id": "6949fa350f27fdf5dccdd4aa", "name": "Paróquia Nossa Senhora de Guadalupe", "lat": -14.7908512, "lng": -39.0381293}, {"id": "6949fa350f27fdf5dccdd4a9", "name": "Praça do Ex Combatente", "lat": -14.7954242, "lng": -39.038021}, {"id": "6949fa350f27fdf5dccdd4a8", "name": "R. Teresópolis 155", "lat": -14.7950031, "lng": -39.0377856}, {"id": "6949fa350f27fdf5dccdd4a7", "name": "Mirante da Piedade", "lat": -14.7943055, "lng": -39.0334016}, {"id": "6949fa350f27fdf5dccdd4a6", "name": "R. Me. Tais", "lat": -14.7953033, "lng": -39.0365481}, {"id": "6949fa350f27fdf5dccdd4a5", "name": "Santuário Diocesano Nossa senhora das vitórias", "lat": -14.7963574, "lng": -39.0355058}, {"id": "6949fa350f27fdf5dccdd4a4", "name": "Parallel39", "lat": -14.7961224, "lng": -39.0369843}, {"id": "6949fa350f27fdf5dccdd4a3", "name": "Studio de Beleza", "lat": -14.7965516, "lng": -39.0380089}, {"id": "6949fa350f27fdf5dccdd4a2", "name": "Floricultura", "lat": -14.7972158, "lng": -39.0383948}, {"id": "6949fa350f27fdf5dccdd4a0", "name": "POUSADA", "lat": -14.8080735, "lng": -39.02536}, {"id": "6949fa350f27fdf5dccdd49f", "name": "Estádio Mario Pessoa", "lat": -14.7898547, "lng": -39.0336054}, {"id": "6949fa350f27fdf5dccdd49e", "name": "Praça misael Tavares", "lat": -14.7904648, "lng": -39.0332135}, {"id": "6949fa350f27fdf5dccdd49d", "name": "McDonald´s", "lat": -14.7880108, "lng": -39.0339414}, {"id": "6949fa350f27fdf5dccdd49c", "name": "Praça Antônio Vianna", "lat": -14.7869822, "lng": -39.0341452}, {"id": "6949fa350f27fdf5dccdd49b", "name": "Massimo Residencial", "lat": -14.7858217, "lng": -39.0361663}, {"id": "6949fa350f27fdf5dccdd49a", "name": "Praiêto Beach Club", "lat": -14.785499, "lng": -39.037914}, {"id": "6949fa350f27fdf5dccdd499", "name": "Mix Mateus - Ilhéus", "lat": -14.787627, "lng": -39.038485}, {"id": "6949fa350f27fdf5dccdd498", "name": "Farmácia Indiana", "lat": -14.790858, "lng": -39.0398479}, {"id": "6949fa350f27fdf5dccdd497", "name": "ABADI", "lat": -14.792932, "lng": -39.0398248}, {"id": "6949fa350f27fdf5dccdd496", "name": "Açaí Bom D+", "lat": -14.793085, "lng": -39.0390356}, {"id": "6949fa350f27fdf5dccdd495", "name": "Visual Pet", "lat": -14.7932857, "lng": -39.0378014}, {"id": "6949fa350f27fdf5dccdd494", "name": "BR 415", "lat": -14.7929858, "lng": -39.0364221}, {"id": "6949fa350f27fdf5dccdd493", "name": "Health's Secretary", "lat": -14.7925184, "lng": -39.0353334}, {"id": "6949fa350f27fdf5dccdd492", "name": "SPORTS GYM", "lat": -14.7922101, "lng": -39.0341952}, {"id": "6949fa350f27fdf5dccdd491", "name": "Praça Misael Tavares", "lat": -14.791789, "lng": -39.0329302}, {"id": "6949fa350f27fdf5dccdd490", "name": "Ministério da Fazenda", "lat": -14.7920681, "lng": -39.0327417}, {"id": "6949fa350f27fdf5dccdd48f", "name": "VITA Empresarial", "lat": -14.7933388, "lng": -39.0324822}, {"id": "6949fa350f27fdf5dccdd48e", "name": "Museu da capitania", "lat": -14.7979931, "lng": -39.0342106}, {"id": "6949fa350f27fdf5dccdd48d", "name": "Antigo Cais", "lat": -14.7997779, "lng": -39.0345184}, {"id": "6949fa350f27fdf5dccdd48c", "name": "Caixa", "lat": -14.7992418, "lng": -39.0353904}, {"id": "6949fa350f27fdf5dccdd48b", "name": "Caixa Econômica Federal", "lat": -14.7988301, "lng": -39.0367017}, {"id": "6949fa350f27fdf5dccdd48a", "name": "Shopping popular de Ilhéus II", "lat": -14.7980677, "lng": -39.0368529}, {"id": "6949fa350f27fdf5dccdd489", "name": "Shopping popular de Ilhéus I", "lat": -14.7984424, "lng": -39.0378436}, {"id": "6949fa350f27fdf5dccdd488", "name": "R. Ana Neri, 46-8", "lat": -14.7990839, "lng": -39.0389571}, {"id": "6949fa350f27fdf5dccdd487", "name": "Praça Cairú - Centro", "lat": -14.7976194, "lng": -39.0368331}, {"id": "6949fa350f27fdf5dccdd486", "name": "COP", "lat": -14.7975798, "lng": -39.0363372}, {"id": "6949fa350f27fdf5dccdd485", "name": "Padaria Pão Central", "lat": -14.7975746, "lng": -39.0357116}, {"id": "6949fa350f27fdf5dccdd484", "name": "Stop Lanches", "lat": -14.7969882, "lng": -39.0339538}, {"id": "6949fa350f27fdf5dccdd483", "name": "BOTECO AH LENDA", "lat": -14.7959966, "lng": -39.0334096}, {"id": "6949fa350f27fdf5dccdd482", "name": "Jd Recargas De Cartuchos E Toner", "lat": -14.7950212, "lng": -39.032439}, {"id": "6949fa350f27fdf5dccdd481", "name": "CARI", "lat": -14.7967172, "lng": -39.0328789}, {"id": "6949fa350f27fdf5dccdd480", "name": "Igreja Sao Jorge", "lat": -14.7971101, "lng": -39.0329593}, {"id": "6949fa350f27fdf5dccdd47f", "name": "Médico Center", "lat": -14.798197, "lng": -39.0329563}, {"id": "6949fa350f27fdf5dccdd47e", "name": "Banco Itaú - Agência 0291", "lat": -14.7987225, "lng": -39.0328504}, {"id": "6949fa350f27fdf5dccdd47d", "name": "Pça. José Marcelino", "lat": -14.8000476, "lng": -39.0334143}, {"id": "6949fa350f27fdf5dccdd47c", "name": "Dois Jet", "lat": -14.8009899, "lng": -39.0337087}, {"id": "6949fa350f27fdf5dccdd47b", "name": "CANGGU", "lat": -14.801524, "lng": -39.033435}, {"id": "6949fa350f27fdf5dccdd47a", "name": "ESCOLA DE FORMAÇÃO TECNICA DE ILHÉUS", "lat": -14.8029776, "lng": -39.0337506}, {"id": "6949fa350f27fdf5dccdd479", "name": "Academia Corpore", "lat": -14.8033144, "lng": -39.0317648}, {"id": "6949fa350f27fdf5dccdd478", "name": "Obelisco 2 de Julho", "lat": -14.8018616, "lng": -39.0312478}, {"id": "6949fa350f27fdf5dccdd477", "name": "Praça José Marcelino", "lat": -14.7996625, "lng": -39.0316424}, {"id": "6949fa350f27fdf5dccdd476", "name": "Praça Dom Eduardo", "lat": -14.7989919, "lng": -39.0321986}, {"id": "6949fa350f27fdf5dccdd475", "name": "Praça Antônio Muniz", "lat": -14.7979053, "lng": -39.0319907}, {"id": "6949fa350f27fdf5dccdd474", "name": "Praça Rui Barbosa", "lat": -14.7965535, "lng": -39.0320112}, {"id": "6949fa350f27fdf5dccdd473", "name": "Praça Castro Alves", "lat": -14.795787, "lng": -39.032029}, {"id": "6949fa350f27fdf5dccdd472", "name": "AMO", "lat": -14.7906142, "lng": -39.0322318}, {"id": "6949fa350f27fdf5dccdd471", "name": "LAP", "lat": -14.7881029, "lng": -39.0323686}, {"id": "6949fa350f27fdf5dccdd470", "name": "Clube Social De Ilheus", "lat": -14.785435, "lng": -39.0332648}, {"id": "6949fa350f27fdf5dccdd46f", "name": "Centro de Convenções de Ilhéus 2", "lat": -14.7865466, "lng": -39.0321664}, {"id": "6949fa350f27fdf5dccdd46e", "name": "Centro de Convenções de Ilhéus", "lat": -14.7874951, "lng": -39.031925}, {"id": "6949fa350f27fdf5dccdd46d", "name": "Av. Soares Lopes, 1390", "lat": -14.7890913, "lng": -39.031975}, {"id": "6949fa350f27fdf5dccdd46c", "name": "Condomínio Mansao Ana Reis", "lat": -14.7909015, "lng": -39.0319344}, {"id": "6949fa350f27fdf5dccdd46a", "name": "FoodPark Ilheus", "lat": -14.792242852316692, "lng": -39.03167724609376}, {"id": "6949fa350f27fdf5dccdd469", "name": "Cine Santa Clara", "lat": -14.7935486, "lng": -39.031812}, {"id": "6949fa350f27fdf5dccdd468", "name": "Drogasil", "lat": -14.794818, "lng": -39.0317614}, {"id": "6949fa350f27fdf5dccdd467", "name": "Qg Do Rey", "lat": -14.7958252, "lng": -39.0317312}, {"id": "6949fa350f27fdf5dccdd466", "name": "Letreiro da Cidade de Ilhéus, BA", "lat": -14.7966433, "lng": -39.0315991}, {"id": "6949fa350f27fdf5dccdd465", "name": "Baía do Pontal", "lat": -14.8055192, "lng": -39.0319448}, {"id": "6949fa350f27fdf5dccdd464", "name": "Posto Petroleo", "lat": -14.8047569, "lng": -39.0370115}, {"id": "6949fa350f27fdf5dccdd463", "name": "Condominio Beach Class", "lat": -14.8062534, "lng": -39.0368224}, {"id": "6949fa350f27fdf5dccdd462", "name": "Av Lomanto Junior", "lat": -14.807226, "lng": -39.036401}, {"id": "6949fa350f27fdf5dccdd461", "name": "Pizzaria & Restaurante Do Cheff", "lat": -14.8085785, "lng": -39.0356023}, {"id": "6949fa350f27fdf5dccdd460", "name": "GBarbosa", "lat": -14.8097768, "lng": -39.035141}, {"id": "6949fa350f27fdf5dccdd45f", "name": "Pontal Park Residencial", "lat": -14.8103652, "lng": -39.0343189}, {"id": "6949fa350f27fdf5dccdd45e", "name": "KNN Idiomas - Ilhéus", "lat": -14.8114653, "lng": -39.0329801}, {"id": "6949fa350f27fdf5dccdd45d", "name": "Escola Municipal Barao De Macaúbas", "lat": -14.811685, "lng": -39.0316772}, {"id": "6949fa350f27fdf5dccdd45c", "name": "Banca Alvorada", "lat": -14.8117152, "lng": -39.0306017}, {"id": "6949fa350f27fdf5dccdd45b", "name": "Peixaria da Colônia", "lat": -14.8113677, "lng": -39.0286936}, {"id": "6949fa350f27fdf5dccdd45a", "name": "Pousada do Sul", "lat": -14.8122594, "lng": -39.0245261}, {"id": "6949fa350f27fdf5dccdd459", "name": "Eclipse Tec", "lat": -14.837998, "lng": -39.02668}, {"id": "6949fa350f27fdf5dccdd458", "name": "Cabana costa do cacau Bahia Beach", "lat": -14.8407101, "lng": -39.0257066}, {"id": "6949fa350f27fdf5dccdd457", "name": "E-Carvalho Imobiliária", "lat": -14.842518, "lng": -39.025408}, {"id": "6949fa350f27fdf5dccdd456", "name": "Orizzon - Edf. de apartamentos residenciais", "lat": -14.8451799, "lng": -39.0254173}, {"id": "6949fa350f27fdf5dccdd455", "name": "Chan Surf School", "lat": -14.8476812, "lng": -39.025185}, {"id": "6949fa350f27fdf5dccdd454", "name": "Cabana Soro Caseiro", "lat": -14.846555, "lng": -39.024868}, {"id": "6949fa350f27fdf5dccdd453", "name": "Praia Do Sul -Ilhéus, BA", "lat": -14.840973199453359, "lng": -39.02515545486861}, {"id": "6949fa350f27fdf5dccdd451", "name": "LAVATERIA FAST ILHÉUS", "lat": -14.8362184, "lng": -39.026867}, {"id": "6949fa350f27fdf5dccdd450", "name": "Empresarial Mississipi", "lat": -14.8344174, "lng": -39.0275564}, {"id": "6949fa350f27fdf5dccdd44f", "name": "Forum Ilhéus", "lat": -14.8329745, "lng": -39.0277532}, {"id": "6949fa350f27fdf5dccdd44e", "name": "R.E", "lat": -14.8321192, "lng": -39.0276979}, {"id": "6949fa350f27fdf5dccdd44d", "name": "Ponto de onibus", "lat": -14.8300974, "lng": -39.0275751}, {"id": "6949fa350f27fdf5dccdd44c", "name": "Jardim Atlântico", "lat": -14.8292009, "lng": -39.0273884}, {"id": "6949fa350f27fdf5dccdd44b", "name": "Residencial Sítio São Paulo", "lat": -14.8286431, "lng": -39.0273146}, {"id": "6949fa350f27fdf5dccdd44a", "name": "Symet´ria Gym", "lat": -14.8244277, "lng": -39.0269153}, {"id": "6949fa350f27fdf5dccdd449", "name": "Le Chat Papelaria", "lat": -14.8229381, "lng": -39.0266226}, {"id": "6949fa350f27fdf5dccdd448", "name": "Bus Stop", "lat": -14.8206508, "lng": -39.0265053}, {"id": "6949fa350f27fdf5dccdd447", "name": "Hotel Praia do Sol", "lat": -14.8191151, "lng": -39.0263098}, {"id": "6949fa350f27fdf5dccdd446", "name": "APCEF", "lat": -14.817323, "lng": -39.025993}, {"id": "6949fa350f27fdf5dccdd445", "name": "Opaba Praia Hotel", "lat": -14.8163791, "lng": -39.0248386}, {"id": "6949fa350f27fdf5dccdd444", "name": "Praça Branco", "lat": -14.8131336, "lng": -39.0246609}, {"id": "6949fa350f27fdf5dccdd443", "name": "R. Castro Alves, 548", "lat": -14.8110659, "lng": -39.0244712}, {"id": "6949fa350f27fdf5dccdd442", "name": "Praça Padre Luiz Palmeira", "lat": -14.8092252, "lng": -39.0247615}, {"id": "6949fa350f27fdf5dccdd441", "name": "Larika", "lat": -14.8101321, "lng": -39.0262954}, {"id": "6949fa350f27fdf5dccdd440", "name": "Le Chat Café", "lat": -14.8111515, "lng": -39.0277552}]}