{"city": "Serra", "areaId": "695fc08a2479703707152316", "count": 716, "source": "gojet-managers-map", "parkings": [{"id": "6a14af38e467e56827746497", "name": "Village Bordeaux", "lat": -20.1970182, "lng": -40.2232801}, {"id": "6a14af17e467e5682774355e", "name": "Mc Donalds Laranjeiras", "lat": -20.1936507, "lng": -40.2644128}, {"id": "69f24b4b38744f10604968ed", "name": "Multivix I", "lat": -20.1927274, "lng": -40.2613916}, {"id": "69f24b4b38744f10604968ec", "name": "Multivix II", "lat": -20.1924562, "lng": -40.2624152}, {"id": "69ea69bbad6f44f2855baedf", "name": "Condomínio Aldeia das Laranjeiras", "lat": -20.19772, "lng": -40.2433}, {"id": "69ea69a9ad6f44f2855ba43d", "name": "R. Pablo Picasso, 11", "lat": -20.19662, "lng": -40.24616}, {"id": "69ea6998ad6f44f2855b9866", "name": "R. Sandro Boticcelli, 1", "lat": -20.19662, "lng": -40.24565}, {"id": "69ea6986ad6f44f2855b8b9c", "name": "R. Portinari, 169", "lat": -20.19653, "lng": -40.24542}, {"id": "69ea6972ad6f44f2855b7fca", "name": "Tv. Z Seis, 2", "lat": -20.1961, "lng": -40.24545}, {"id": "69ea695bad6f44f2855b6f73", "name": "Tv. Z Cinco, 54", "lat": -20.1959, "lng": -40.24654}, {"id": "69ea6949ad6f44f2855b601f", "name": "Tv. Z Quatro, 59", "lat": -20.19621, "lng": -40.24706}, {"id": "69ea6923ad6f44f2855b0719", "name": "R. Miguel Ângelo, 502", "lat": -20.19643, "lng": -40.24698}, {"id": "69ea6913ad6f44f2855ae8e6", "name": "R. Miguel Ângelo, 436", "lat": -20.19705, "lng": -40.24723}, {"id": "69ea68faad6f44f2855a8b59", "name": "R. Pablo Picasso, 77", "lat": -20.19715, "lng": -40.24626}, {"id": "69ea68dfad6f44f2855a0c29", "name": "R. Rafael, 194", "lat": -20.19857, "lng": -40.24708}, {"id": "69ea68cdad6f44f28559fb17", "name": "Praça Miguel Ângelo 4", "lat": -20.19789, "lng": -40.2477}, {"id": "69ea68b8ad6f44f28559d022", "name": "Praça Miguel Ângelo 3", "lat": -20.19851, "lng": -40.24765}, {"id": "69ea68a2ad6f44f285597488", "name": "Praça Miguel Ângelo 2", "lat": -20.19841, "lng": -40.24871}, {"id": "69ea686cad6f44f28558ebc2", "name": "Praça Miguel Ângelo 1", "lat": -20.19822, "lng": -40.24826}, {"id": "69ea6856ad6f44f285588578", "name": "OPA Açaí - Res. Laranjeiras", "lat": -20.19852, "lng": -40.24909}, {"id": "69ea6839ad6f44f2855828e2", "name": "R. Princesa Isabel, 1", "lat": -20.19901, "lng": -40.24957}, {"id": "69ea6822ad6f44f285577b32", "name": "R. Rui Barbosa, 34", "lat": -20.19931, "lng": -40.24993}, {"id": "69ea680bad6f44f2855723b5", "name": "Festas e Fantasias", "lat": -20.19942, "lng": -40.25034}, {"id": "69ea67f1ad6f44f28556e10e", "name": "R. Álvares Cabral, 128", "lat": -20.20005, "lng": -40.25023}, {"id": "69ea67b3ad6f44f28555ee67", "name": "R. Dom Pedro II, 198", "lat": -20.19993, "lng": -40.24974}, {"id": "69ea6790ad6f44f2855533eb", "name": "R. Estácio de Sá, 211", "lat": -20.20098, "lng": -40.2506}, {"id": "69ea6738ad6f44f28553cfb7", "name": "R. José Bonifácio, 241", "lat": -20.20109, "lng": -40.251}, {"id": "69ea6722ad6f44f28553ae07", "name": "R. José Bonifácio, 218", "lat": -20.20119, "lng": -40.25152}, {"id": "69ea66e7ad6f44f285528876", "name": "R. José Bonifácio, 114", "lat": -20.20041, "lng": -40.25174}, {"id": "69ea66d3ad6f44f285520882", "name": "R. Dom Pedro II, 51", "lat": -20.20027, "lng": -40.25122}, {"id": "69ea66bdad6f44f2855139c5", "name": "R. Dom Pedro II, 97", "lat": -20.20014, "lng": -40.25067}, {"id": "69ea66a8ad6f44f28550d2d3", "name": "R. Tiradentes, 12", "lat": -20.1997, "lng": -40.25097}, {"id": "69ea6696ad6f44f285505d5b", "name": "Barbarian Barbearia", "lat": -20.19991, "lng": -40.25198}, {"id": "69ea6682ad6f44f2854fd4ea", "name": "Tv. T Um, 2", "lat": -20.20106, "lng": -40.25285}, {"id": "69ea666dad6f44f2854f7dab", "name": "R. Felipe dos Santos, 3", "lat": -20.20021, "lng": -40.25308}, {"id": "69ea665aad6f44f2854f3a91", "name": "R. Lins do Rêgo, 61", "lat": -20.19795, "lng": -40.25117}, {"id": "69ea6646ad6f44f2854ef35d", "name": "R. Euclídes da Cunha, 305", "lat": -20.19828, "lng": -40.25062}, {"id": "69ea6631ad6f44f2854ec33c", "name": "R. Paulo Setúbal, 9", "lat": -20.19778, "lng": -40.25001}, {"id": "69ea660dad6f44f2854e904a", "name": "R. Euclídes da Cunha, 188", "lat": -20.1975, "lng": -40.24964}, {"id": "69ea65fbad6f44f2854e5fdd", "name": "R. Viriato Corrêa, 86", "lat": -20.19648, "lng": -40.24842}, {"id": "69ea65d5ad6f44f2854e327b", "name": "Av. Civit, 453", "lat": -20.19531, "lng": -40.24957}, {"id": "69ea65c2ad6f44f2854e1b38", "name": "Av. Civit, 367", "lat": -20.19534, "lng": -40.24882}, {"id": "69ea65b1ad6f44f2854e0c06", "name": "R. Érico Veríssimo, 58", "lat": -20.19581, "lng": -40.24887}, {"id": "69ea658dad6f44f2854dd1a9", "name": "R. Érico Veríssimo, 173", "lat": -20.19662, "lng": -40.24906}, {"id": "69ea6579ad6f44f2854dbb85", "name": "R. Luís Vaz de Camões, 55", "lat": -20.1957, "lng": -40.24955}, {"id": "69ea6558ad6f44f2854d61f8", "name": "Praça José de Alencar 2", "lat": -20.19682, "lng": -40.24964}, {"id": "69ea6543ad6f44f2854d448b", "name": "Praça José de Alencar 1", "lat": -20.19642, "lng": -40.24969}, {"id": "69ea6524ad6f44f2854d292e", "name": "R. Machado de Assis, 389", "lat": -20.19697, "lng": -40.25215}, {"id": "69ea64ffad6f44f2854ced8f", "name": "R. Afonso Arinos Melo Franco, 173", "lat": -20.19683, "lng": -40.25159}, {"id": "69ea64daad6f44f2854ccd4e", "name": "APAE-ES Res. Laranjeiras", "lat": -20.19676, "lng": -40.25091}, {"id": "69ea64c5ad6f44f2854c8fae", "name": "R. Afonso Arinos Melo Franco, 60", "lat": -20.19622, "lng": -40.25102}, {"id": "69ea64b3ad6f44f2854c5801", "name": "R. Machado de Assis, 175", "lat": -20.19578, "lng": -40.25114}, {"id": "69ea649ead6f44f2854c2c93", "name": "Tv. W Um, 60", "lat": -20.19564, "lng": -40.25138}, {"id": "69ea6483ad6f44f2854bf44a", "name": "R. Machado de Assis, 293", "lat": -20.19602, "lng": -40.25211}, {"id": "69ea6474ad6f44f2854bb999", "name": "Av. Segunda Avenida, 102", "lat": -20.19527, "lng": -40.25258}, {"id": "69ea6453ad6f44f2854b9c3f", "name": "Grupo Innovar", "lat": -20.19582, "lng": -40.25262}, {"id": "69ea40801a7ae509be1e50bf", "name": "Centro diagnósticos", "lat": -20.19565, "lng": -40.247484}, {"id": "69ea40801a7ae509be1e50be", "name": "Simoneto Veículos", "lat": -20.1959638, "lng": -40.2474254}, {"id": "69ea40801a7ae509be1e50bd", "name": "Serra design", "lat": -20.1965783, "lng": -40.2476466}, {"id": "69ea40801a7ae509be1e50bc", "name": "Sorvedoces", "lat": -20.1969933, "lng": -40.2478562}, {"id": "69ea40801a7ae509be1e50bb", "name": "Esquina Beleza Natural", "lat": -20.1971437, "lng": -40.2479219}, {"id": "69ea40801a7ae509be1e50ba", "name": "Barber shop", "lat": -20.1976862, "lng": -40.2483863}, {"id": "69ea40801a7ae509be1e50b9", "name": "Lojas Sipolatti", "lat": -20.1978807, "lng": -40.2491534}, {"id": "69ea40801a7ae509be1e50b8", "name": "Super Moda Calçados", "lat": -20.1981132, "lng": -40.2493519}, {"id": "69ea40801a7ae509be1e50b7", "name": "Colcholândia", "lat": -20.1981903, "lng": -40.249497}, {"id": "69ea40801a7ae509be1e50b6", "name": "Perto do quiosque das capas", "lat": -20.1986742, "lng": -40.2501109}, {"id": "69ea40801a7ae509be1e50b5", "name": "Mib calçados", "lat": -20.1989892, "lng": -40.2504459}, {"id": "69ea40801a7ae509be1e50b4", "name": "Privilege Colchões", "lat": -20.1992293, "lng": -40.2510148}, {"id": "69ea40801a7ae509be1e50b3", "name": "Tech Show", "lat": -20.1991579, "lng": -40.2511422}, {"id": "69ea40801a7ae509be1e50b2", "name": "Tv. X Um, 56-104 C", "lat": -20.2040343, "lng": -40.2552326}, {"id": "69ea40801a7ae509be1e50b1", "name": "Tv. X Um, 56-104", "lat": -20.2038638, "lng": -40.2549168}, {"id": "69ea40801a7ae509be1e50b0", "name": "R. Bethoven, 455-351", "lat": -20.2050645, "lng": -40.2543321}, {"id": "69ea40801a7ae509be1e50af", "name": "Dra. Thalita Rossmann", "lat": -20.2034538, "lng": -40.2523281}, {"id": "69ea40801a7ae509be1e50ae", "name": "R. Carlos Gomes, 772-774", "lat": -20.2035542, "lng": -40.2541292}, {"id": "69ea40801a7ae509be1e50ad", "name": "R. Liszt, 2-56", "lat": -20.2031669, "lng": -40.2539012}, {"id": "69ea40801a7ae509be1e50ac", "name": "R. Carlos Gomes, 358-418", "lat": -20.2028874, "lng": -40.2535988}, {"id": "69ea40801a7ae509be1e50ab", "name": "R. Verdi, 157-87 C", "lat": -20.2027219, "lng": -40.2550217}, {"id": "69ea40801a7ae509be1e50aa", "name": "R. Carlos Gomes, 897", "lat": -20.2024941, "lng": -40.2554133}, {"id": "69ea40801a7ae509be1e50a9", "name": "R. Verdi, 157-87", "lat": -20.2023774, "lng": -40.2547102}, {"id": "69ea40801a7ae509be1e50a8", "name": "R. Pitágoras, 389", "lat": -20.2010257, "lng": -40.2546988}, {"id": "69ea40801a7ae509be1e50a7", "name": "Banca Central", "lat": -20.200132, "lng": -40.2544189}, {"id": "69ea40801a7ae509be1e50a6", "name": "Loja Cristal Graffiti", "lat": -20.1994634, "lng": -40.2539364}, {"id": "69ea40801a7ae509be1e50a5", "name": "Perto vamos sorrir", "lat": -20.1994389, "lng": -40.2519161}, {"id": "69ea40801a7ae509be1e50a4", "name": "Frente a Farmácia Mônica", "lat": -20.1992875, "lng": -40.2519938}, {"id": "69ea40801a7ae509be1e50a3", "name": "Muntiscan", "lat": -20.198802, "lng": -40.2520669}, {"id": "69ea40801a7ae509be1e50a2", "name": "Vila Bella Res. Laranjeiras", "lat": -20.19887, "lng": -40.2521068}, {"id": "69ea40801a7ae509be1e50a1", "name": "Multiscan Res. Laranjeiras", "lat": -20.1985292, "lng": -40.2523452}, {"id": "69ea40801a7ae509be1e50a0", "name": "Em frente cirúrgica laranjeiras", "lat": -20.198487, "lng": -40.2522969}, {"id": "69ea40801a7ae509be1e509f", "name": "Churrascaria Camarote", "lat": -20.1978983, "lng": -40.2523764}, {"id": "69ea40801a7ae509be1e509e", "name": "Camarote Self Service", "lat": -20.1978039, "lng": -40.2525876}, {"id": "69ea40801a7ae509be1e509d", "name": "Four Wine Empório e Adega", "lat": -20.1977391, "lng": -40.2529987}, {"id": "69ea40801a7ae509be1e509c", "name": "R. Olégario Mariano, 2-50", "lat": -20.1982967, "lng": -40.2538053}, {"id": "69ea40801a7ae509be1e509b", "name": "Ginásio Poliesportivo", "lat": -20.1977353, "lng": -40.2537949}, {"id": "69ea40801a7ae509be1e509a", "name": "Em frente a Festa dos Sonhos", "lat": -20.1967101, "lng": -40.2528052}, {"id": "69ea40801a7ae509be1e5099", "name": "Parque Laranjeiras", "lat": -20.1963042, "lng": -40.2527965}, {"id": "69ea40801a7ae509be1e5098", "name": "Frente ao Subway", "lat": -20.1965141, "lng": -40.253694}, {"id": "69ea40801a7ae509be1e5097", "name": "Mega Áudio Variedades", "lat": -20.1983911, "lng": -40.2545389}, {"id": "69ea40801a7ae509be1e5096", "name": "Frente a loja jheny", "lat": -20.1989483, "lng": -40.2548598}, {"id": "69ea40801a7ae509be1e5095", "name": "Cross Dare", "lat": -20.2005414, "lng": -40.2558076}, {"id": "69ea40801a7ae509be1e5094", "name": "Praça Laranjeiras 3", "lat": -20.1999241, "lng": -40.2555843}, {"id": "69ea40801a7ae509be1e5093", "name": "Praça de Laranjeiras 2", "lat": -20.1998778, "lng": -40.2550331}, {"id": "69b55845d87bbb3b0e050136", "name": "Praça Principal", "lat": -20.1550016, "lng": -40.1848347}, {"id": "69b30204025e94e21d3928ba", "name": "Colégio Adventista Laranjeiras", "lat": -20.2002274, "lng": -40.2224983}, {"id": "69b2b120882eb5b4564d6070", "name": "Shopping Montserrat", "lat": -20.19349, "lng": -40.26603}, {"id": "69af6b1b1261f22f33d02ebe", "name": "Casa do Construtor Serra", "lat": -20.19792, "lng": -40.26907}, {"id": "69af6b1b1261f22f33d02ebd", "name": "Bremenkamp Serra", "lat": -20.19766, "lng": -40.26909}, {"id": "69af6b1b1261f22f33d02ebc", "name": "Viplast", "lat": -20.19691, "lng": -40.26912}, {"id": "69af6b1b1261f22f33d02ebb", "name": "Av. Pres. Castelo Branco, 3338", "lat": -20.19583, "lng": -40.2691}, {"id": "69af6b1b1261f22f33d02eba", "name": "Av. Pres. Castelo Branco, 3901", "lat": -20.19424, "lng": -40.2689}, {"id": "69af6b1b1261f22f33d02eb9", "name": "Rede C&D Construir e Decorar", "lat": -20.19547, "lng": -40.26842}, {"id": "69af6b1b1261f22f33d02eb8", "name": "Assaí Atacadista 1", "lat": -20.19698, "lng": -40.26847}, {"id": "69af6b1b1261f22f33d02eb7", "name": "Assaí Atacadista 2", "lat": -20.19793, "lng": -40.26853}, {"id": "69af6b1b1261f22f33d02eb6", "name": "Vitoriawagen Serra", "lat": -20.19841, "lng": -40.26857}, {"id": "69af6b1b1261f22f33d02eb5", "name": "AtacaPet", "lat": -20.19887, "lng": -40.2686}, {"id": "69af6b1b1261f22f33d02eb4", "name": "Av. Iriri, 575", "lat": -20.19699, "lng": -40.26718}, {"id": "69af6b1b1261f22f33d02eb3", "name": "Dream Park Residencial", "lat": -20.19736, "lng": -40.26575}, {"id": "69af6b1b1261f22f33d02eb2", "name": "Av. Iriri, 325", "lat": -20.19752, "lng": -40.26503}, {"id": "69af6b1b1261f22f33d02eb1", "name": "R. Marataízes, 22", "lat": -20.19933, "lng": -40.26509}, {"id": "69af6b1b1261f22f33d02eb0", "name": "Bom De Garfo", "lat": -20.20028, "lng": -40.26525}, {"id": "69af6b1b1261f22f33d02eaf", "name": "R. Santa Cruz, 2", "lat": -20.19965, "lng": -40.26445}, {"id": "69af6b1b1261f22f33d02eae", "name": "R. Nova Almeida, 2", "lat": -20.19968, "lng": -40.26401}, {"id": "69af6b1b1261f22f33d02ead", "name": "R. Jacaraípe, 1", "lat": -20.19967, "lng": -40.26342}, {"id": "69af6b1b1261f22f33d02eac", "name": "R. Manguinhos, 1", "lat": -20.19972, "lng": -40.263}, {"id": "69af6b1b1261f22f33d02eab", "name": "R. Itapoã, 38", "lat": -20.19978, "lng": -40.26241}, {"id": "69af6b1b1261f22f33d02eaa", "name": "R. Setiba, 35", "lat": -20.19983, "lng": -40.26192}, {"id": "69af6b1b1261f22f33d02ea9", "name": "ABC Universidade Infantil", "lat": -20.2013, "lng": -40.2619}, {"id": "69af6b1b1261f22f33d02ea8", "name": "Residencial Valparaiso da Serra 1", "lat": -20.20308, "lng": -40.26288}, {"id": "69af6b1b1261f22f33d02ea7", "name": "Residencial Mestre Álvaro", "lat": -20.20344, "lng": -40.26312}, {"id": "69af6b1b1261f22f33d02ea6", "name": "Pacífico Residencial Clube", "lat": -20.20077, "lng": -40.2651}, {"id": "69af6b1b1261f22f33d02ea5", "name": "R. Anchieta, 255", "lat": -20.20116, "lng": -40.26463}, {"id": "69af6b1b1261f22f33d02ea4", "name": "R. Nova Almeida, 216", "lat": -20.20142, "lng": -40.26414}, {"id": "69af6b1b1261f22f33d02ea3", "name": "R. Jacaraípe, 2", "lat": -20.20162, "lng": -40.26358}, {"id": "69af6b1b1261f22f33d02ea2", "name": "R. Anchieta, 83", "lat": -20.20171, "lng": -40.26296}, {"id": "69a9861dca1cccd435dc3c8d", "name": "Extrabom Supermercado Res. Laranjeiras", "lat": -20.1981315, "lng": -40.2611465}, {"id": "69a98601ca1cccd435dc2001", "name": "Supermercado Carone Res. Laranjeiras", "lat": -20.193567, "lng": -40.2650143}, {"id": "69a985cbca1cccd435dbd8a5", "name": "Due Pizza & Esfiha", "lat": -20.1946928, "lng": -40.2589679}, {"id": "69a9858fca1cccd435dbcd9f", "name": "Atacado Vem Res. Laranjeiras", "lat": -20.1928435, "lng": -40.268879}, {"id": "69a98568ca1cccd435dbbc0e", "name": "Supermercado BH 3", "lat": -20.1922164, "lng": -40.2682742}, {"id": "69a9853dca1cccd435dbb516", "name": "Montserrat Sá Cavalcante", "lat": -20.1928181, "lng": -40.2657304}, {"id": "69a9850bca1cccd435db3bc1", "name": "BH Supermercado  2", "lat": -20.1937721, "lng": -40.2683117}, {"id": "69a984eeca1cccd435db0ac2", "name": "Supermercado BH 1", "lat": -20.1933983, "lng": -40.2675094}, {"id": "69a984cdca1cccd435da6295", "name": "Essencial Escritórios", "lat": -20.1934672, "lng": -40.2667051}, {"id": "69a98473ca1cccd435d9961e", "name": "Av. Eldes Scherrer Souza, 390-420", "lat": -20.1939219, "lng": -40.2659249}, {"id": "69a98458ca1cccd435d92cf8", "name": "Morar Res. Laranjeiras", "lat": -20.1941028, "lng": -40.2654656}, {"id": "69a98439ca1cccd435d903f2", "name": "Unin Neurodiversidade", "lat": -20.1939981, "lng": -40.2648822}, {"id": "69a9841eca1cccd435d8e59f", "name": "Muro Azul Pichado", "lat": -20.1940522, "lng": -40.2645047}, {"id": "69a983faca1cccd435d8cf6a", "name": "Loja Preço Baixo", "lat": -20.1938388, "lng": -40.2639015}, {"id": "69a983c5ca1cccd435d8c057", "name": "Supermercado BH Atacado Res. Laranjeiras", "lat": -20.1941211, "lng": -40.263129}, {"id": "69a9837aca1cccd435d8332e", "name": "BH Atacado e Varejo I", "lat": -20.1941412, "lng": -40.2626566}, {"id": "69a98351ca1cccd435d8046c", "name": "Flor de Lótus", "lat": -20.1943105, "lng": -40.2623374}, {"id": "69a98336ca1cccd435d7f7b3", "name": "Bar do Avilino", "lat": -20.1938058, "lng": -40.261801}, {"id": "69a98319ca1cccd435d7ea9e", "name": "Ponto de ônibus", "lat": -20.1939228, "lng": -40.2605823}, {"id": "69a982ffca1cccd435d7dfdd", "name": "Condomínio Países", "lat": -20.1943819, "lng": -40.2600026}, {"id": "69a982e5ca1cccd435d7a607", "name": "Rua Sem Saída", "lat": -20.1947866, "lng": -40.2625926}, {"id": "69a982c9ca1cccd435d76b31", "name": "Alameda das Violetas", "lat": -20.1949241, "lng": -40.2611133}, {"id": "69a982acca1cccd435d72ced", "name": "Residencial Costa do Marfim", "lat": -20.1957312, "lng": -40.2618808}, {"id": "69a9828eca1cccd435d721e3", "name": "Av. Piuma, Sn", "lat": -20.1957573, "lng": -40.2626057}, {"id": "69a9825eca1cccd435d6e460", "name": "Av. Piuma, 180-266", "lat": -20.1963533, "lng": -40.2626228}, {"id": "69a981c7ca1cccd435d64373", "name": "Condomínio Valparaíso II Varandinhas 2", "lat": -20.1965276, "lng": -40.2610403}, {"id": "69a981aec73f753ea5f5aa91", "name": "Av. Piuma, 372-404", "lat": -20.1977941, "lng": -40.2628561}, {"id": "69a9818d7c294dc8130fb0dd", "name": "Paradiso Condomínio Clube", "lat": -20.1985726, "lng": -40.2612786}, {"id": "69a981692f52169dc0200594", "name": "Cia do Pastel", "lat": -20.1982561, "lng": -40.2610165}, {"id": "69a981492f52169dc0200054", "name": "TechMund Eletrônicos", "lat": -20.1980383, "lng": -40.2606637}, {"id": "69a9812a2f52169dc01ff7fa", "name": "Valparaiso Stadium", "lat": -20.1975368, "lng": -40.2602929}, {"id": "69a9810e2f52169dc01ff1a8", "name": "Condomínio Valparaíso II VarandinhasCondomínio Valparaíso II Varandinhas", "lat": -20.1966837, "lng": -40.2602074}, {"id": "69a980872f52169dc01eb4eb", "name": "CMEI NILDA VANETTE", "lat": -20.1967048, "lng": -40.2598081}, {"id": "69a9806d2f52169dc01e2f4e", "name": "R. Guriri, 5-102", "lat": -20.1975163, "lng": -40.259796}, {"id": "69a980452f52169dc01d6a9a", "name": "The Best Açaí Res. Laranjeiras", "lat": -20.1960298, "lng": -40.2591899}, {"id": "69a980242f52169dc01cd05d", "name": "Kaiu do céu", "lat": -20.1951872, "lng": -40.2590457}, {"id": "69a97f812f52169dc01c041b", "name": "Pizzaria Serrana", "lat": -20.1940412, "lng": -40.2588975}, {"id": "69a97f4e2f52169dc01b4aec", "name": "Burger king", "lat": -20.1940591, "lng": -40.257833}, {"id": "69a0fb3575238cebaecc0727", "name": "Bar do Paulo", "lat": -20.13082, "lng": -40.18243}, {"id": "69a0fb3575238cebaecc0726", "name": "R. Guaicurus, 173", "lat": -20.13085, "lng": -40.18268}, {"id": "69a0fb3575238cebaecc0725", "name": "R. Guaicurus, 233", "lat": -20.13069, "lng": -40.18319}, {"id": "69a0fb3575238cebaecc0724", "name": "R. Nossa Sra. da Conceição, 687", "lat": -20.13049, "lng": -40.18387}, {"id": "69a0fb3575238cebaecc0723", "name": "R. Santa Maria, 1500", "lat": -20.13025, "lng": -40.18463}, {"id": "69a0fb3575238cebaecc0722", "name": "R. São Pedro, 706", "lat": -20.12987, "lng": -40.18528}, {"id": "69a0fb3575238cebaecc0721", "name": "R. Guaicurus, 551", "lat": -20.12969, "lng": -40.18589}, {"id": "69a0fb3575238cebaecc0720", "name": "R. São José, 668", "lat": -20.12939, "lng": -40.18669}, {"id": "69a0fb3575238cebaecc071f", "name": "R. Guaicurus, 725", "lat": -20.12923, "lng": -40.1877}, {"id": "69a0fb3575238cebaecc071e", "name": "R. São Lucas, 202", "lat": -20.12908, "lng": -40.18827}, {"id": "69a0fb3575238cebaecc071d", "name": "R. Santa Lúcia, 1518", "lat": -20.12879, "lng": -40.18917}, {"id": "69a0fb3575238cebaecc071c", "name": "Willian Celulares", "lat": -20.12857, "lng": -40.18977}, {"id": "69a0fb3575238cebaecc071b", "name": "R. Santa Cecília, 779", "lat": -20.12831, "lng": -40.19069}, {"id": "69a0fb3575238cebaecc071a", "name": "R. Caiçaras, 1658", "lat": -20.12913, "lng": -40.19223}, {"id": "69a0fb3575238cebaecc0719", "name": "R. Todos Os Santos, 697", "lat": -20.12932, "lng": -40.19182}, {"id": "69a0fb3575238cebaecc0718", "name": "Barbearia Maia", "lat": -20.12937, "lng": -40.19132}, {"id": "69a0fb3575238cebaecc0717", "name": "R. Caiçaras, 1774", "lat": -20.12946, "lng": -40.19106}, {"id": "69a0fb3575238cebaecc0716", "name": "R. Caiçaras, 1860", "lat": -20.12972, "lng": -40.19016}, {"id": "69a0fb3575238cebaecc0715", "name": "R. Caiçaras, 1940", "lat": -20.12993, "lng": -40.18943}, {"id": "69a0fb3575238cebaecc0714", "name": "R. São Lucas, 258", "lat": -20.13002, "lng": -40.18874}, {"id": "69a0fb3575238cebaecc0713", "name": "R. Caiçaras, 2104", "lat": -20.13043, "lng": -40.18793}, {"id": "69a0fb3575238cebaecc0712", "name": "R. Caiçaras, 2190", "lat": -20.13058, "lng": -40.1871}, {"id": "69a0fb3575238cebaecc0711", "name": "R. Caiçaras, 2272", "lat": -20.13089, "lng": -40.18651}, {"id": "69a0fb3575238cebaecc0710", "name": "R. São Pedro, 514", "lat": -20.13121, "lng": -40.18561}, {"id": "69a0fb3575238cebaecc070f", "name": "R. Caiçaras, 2434", "lat": -20.13139, "lng": -40.18507}, {"id": "69a0fb3575238cebaecc070e", "name": "R. Nossa Sra. da Conceição, 598", "lat": -20.13154, "lng": -40.18413}, {"id": "69a0fb3575238cebaecc070d", "name": "R. João Germano de Melo, 1129", "lat": -20.13187, "lng": -40.18346}, {"id": "69a0fb3575238cebaecc070c", "name": "R. Caiçaras, 2640", "lat": -20.13198, "lng": -40.18318}, {"id": "69a0fb3575238cebaecc070b", "name": "MAR VAN", "lat": -20.13211, "lng": -40.18297}, {"id": "69a0fb3575238cebaecc070a", "name": "Av. Guaianazes, 183", "lat": -20.1334, "lng": -40.18351}, {"id": "69a0fb3575238cebaecc0709", "name": "Av. Abido Saad, 2543", "lat": -20.13315, "lng": -40.1837}, {"id": "69a0fb3575238cebaecc0708", "name": "R. João Germano de Melo, 1063", "lat": -20.13321, "lng": -40.18409}, {"id": "69a0fb3575238cebaecc0707", "name": "R. Nossa Sra. da Conceição, 395", "lat": -20.13308, "lng": -40.18462}, {"id": "69a0fb3575238cebaecc0706", "name": "Av. Guaianazes, 394", "lat": -20.13253, "lng": -40.18544}, {"id": "69a0fb3575238cebaecc0705", "name": "Av. Guaianazes, 463", "lat": -20.13249, "lng": -40.18629}, {"id": "69a0fb3575238cebaecc0704", "name": "R. Santa Rita, 1161", "lat": -20.1323, "lng": -40.18704}, {"id": "69a0fb3575238cebaecc0703", "name": "R. São José, 632", "lat": -20.13201, "lng": -40.1878}, {"id": "69a0fb3575238cebaecc0702", "name": "R. São Lucas, 262", "lat": -20.1313, "lng": -40.1892}, {"id": "69a0fb3575238cebaecc0701", "name": "R. Santa Lúcia, 1225", "lat": -20.1313, "lng": -40.1899}, {"id": "69a0fb3575238cebaecc0700", "name": "R. Santa Lúcia, 1071", "lat": -20.13253, "lng": -40.19041}, {"id": "69a0fb3575238cebaecc06ff", "name": "R. Timbiras, 837", "lat": -20.13328, "lng": -40.18812}, {"id": "69a0fb3575238cebaecc06fe", "name": "R. Santa Rita, 1009", "lat": -20.13341, "lng": -40.18732}, {"id": "69a0fb3575238cebaecc06fd", "name": "R. São Pedro, 270", "lat": -20.13382, "lng": -40.18665}, {"id": "69a0fb3575238cebaecc06fc", "name": "R. Santa Maria, 1198", "lat": -20.134, "lng": -40.18594}, {"id": "69a0fb3575238cebaecc06fb", "name": "R. Nossa Sra. da Conceição, 330", "lat": -20.13415, "lng": -40.18506}, {"id": "69a0fb3575238cebaecc06fa", "name": "R. João Germano de Melo, 897", "lat": -20.13446, "lng": -40.18455}, {"id": "69a0fb3575238cebaecc06f9", "name": "Totalmaq", "lat": -20.13454, "lng": -40.18385}, {"id": "69a0fb3575238cebaecc06f8", "name": "Açaí Power", "lat": -20.13472, "lng": -40.1836}, {"id": "69a0fb3575238cebaecc06f7", "name": "R. João Julião, 1", "lat": -20.13687, "lng": -40.18468}, {"id": "69a0fb3575238cebaecc06f6", "name": "Pacheco Jacaraipe", "lat": -20.13587, "lng": -40.18363}, {"id": "69a0fb3575238cebaecc06f5", "name": "Cibien Jacaraipe", "lat": -20.13593, "lng": -40.1839}, {"id": "69a0fb3575238cebaecc06f4", "name": "R. Carijós, 214", "lat": -20.13574, "lng": -40.1843}, {"id": "69a0fb3575238cebaecc06f3", "name": "R. João Germano de Melo, 805", "lat": -20.13549, "lng": -40.18481}, {"id": "69a0fb3575238cebaecc06f2", "name": "R. Nossa Sra. da Conceição, 162", "lat": -20.13526, "lng": -40.18557}, {"id": "69a0fb3575238cebaecc06f1", "name": "R. Carijós, 421", "lat": -20.13516, "lng": -40.18624}, {"id": "69a0fb3575238cebaecc06f0", "name": "R. Carijós, 505", "lat": -20.13481, "lng": -40.18698}, {"id": "69a0fb3575238cebaecc06ef", "name": "R. Carijós, 583", "lat": -20.1347, "lng": -40.18777}, {"id": "69a0fb3575238cebaecc06ee", "name": "R. São José, 86", "lat": -20.1344, "lng": -40.18867}, {"id": "69a0fb3575238cebaecc06ed", "name": "R. Santa Luzia, 739", "lat": -20.13401, "lng": -40.18936}, {"id": "69a0fb3575238cebaecc06ec", "name": "R. Carijós, 807", "lat": -20.13377, "lng": -40.19017}, {"id": "69a0fb3575238cebaecc06eb", "name": "R. Carijós, 811", "lat": -20.13353, "lng": -40.1908}, {"id": "69a0fb3575238cebaecc06ea", "name": "R. Carijós, 817", "lat": -20.1333, "lng": -40.19152}, {"id": "69a0fb3575238cebaecc06e9", "name": "R. Carijós, 831", "lat": -20.13312, "lng": -40.1925}, {"id": "69a0fb3575238cebaecc06e8", "name": "R. Todos Os Santos, 257", "lat": -20.13277, "lng": -40.19315}, {"id": "69a0fb3575238cebaecc06e7", "name": "Av. Todos Os Santos, 275", "lat": -20.13254, "lng": -40.19381}, {"id": "69a09a03da54acdce9dd6d1a", "name": "Pet Tio Lucas", "lat": -20.14153, "lng": -40.18403}, {"id": "69a09a03da54acdce9dd6d19", "name": "R. Tupã, 12", "lat": -20.14149, "lng": -40.18428}, {"id": "69a09a03da54acdce9dd6d18", "name": "R. Tupã. 359", "lat": -20.14132, "lng": -40.18556}, {"id": "69a09a03da54acdce9dd6d17", "name": "R. Santa Maria, 34", "lat": -20.14126, "lng": -40.18704}, {"id": "69a09a03da54acdce9dd6d16", "name": "R. Diacui, 500", "lat": -20.14205, "lng": -40.18693}, {"id": "69a09a03da54acdce9dd6d15", "name": "R. Diacui, 300", "lat": -20.14197, "lng": -40.18558}, {"id": "69a09a03da54acdce9dd6d14", "name": "R. Alagoas, 281", "lat": -20.14272, "lng": -40.18606}, {"id": "69a09a03da54acdce9dd6d13", "name": "R. Santa Maria, 8", "lat": -20.14239, "lng": -40.18706}, {"id": "69a09a03da54acdce9dd6d12", "name": "R. Jequié, 287", "lat": -20.1427, "lng": -40.18547}, {"id": "69a09a03da54acdce9dd6d11", "name": "Muito Mais Atacado Jacaraipe", "lat": -20.14346, "lng": -40.18482}, {"id": "69a09a03da54acdce9dd6d10", "name": "R. Bahia, 301", "lat": -20.14313, "lng": -40.18629}, {"id": "69a09a03da54acdce9dd6d0f", "name": "R. Minas Gerais, 278", "lat": -20.14282, "lng": -40.18764}, {"id": "69a09a03da54acdce9dd6d0e", "name": "R. Bahia, 662", "lat": -20.14237, "lng": -40.18905}, {"id": "69a09a03da54acdce9dd6d0d", "name": "R. Santa Catarina, 428", "lat": -20.14333, "lng": -40.18771}, {"id": "69a09a03da54acdce9dd6d0c", "name": "R. Espírito Santo, 344", "lat": -20.14375, "lng": -40.18633}, {"id": "69a09a03da54acdce9dd6d0b", "name": "R. Espírito Santo, 276", "lat": -20.14425, "lng": -40.18643}, {"id": "69a09a03da54acdce9dd6d0a", "name": "R. Minas Gerais, 143", "lat": -20.14389, "lng": -40.188}, {"id": "69a09a03da54acdce9dd6d09", "name": "R. Mato Grosso, 623", "lat": -20.14383, "lng": -40.18915}, {"id": "69a09a03da54acdce9dd6d08", "name": "R. Pará, 467", "lat": -20.14454, "lng": -40.18818}, {"id": "69a09a03da54acdce9dd6d07", "name": "R. Espírito Santo, 216", "lat": -20.14489, "lng": -40.18662}, {"id": "69a09a03da54acdce9dd6d06", "name": "R. Marília Rezende Coutinho, 303", "lat": -20.14559, "lng": -40.18692}, {"id": "69a09a03da54acdce9dd6d05", "name": "R. Marília Rezende Coutinho, 17", "lat": -20.14493, "lng": -40.18935}, {"id": "69a09a03da54acdce9dd6d04", "name": "R. Paraná, 139", "lat": -20.14581, "lng": -40.18834}, {"id": "69a09a03da54acdce9dd6d03", "name": "R. Pernambuco, 308", "lat": -20.14609, "lng": -40.18694}, {"id": "69a09a03da54acdce9dd6d02", "name": "R. Espírito Santo, 71", "lat": -20.14667, "lng": -40.1872}, {"id": "69a09a03da54acdce9dd6d01", "name": "R. Paraná, 93", "lat": -20.14633, "lng": -40.1885}, {"id": "69a09a03da54acdce9dd6d00", "name": "R. Maranhão, 479", "lat": -20.14705, "lng": -40.18888}, {"id": "69a09a03da54acdce9dd6cff", "name": "R. Maranhão, 295", "lat": -20.14744, "lng": -40.18728}, {"id": "69a09a03da54acdce9dd6cfe", "name": "R. Belo Horizonte, 720", "lat": -20.14769, "lng": -40.18747}, {"id": "69a09a03da54acdce9dd6cfd", "name": "R. Salvador, 72", "lat": -20.1477, "lng": -40.18896}, {"id": "69a09a03da54acdce9dd6cfc", "name": "R. Salvador, 140", "lat": -20.14817, "lng": -40.18897}, {"id": "69a09a03da54acdce9dd6cfb", "name": "R. São Paulo, 340", "lat": -20.14838, "lng": -40.18773}, {"id": "69a09a03da54acdce9dd6cfa", "name": "R. Turqueza, 96", "lat": -20.15071, "lng": -40.19593}, {"id": "69a09a03da54acdce9dd6cf9", "name": "R. Turmalina, 209", "lat": -20.15085, "lng": -40.19606}, {"id": "69a09a03da54acdce9dd6cf8", "name": "Av. Safira, 91", "lat": -20.1514, "lng": -40.19568}, {"id": "69a09a03da54acdce9dd6cf7", "name": "R. Turmalina, Sn", "lat": -20.15131, "lng": -40.19558}, {"id": "69a09a03da54acdce9dd6cf6", "name": "R. Esmeralda, 258", "lat": -20.15167, "lng": -40.19516}, {"id": "69a09a03da54acdce9dd6cf5", "name": "R. Granada, 181", "lat": -20.15214, "lng": -40.19484}, {"id": "69a09a03da54acdce9dd6cf4", "name": "R. Rio Branco, 799", "lat": -20.15346, "lng": -40.19228}, {"id": "69a09a03da54acdce9dd6cf3", "name": "R. Rio Branco, 625", "lat": -20.15354, "lng": -40.19078}, {"id": "699afc2ad753831f2d2eadf6", "name": "Mirante", "lat": -20.156827, "lng": -40.190024}, {"id": "699afb14d753831f2d2cc90e", "name": "Jacaraipe clube", "lat": -20.157545, "lng": -40.188592}, {"id": "699a073b310167b85cb60387", "name": "TERNO", "lat": -20.1971415, "lng": -40.2553342}, {"id": "699a073b310167b85cb60386", "name": "Santa Lúcia Res. Laranjeiras", "lat": -20.197331, "lng": -40.2556889}, {"id": "699a073b310167b85cb60385", "name": "Será que tem", "lat": -20.1971513, "lng": -40.2560537}, {"id": "699a073b310167b85cb60384", "name": "Salada Mista Self Service", "lat": -20.1976488, "lng": -40.256397}, {"id": "699a073b310167b85cb60383", "name": "R. Guilherme de Almeida, 197-137", "lat": -20.1973555, "lng": -40.2567447}, {"id": "699a073b310167b85cb60382", "name": "Floricultura Primavera Flores", "lat": -20.1973395, "lng": -40.2577566}, {"id": "699a073b310167b85cb60381", "name": "CMEI Luciano de Souza Rangel", "lat": -20.1967825, "lng": -40.2574179}, {"id": "699a073b310167b85cb60380", "name": "Butique Bella", "lat": -20.1957797, "lng": -40.2579674}, {"id": "699a073b310167b85cb6037f", "name": "Impacto Prime 2", "lat": -20.1987044, "lng": -40.2563799}, {"id": "699a073b310167b85cb6037e", "name": "Condomínio Reserva Verde 1", "lat": -20.2012358, "lng": -40.2577351}, {"id": "699a073b310167b85cb6037d", "name": "Bar do Magrão", "lat": -20.2020347, "lng": -40.2620685}, {"id": "699a073b310167b85cb6037c", "name": "Natural Pet", "lat": -20.1986601, "lng": -40.2567105}, {"id": "699a073b310167b85cb6037b", "name": "Lima Film Som e Acessórios", "lat": -20.198161, "lng": -40.2575517}, {"id": "699a073b310167b85cb60379", "name": "Despachante", "lat": -20.1980915, "lng": -40.2579054}, {"id": "699a073b310167b85cb60378", "name": "Due Pizza & Esfiha", "lat": -20.1986632, "lng": -40.2581985}, {"id": "699a073b310167b85cb60377", "name": "R. Lineu, 2-58", "lat": -20.1984411, "lng": -40.2586236}, {"id": "699a073b310167b85cb60376", "name": "PIBLar", "lat": -20.1981931, "lng": -40.2590953}, {"id": "699a073b310167b85cb60375", "name": "Soft Clean Lavanderia", "lat": -20.197706, "lng": -40.2593458}, {"id": "699a073b310167b85cb60374", "name": "R. Guriri, 104-200", "lat": -20.1981872, "lng": -40.259897}, {"id": "699a073b310167b85cb60373", "name": "A.R.L.S Os Confidentes 42", "lat": -20.1984829, "lng": -40.2600328}, {"id": "699a073b310167b85cb60372", "name": "Era do Gelo Conveniência/ Distribuidora", "lat": -20.1987186, "lng": -40.2603439}, {"id": "699a073b310167b85cb60371", "name": "Parquinho", "lat": -20.1990333, "lng": -40.260427}, {"id": "699a073b310167b85cb60370", "name": "Entrada Parque da Cidade 3", "lat": -20.1997214, "lng": -40.2607647}, {"id": "699a073b310167b85cb6036f", "name": "Parque da Cidade 5", "lat": -20.2007472, "lng": -40.2595443}, {"id": "699a073b310167b85cb6036e", "name": "Parque da cidade 4", "lat": -20.2015058, "lng": -40.2605789}, {"id": "699a073b310167b85cb6036d", "name": "Parque da Cidade 3", "lat": -20.2017456, "lng": -40.2605749}, {"id": "699a073b310167b85cb6036c", "name": "Parque da cidade 2", "lat": -20.2025171, "lng": -40.260647}, {"id": "699a073b310167b85cb6036a", "name": "Parque da cidade", "lat": -20.2028988, "lng": -40.2608431}, {"id": "699a073b310167b85cb60369", "name": "Entrada Parque da Cidade 2", "lat": -20.2034409, "lng": -40.2603848}, {"id": "699a073b310167b85cb60368", "name": "Condomínio Reserva Bosque dos Ipês", "lat": -20.2046092, "lng": -40.257894}, {"id": "699a073b310167b85cb60367", "name": "Condomínio Reserva do Parque", "lat": -20.204971, "lng": -40.2589753}, {"id": "699a073b310167b85cb60366", "name": "R. Anchieta", "lat": -20.2039875, "lng": -40.259331}, {"id": "699a073b310167b85cb60365", "name": "Condomínio aldeia dos marabas", "lat": -20.203248, "lng": -40.2590326}, {"id": "699a073b310167b85cb60364", "name": "Condomínio verde", "lat": -20.2017594, "lng": -40.2582531}, {"id": "699a073b310167b85cb60363", "name": "Condomínio Caiobás", "lat": -20.2011525, "lng": -40.257892}, {"id": "699a073b310167b85cb60362", "name": "Entrada Parque da Cidade 2", "lat": -20.2004753, "lng": -40.2575215}, {"id": "699a073b310167b85cb60361", "name": "R. Santos Dumont, 120-520", "lat": -20.1996988, "lng": -40.256963}, {"id": "699a073b310167b85cb60360", "name": "R. Pitágoras, 136-254", "lat": -20.199532, "lng": -40.2561234}, {"id": "699a073b310167b85cb6035f", "name": "Uniter Res. Laranjeiras", "lat": -20.1990493, "lng": -40.256172}, {"id": "699a073b310167b85cb6035e", "name": "Praça de Laranjeiras 1", "lat": -20.1991774, "lng": -40.2554961}, {"id": "699a073b310167b85cb6035d", "name": "Óticas Diniz", "lat": -20.1986292, "lng": -40.2553282}, {"id": "699a073b310167b85cb6035c", "name": "Banesfácil Praça", "lat": -20.1976453, "lng": -40.2554264}, {"id": "699a073b310167b85cb6035b", "name": "Loja móveis simonetti", "lat": -20.1982038, "lng": -40.2559605}, {"id": "699a073b310167b85cb6035a", "name": "Lojas Maresia", "lat": -20.1980276, "lng": -40.2564741}, {"id": "699a073b310167b85cb60359", "name": "Lojas Prenda sport", "lat": -20.1978284, "lng": -40.2573043}, {"id": "699a073b310167b85cb60358", "name": "Ótica gama", "lat": -20.1976768, "lng": -40.2574213}, {"id": "699a073b310167b85cb60357", "name": "Centro Educacional Infantil Mundo do Saber", "lat": -20.1976381, "lng": -40.2584653}, {"id": "699a073b310167b85cb60356", "name": "R. Santos Dumont, 17", "lat": -20.19724, "lng": -40.2591691}, {"id": "699a073b310167b85cb60355", "name": "Bom D+", "lat": -20.1966444, "lng": -40.2592573}, {"id": "699a073b310167b85cb60354", "name": "G.SO Mobiliária e Participações", "lat": -20.1965619, "lng": -40.2587352}, {"id": "699a073b310167b85cb60353", "name": "Ivtec", "lat": -20.1964823, "lng": -40.2580177}, {"id": "699a073b310167b85cb60352", "name": "Vitally - Clínica de Estética em Laranjeiras", "lat": -20.1964786, "lng": -40.256561}, {"id": "699a073b310167b85cb60351", "name": "Fernanda Nail Design Capish", "lat": -20.1966013, "lng": -40.2560074}, {"id": "699a073b310167b85cb60350", "name": "Shopping Laranjeiras", "lat": -20.1966006, "lng": -40.254605}, {"id": "699a073b310167b85cb6034f", "name": "Base Guarda", "lat": -20.1964115, "lng": -40.2551377}, {"id": "699a073b310167b85cb6034e", "name": "Praça da Luz 1", "lat": -20.1958801, "lng": -40.2552819}, {"id": "699a073b310167b85cb6034d", "name": "Casa Nova Restaurante", "lat": -20.1957168, "lng": -40.2554646}, {"id": "699a073b310167b85cb6034c", "name": "Centro Empresarial Serra", "lat": -20.1956299, "lng": -40.2548514}, {"id": "699a073b310167b85cb6034a", "name": "R. Casimiro de Abreu", "lat": -20.1958115, "lng": -40.2561509}, {"id": "699a073b310167b85cb60349", "name": "Auto escola Mestre Álvaro", "lat": -20.1953373, "lng": -40.2568909}, {"id": "699a073b310167b85cb60348", "name": "Não + pelo", "lat": -20.1953508, "lng": -40.2579695}, {"id": "699a073b310167b85cb60347", "name": "Restaurante appetito", "lat": -20.1947504, "lng": -40.2577784}, {"id": "699a073b310167b85cb60346", "name": "Restaurante appettit", "lat": -20.1946302, "lng": -40.2578501}, {"id": "699a073b310167b85cb60345", "name": "Fração Tintas", "lat": -20.194819, "lng": -40.2568208}, {"id": "699a073b310167b85cb60344", "name": "Insulfilm Ar Condicionado", "lat": -20.1946642, "lng": -40.2567239}, {"id": "699a073b310167b85cb60343", "name": "São Bento Artigos Católicos", "lat": -20.1946718, "lng": -40.2562274}, {"id": "699a073b310167b85cb60342", "name": "Cartório Laranjeiras", "lat": -20.1941393, "lng": -40.2569271}, {"id": "699a073b310167b85cb60341", "name": "Em frente ao terminal de laranjeiras", "lat": -20.1946249, "lng": -40.2553}, {"id": "699469cbbb7491f878c0641d", "name": "Juara Park", "lat": -20.14291227639283, "lng": -40.18914694828732}, {"id": "69946908bb7491f878bfe0d0", "name": "Olica Missionaria", "lat": -20.133003289975317, "lng": -40.18893961065238}, {"id": "699468e1bb7491f878bfd6d0", "name": "Timbiras", "lat": -20.132749328466975, "lng": -40.189735908439204}, {"id": "699468b9bb7491f878bfcdfd", "name": "Santa LUzia", "lat": -20.131646302163293, "lng": -40.18845150281837}, {"id": "6994684abb7491f878bf9b11", "name": "Guarani", "lat": -20.126885419973586, "lng": -40.18246752369437}, {"id": "69946829bb7491f878bf49bd", "name": "Sao Jose", "lat": -20.125957645383654, "lng": -40.18544385974672}, {"id": "699467eabb7491f878beb268", "name": "SAnta Mariana", "lat": -20.123991858449216, "lng": -40.18194226592471}, {"id": "699467a6bb7491f878bdf520", "name": "Sao Cristovao", "lat": -20.124515857013293, "lng": -40.18060520835935}, {"id": "69946778bb7491f878bde160", "name": "Santo Antonio", "lat": -20.12231061565766, "lng": -40.17964582660651}, {"id": "69946759bb7491f878bddb76", "name": "Sao francisco", "lat": -20.12028689348472, "lng": -40.17785245424548}, {"id": "69946614bb7491f878bbb5e4", "name": "Lagoa", "lat": -20.13382467899321, "lng": -40.19390844438618}, {"id": "699465fbbb7491f878bb9297", "name": "Santa Cecilia", "lat": -20.134146819147738, "lng": -40.19288894087661}, {"id": "699465dabb7491f878bb8c1e", "name": "Sao Paulo", "lat": -20.13439849068144, "lng": -40.19210553291663}, {"id": "699465b9bb7491f878bb8424", "name": "Santa Lucia", "lat": -20.13470049598686, "lng": -40.191300661724874}, {"id": "698bdf5a7354048c73a6a00e", "name": "Av. Safira, 242", "lat": -20.1503323, "lng": -40.1945644}, {"id": "698bdf5a7354048c73a6a00d", "name": "Praça1", "lat": -20.149809, "lng": -40.194407}, {"id": "698bdf5a7354048c73a6a00c", "name": "Mercearia dapraça", "lat": -20.149729, "lng": -40.193939}, {"id": "698bdf5a7354048c73a6a00b", "name": "R. Belém, 900-950", "lat": -20.1506574, "lng": -40.1938858}, {"id": "698bdf5a7354048c73a6a00a", "name": "R. Natal, 275", "lat": -20.1507959, "lng": -40.1935814}, {"id": "698bdf5a7354048c73a6a009", "name": "R Topázio 25", "lat": -20.150103, "lng": -40.193508}, {"id": "698bdf5a7354048c73a6a008", "name": "R Teresina 752", "lat": -20.150081, "lng": -40.192301}, {"id": "698bdf5a7354048c73a6a007", "name": "R. Belém, 180", "lat": -20.1506713, "lng": -40.1922081}, {"id": "698bdf5a7354048c73a6a006", "name": "R Teresinha 601", "lat": -20.15011, "lng": -40.19061}, {"id": "698bdf5a7354048c73a6a005", "name": "R. Belém, 579", "lat": -20.1508699, "lng": -40.1907295}, {"id": "698bdf5a7354048c73a6a004", "name": "R. Salvador, 432", "lat": -20.1509259, "lng": -40.1892047}, {"id": "698bdf5a7354048c73a6a003", "name": "R. Belo Horizonte, 400", "lat": -20.1508475, "lng": -40.1877405}, {"id": "698bdf5a7354048c73a6a002", "name": "Conjunto Jacaraipe Quadra 5", "lat": -20.1601482, "lng": -40.19116}, {"id": "698bdf5a7354048c73a6a001", "name": "San Marino - Reserva da Morada", "lat": -20.18975, "lng": -40.22108}, {"id": "698bdf5a7354048c73a6a000", "name": "R. Canos Quebrada, 66", "lat": -20.19052, "lng": -40.22074}, {"id": "698bdf5a7354048c73a69fff", "name": "R. Peracanga, 1", "lat": -20.19084, "lng": -40.22132}, {"id": "698bdf5a7354048c73a69ffe", "name": "R. Peracanga, 30", "lat": -20.19, "lng": -40.22168}, {"id": "698bdf5a7354048c73a69ffd", "name": "Av. Atlântica, 1077", "lat": -20.19003, "lng": -40.22253}, {"id": "698bdf5a7354048c73a69ffc", "name": "WA Presentes e Utilidades", "lat": -20.13706, "lng": -40.18394}, {"id": "698bdf5a7354048c73a69ffb", "name": "Av. Minas Gerais, 387", "lat": -20.13667, "lng": -40.18603}, {"id": "698bdf5a7354048c73a69ffa", "name": "Av. Minas Gerais, 350", "lat": -20.13646, "lng": -40.1867}, {"id": "698bdf5a7354048c73a69ff9", "name": "R. São Pedro, 49", "lat": -20.13599, "lng": -40.18744}, {"id": "698bdf5a7354048c73a69ff8", "name": "R. Santa Rita, 737", "lat": -20.13571, "lng": -40.1883}, {"id": "698bdf5a7354048c73a69ff7", "name": "R. São José, 41", "lat": -20.13544, "lng": -40.18894}, {"id": "698bdf5a7354048c73a69ff6", "name": "R. Santa Lúcia, 609", "lat": -20.13518, "lng": -40.18971}, {"id": "698bdf5a7354048c73a69ff5", "name": "Loja Maria Bonita", "lat": -20.1367573, "lng": -40.1852474}, {"id": "698bdf5a7354048c73a69ff4", "name": "Paredão Marrom", "lat": -20.1375606, "lng": -40.1853436}, {"id": "698bdf5a7354048c73a69ff3", "name": "Muro pichado", "lat": -20.137474, "lng": -40.1867893}, {"id": "698bdf5a7354048c73a69ff2", "name": "Rua Santa Rita 990", "lat": -20.1374212, "lng": -40.188227}, {"id": "698bdf5a7354048c73a69ff1", "name": "Rua Guaracy 424-560", "lat": -20.1380605, "lng": -40.1882927}, {"id": "698bdf5a7354048c73a69ff0", "name": "Rua Santa Maria 1552", "lat": -20.1380479, "lng": -40.1867702}, {"id": "698bdf5a7354048c73a69fef", "name": "Rua Germano de Melo 499-401", "lat": -20.138741, "lng": -40.1853658}, {"id": "698bdf5a7354048c73a69fee", "name": "Rua Santa Maria 449-403", "lat": -20.1386686, "lng": -40.1868376}, {"id": "698bdf5a7354048c73a69fed", "name": "Rua Jupira 420-610", "lat": -20.1387388, "lng": -40.188338}, {"id": "698bdf5a7354048c73a69fec", "name": "Bar Marajó", "lat": -20.1393111, "lng": -40.1868614}, {"id": "698bdf5a7354048c73a69feb", "name": "Rua João Germano 1560", "lat": -20.1393548, "lng": -40.185345}, {"id": "698bdf5a7354048c73a69fea", "name": "Rua Santa Maria 323-111", "lat": -20.1400326, "lng": -40.1869117}, {"id": "698bdf5a7354048c73a69fe9", "name": "Rua Santa Maria 32-70", "lat": -20.1407373, "lng": -40.1869623}, {"id": "698bdf5a7354048c73a69fe8", "name": "Rua Guaraciaba 525-371", "lat": -20.1407978, "lng": -40.185524}, {"id": "698bdf5a7354048c73a69fe7", "name": "Rua João Germano 116-170", "lat": -20.1407178, "lng": -40.1853644}, {"id": "698bdf5a7354048c73a69fe6", "name": "R. Santa Luzia, 802", "lat": -20.13532, "lng": -40.18974}, {"id": "698bdf5a7354048c73a69fe5", "name": "R. Santa Luzia, 715", "lat": -20.13607, "lng": -40.18982}, {"id": "698bdf5a7354048c73a69fe4", "name": "R. Bariri, 1", "lat": -20.13602, "lng": -40.1883}, {"id": "698bdf5a7354048c73a69fe3", "name": "R. Paraguaçú, 120", "lat": -20.13686, "lng": -40.18671}, {"id": "698bdf5a7354048c73a69fe2", "name": "R. Paraguaçú, 273", "lat": -20.13666, "lng": -40.18839}, {"id": "698bdf5a7354048c73a69fe1", "name": "R. Santa Luzia, 369", "lat": -20.13872, "lng": -40.18974}, {"id": "698bdf5a7354048c73a69fe0", "name": "R. Santa Rita, 976", "lat": -20.13924, "lng": -40.18833}, {"id": "698bdf5a7354048c73a69fdf", "name": "R. Santa Luzia, 460", "lat": -20.13934, "lng": -40.18991}, {"id": "698bdf5a7354048c73a69fde", "name": "R. Santa Luzia, 217", "lat": -20.14, "lng": -40.18994}, {"id": "698bdf5a7354048c73a69fdd", "name": "R. Caramuru, 615", "lat": -20.13991, "lng": -40.18838}, {"id": "698bdf5a7354048c73a69fdc", "name": "R. Satana Luzia, 173", "lat": -20.14037, "lng": -40.18986}, {"id": "698bdf5a7354048c73a69fdb", "name": "R. Santa Rita, 1232", "lat": -20.14071, "lng": -40.18841}, {"id": "698bdf5a7354048c73a69fda", "name": "R. Goiânia, 282", "lat": -20.14891, "lng": -40.18753}, {"id": "698bdf5a7354048c73a69fd9", "name": "R. Belo Horizonte, 581", "lat": -20.14956, "lng": -40.18756}, {"id": "698bdf5a7354048c73a69fd8", "name": "R. Salvador, 286", "lat": -20.14962, "lng": -40.18917}, {"id": "698bdf5a7354048c73a69fd7", "name": "R. Vitória, 477", "lat": -20.14961, "lng": -40.19056}, {"id": "698bdf5a7354048c73a69fd6", "name": "R. Goiânia, 530", "lat": -20.14896, "lng": -40.19052}, {"id": "698bdf5a7354048c73a69fd5", "name": "R. Goiânia, 753", "lat": -20.1489, "lng": -40.19214}, {"id": "698bdf5a7354048c73a69fd4", "name": "R. Niterói, 145", "lat": -20.14957, "lng": -40.19219}, {"id": "698bdf5a7354048c73a69fd3", "name": "Av. Safira, 426", "lat": -20.14926, "lng": -40.19339}, {"id": "698bdf5a7354048c73a69fd2", "name": "R. Diamante, 380", "lat": -20.1488, "lng": -40.19364}, {"id": "698bdf5a7354048c73a69fd1", "name": "R. Turqueza, 299", "lat": -20.14938, "lng": -40.19434}, {"id": "698bdf5a7354048c73a69fd0", "name": "R. Turqueza, 225", "lat": -20.14984, "lng": -40.19483}, {"id": "698bdf5a7354048c73a69fcf", "name": "R. Esmeralda, 180", "lat": -20.15125, "lng": -40.19453}, {"id": "698bdf5a7354048c73a69fce", "name": "R. Florianópolis, 913", "lat": -20.15211, "lng": -40.19378}, {"id": "698bdf5a7354048c73a69fcd", "name": "R. Niterói, 363", "lat": -20.15154, "lng": -40.1921}, {"id": "698bdf5a7354048c73a69fcc", "name": "R. Niterói, 431", "lat": -20.15202, "lng": -40.19225}, {"id": "698bdf5a7354048c73a69fcb", "name": "Banco Banestes", "lat": -20.1496405, "lng": -40.1864655}, {"id": "698bdf5a7354048c73a69fca", "name": "Horizonte Clínica de Treinamento", "lat": -20.1502105, "lng": -40.1876849}, {"id": "698bdf5a7354048c73a69fc9", "name": "Rua Teresins 595-403", "lat": -20.1502013, "lng": -40.1891835}, {"id": "698bdf5a7354048c73a69fc8", "name": "Chapeleiro", "lat": -20.1516373, "lng": -40.1877932}, {"id": "698bdf5a7354048c73a69fc7", "name": "R. Salvador s/n", "lat": -20.1514877, "lng": -40.1891973}, {"id": "698bdf5a7354048c73a69fc6", "name": "R. Vitória, 310", "lat": -20.1515526, "lng": -40.1906222}, {"id": "698bdf5a7354048c73a69fc5", "name": "Rua Florianópolis, 50", "lat": -20.1521805, "lng": -40.1907456}, {"id": "698bdf5a7354048c73a69fc4", "name": "Correios", "lat": -20.1522302, "lng": -40.1892285}, {"id": "698bdf5a7354048c73a69fc3", "name": "Condomínio 297", "lat": -20.1521503, "lng": -40.1877499}, {"id": "698bdf5a7354048c73a69fc2", "name": "R. Fortaleza 255", "lat": -20.1528283, "lng": -40.1876366}, {"id": "698bdf5a7354048c73a69fc1", "name": "Perto do Duto Engenharia", "lat": -20.1527562, "lng": -40.189264}, {"id": "698bdf5a7354048c73a69fc0", "name": "Em frente ao Campo de Futebol", "lat": -20.1528396, "lng": -40.1906252}, {"id": "698bdf5a7354048c73a69fbf", "name": "Distribuidora e Mercearia M&A", "lat": -20.1534565, "lng": -40.1892593}, {"id": "698bdf5a7354048c73a69fbe", "name": "Krause Pizzaria", "lat": -20.1535481, "lng": -40.1878082}, {"id": "698bdf5a7354048c73a69fbd", "name": "R. Belo Horizonte, 2-66", "lat": -20.1541817, "lng": -40.1878424}, {"id": "698bdf5a7354048c73a69fbc", "name": "Praça Reserva da Morada", "lat": -20.1896248, "lng": -40.2191891}, {"id": "698bdf5a7354048c73a69fbb", "name": "Campus UCL Manguinhos 2", "lat": -20.2026817, "lng": -40.2187083}, {"id": "698bdf5a7354048c73a69fba", "name": "Campus UCL Manguinhos 1", "lat": -20.2015763, "lng": -40.2201845}, {"id": "697ed737bf3eae0b9aa77edf", "name": "UPA Castelândia", "lat": -20.16701, "lng": -40.20051}, {"id": "697ed737bf3eae0b9aa77ede", "name": "Posto ALE Feu Rosa", "lat": -20.16743, "lng": -40.20346}, {"id": "697ed737bf3eae0b9aa77edd", "name": "Skic Brasil", "lat": -20.16965, "lng": -40.20889}, {"id": "697ed737bf3eae0b9aa77edc", "name": "EMEF Prof Naly Da Encarnação Miranda", "lat": -20.16988, "lng": -40.21005}, {"id": "697ed737bf3eae0b9aa77edb", "name": "CMEI Prof Dilza Ma de Lima", "lat": -20.17004, "lng": -40.21089}, {"id": "697ed737bf3eae0b9aa77eda", "name": "Senac Feu Rosa 1", "lat": -20.17008, "lng": -40.21137}, {"id": "697ed737bf3eae0b9aa77ed9", "name": "Senac Feu Rosa 2", "lat": -20.17016, "lng": -40.21208}, {"id": "697ed737bf3eae0b9aa77ed8", "name": "Primos Auto Peças", "lat": -20.17098, "lng": -40.21458}, {"id": "697ed737bf3eae0b9aa77ed7", "name": "Praça Onofre de Jesus 2", "lat": -20.17503, "lng": -40.22012}, {"id": "697ed737bf3eae0b9aa77ed6", "name": "Praça Onofre de Jesus 1", "lat": -20.17544, "lng": -40.22096}, {"id": "697ed737bf3eae0b9aa77ed5", "name": "Andaluz", "lat": -20.17674, "lng": -40.22484}, {"id": "697ed737bf3eae0b9aa77ed4", "name": "Inova Serra", "lat": -20.17885, "lng": -40.2285}, {"id": "697ed737bf3eae0b9aa77ed3", "name": "Solistica", "lat": -20.18047, "lng": -40.23048}, {"id": "697ed737bf3eae0b9aa77ed2", "name": "Fortlev", "lat": -20.18025, "lng": -40.23145}, {"id": "697ed737bf3eae0b9aa77ed1", "name": "Wine", "lat": -20.182, "lng": -40.23519}, {"id": "697ed737bf3eae0b9aa77ed0", "name": "Biancogres", "lat": -20.18528, "lng": -40.24085}, {"id": "697ed737bf3eae0b9aa77ecf", "name": "Opus Centro de Montagem", "lat": -20.18883, "lng": -40.24435}, {"id": "697ed737bf3eae0b9aa77ece", "name": "Brasif", "lat": -20.19067, "lng": -40.24444}, {"id": "697ed737bf3eae0b9aa77ecd", "name": "Destak Stone Expert", "lat": -20.19139, "lng": -40.2442}, {"id": "697ed737bf3eae0b9aa77ecc", "name": "Clínica Semear", "lat": -20.19233, "lng": -40.24447}, {"id": "697ed737bf3eae0b9aa77ecb", "name": "Av. Atlântica. 306", "lat": -20.1912123, "lng": -40.2220292}, {"id": "697ed737bf3eae0b9aa77eca", "name": "Av. Atlântica, 240", "lat": -20.191414, "lng": -40.2225375}, {"id": "697ed737bf3eae0b9aa77ec9", "name": "Santorini 1.077", "lat": -20.1901219, "lng": -40.223199}, {"id": "697ed737bf3eae0b9aa77ec8", "name": "FireBull Steackhouse", "lat": -20.1906682, "lng": -40.2235524}, {"id": "697ed737bf3eae0b9aa77ec7", "name": "R. Paquetá, 14", "lat": -20.1935789, "lng": -40.2282043}, {"id": "697ed737bf3eae0b9aa77ec6", "name": "CEB Morada de Laranjeiras", "lat": -20.1927721, "lng": -40.227394}, {"id": "697ed737bf3eae0b9aa77ec5", "name": "Campo de Futebol Morada de Laranjeiras", "lat": -20.1921053, "lng": -40.2270808}, {"id": "697ed737bf3eae0b9aa77ec4", "name": "R. Leblon, 315", "lat": -20.1927907, "lng": -40.226537}, {"id": "697ed737bf3eae0b9aa77ec3", "name": "Libero Cerimonial", "lat": -20.1911528, "lng": -40.2250567}, {"id": "697ed737bf3eae0b9aa77ec2", "name": "Bike Mania", "lat": -20.1911969, "lng": -40.226483}, {"id": "697ed737bf3eae0b9aa77ec1", "name": "R. Araruama, Sn", "lat": -20.1916022, "lng": -40.2274523}, {"id": "697ed737bf3eae0b9aa77ec0", "name": "R. Guarujá, 1", "lat": -20.1912416, "lng": -40.2276504}, {"id": "697ed737bf3eae0b9aa77ebf", "name": "R. Guarujá, 239-133", "lat": -20.1908035, "lng": -40.2266503}, {"id": "697ed737bf3eae0b9aa77ebe", "name": "R. Maricá, 31", "lat": -20.1903535, "lng": -40.2267683}, {"id": "697ed737bf3eae0b9aa77ebd", "name": "R. Ubatuba, 114-134", "lat": -20.1908265, "lng": -40.2278536}, {"id": "697ed737bf3eae0b9aa77ebc", "name": "R. Saquarema, QD 34", "lat": -20.1903167, "lng": -40.2281265}, {"id": "697ed737bf3eae0b9aa77ebb", "name": "R. Saquarema, 86", "lat": -20.1898249, "lng": -40.2270345}, {"id": "697ed737bf3eae0b9aa77eba", "name": "R. Guilherme Serrano, Sn", "lat": -20.189558, "lng": -40.2273125}, {"id": "697ed737bf3eae0b9aa77eb9", "name": "R. Arpoador, 362-402", "lat": -20.1898888, "lng": -40.2282932}, {"id": "697ed737bf3eae0b9aa77eb8", "name": "Igreja Batista Promessa Laranjeiras", "lat": -20.1902031, "lng": -40.2290214}, {"id": "697ed737bf3eae0b9aa77eb7", "name": "R. Saquarema, 2-108", "lat": -20.1906858, "lng": -40.2290314}, {"id": "697ed737bf3eae0b9aa77eb6", "name": "EMEF DOM JOSE MAURO PEREIRA BASTOS", "lat": -20.1912674, "lng": -40.2289292}, {"id": "697ed737bf3eae0b9aa77eb5", "name": "Pracinha Morada de Laranjeiras 2", "lat": -20.192415, "lng": -40.2283582}, {"id": "697ed737bf3eae0b9aa77eb4", "name": "Pracinha de Morada de Laranjeiras 3", "lat": -20.1920178, "lng": -40.2286187}, {"id": "697ed737bf3eae0b9aa77eb3", "name": "Pracinha Morada de Laranjeiras 1", "lat": -20.1926274, "lng": -40.2289778}, {"id": "697ed737bf3eae0b9aa77eb2", "name": "Av. dos Colibris, Sn", "lat": -20.1933294, "lng": -40.2201255}, {"id": "697ed737bf3eae0b9aa77eb1", "name": "Cerimonial Maguinhos", "lat": -20.1942548, "lng": -40.2205094}, {"id": "697ed737bf3eae0b9aa77eb0", "name": "Nova Veículos", "lat": -20.1960475, "lng": -40.2217858}, {"id": "697ed737bf3eae0b9aa77eaf", "name": "Arena Solare", "lat": -20.195432, "lng": -40.2232808}, {"id": "697ed737bf3eae0b9aa77eae", "name": "Av. dos Colibris, 291", "lat": -20.1953606, "lng": -40.2221851}, {"id": "697ed737bf3eae0b9aa77ead", "name": "Av. dos Colibris, Sn", "lat": -20.1947872, "lng": -40.2223745}, {"id": "697ed737bf3eae0b9aa77eac", "name": "R. dos Curiangos, 21", "lat": -20.1936456, "lng": -40.2228714}, {"id": "697ed737bf3eae0b9aa77eab", "name": "Quinta Jatobá", "lat": -20.1954685, "lng": -40.2256234}, {"id": "697ed737bf3eae0b9aa77eaa", "name": "Cerimonial Royal Garden", "lat": -20.1971541, "lng": -40.2261622}, {"id": "697ed737bf3eae0b9aa77ea9", "name": "Eletro Morada", "lat": -20.1973218, "lng": -40.2253223}, {"id": "697ed737bf3eae0b9aa77ea8", "name": "Village Bordeauxy", "lat": -20.1976239, "lng": -40.2234183}, {"id": "697ed737bf3eae0b9aa77ea7", "name": "Le festin", "lat": -20.197775, "lng": -40.2255945}, {"id": "697ed737bf3eae0b9aa77ea6", "name": "Inova Drogarias Morada Laranjeiras", "lat": -20.1984534, "lng": -40.2253897}, {"id": "697ed737bf3eae0b9aa77ea5", "name": "Villaggio Manguinhos Amalfi 2", "lat": -20.1990477, "lng": -40.2225492}, {"id": "697ed737bf3eae0b9aa77ea4", "name": "Villaggio Manguinhos Amalfi 1", "lat": -20.1988077, "lng": -40.2230877}, {"id": "697ed737bf3eae0b9aa77ea3", "name": "Piu Bello Residencial 10", "lat": -20.1979266, "lng": -40.2185085}, {"id": "697ed737bf3eae0b9aa77ea2", "name": "Vila de Regência", "lat": -20.1997516, "lng": -40.2211199}, {"id": "697ed737bf3eae0b9aa77ea1", "name": "Vila de Itapuã", "lat": -20.2005304, "lng": -40.2207592}, {"id": "697ed737bf3eae0b9aa77ea0", "name": "Vila de Camburi", "lat": -20.2004244, "lng": -40.2187536}, {"id": "697ed737bf3eae0b9aa77e9f", "name": "Av. dos Sabiás, Sn", "lat": -20.2006424, "lng": -40.2179066}, {"id": "697ed737bf3eae0b9aa77e9e", "name": "R. Um A, 892-1046", "lat": -20.1941227, "lng": -40.2474237}, {"id": "697ed737bf3eae0b9aa77e9d", "name": "Meridional Oncologia", "lat": -20.1939889, "lng": -40.2486806}, {"id": "697ed737bf3eae0b9aa77e9c", "name": "SmartFit Laranjeiras", "lat": -20.1938432, "lng": -40.2495762}, {"id": "697ed737bf3eae0b9aa77e9b", "name": "Mahai Laranjeiras", "lat": -20.1936478, "lng": -40.2508613}, {"id": "697ed737bf3eae0b9aa77e9a", "name": "Extrabom Laranjeiras", "lat": -20.1938152, "lng": -40.2522034}, {"id": "697ed737bf3eae0b9aa77e99", "name": "Rua da Feira - Sábado", "lat": -20.1932784, "lng": -40.2537701}, {"id": "697ed737bf3eae0b9aa77e98", "name": "Terminal de Laranjeiras 2", "lat": -20.1938659, "lng": -40.2546147}, {"id": "697e26ff22179a57e0b4aca3", "name": "Zuhause", "lat": -20.1930295, "lng": -40.229299}, {"id": "697e26ff22179a57e0b4aca2", "name": "Copacabana center", "lat": -20.1932526, "lng": -40.2297939}, {"id": "697e26ff22179a57e0b4aca1", "name": "Rede Farmes", "lat": -20.1935245, "lng": -40.2303554}, {"id": "697e26ff22179a57e0b4aca0", "name": "Escola universo do saber", "lat": -20.1909445, "lng": -40.2305543}, {"id": "697e26ff22179a57e0b4ac9f", "name": "Casa cor bege 2", "lat": -20.191375, "lng": -40.2313918}, {"id": "697e26ff22179a57e0b4ac9e", "name": "Casa cor bege", "lat": -20.1924524, "lng": -40.2308416}, {"id": "697e26ff22179a57e0b4ac9d", "name": "Cerimonial cristalis", "lat": -20.1933568, "lng": -40.2304631}, {"id": "697e26ff22179a57e0b4ac9c", "name": "Reserva dos Camarás", "lat": -20.1939345, "lng": -40.2312815}, {"id": "697e26ff22179a57e0b4ac9b", "name": "Condomínio Vila das Palmeiras", "lat": -20.1939663, "lng": -40.2317542}, {"id": "697e26ff22179a57e0b4ac9a", "name": "CONTRO COMERCIAL PONTO A", "lat": -20.1943908, "lng": -40.2322347}, {"id": "697e26ff22179a57e0b4ac99", "name": "RESIDENCIAL COVIT2", "lat": -20.1967687, "lng": -40.2336623}, {"id": "697e26ff22179a57e0b4ac98", "name": "Condomínio Civit", "lat": -20.1954858, "lng": -40.23362}, {"id": "697e26ff22179a57e0b4ac97", "name": "Condomínio carapina", "lat": -20.1945742, "lng": -40.2336153}, {"id": "697e26ff22179a57e0b4ac96", "name": "Condomínio vila dos pássaros", "lat": -20.1943961, "lng": -40.2338953}, {"id": "697e26ff22179a57e0b4ac95", "name": "RESIDENCIAL MESTRE ÁLVARO", "lat": -20.1946214, "lng": -40.234533}, {"id": "697e26ff22179a57e0b4ac94", "name": "CONDOMÍNIO VILA VERDE", "lat": -20.1944181, "lng": -40.2353705}, {"id": "697e26ff22179a57e0b4ac93", "name": "CRECHE ARCO ÍRIS", "lat": -20.1992161, "lng": -40.2363871}, {"id": "697e26ff22179a57e0b4ac92", "name": "QUINTAL RESTAURANTE", "lat": -20.1986635, "lng": -40.2369865}, {"id": "697e26ff22179a57e0b4ac91", "name": "VIX99", "lat": -20.1985575, "lng": -40.2381536}, {"id": "697e26ff22179a57e0b4ac90", "name": "VILLAGE DO SOL", "lat": -20.1995244, "lng": -40.2384654}, {"id": "697e26ff22179a57e0b4ac8f", "name": "Escola Técnica Cedtec", "lat": -20.1947699, "lng": -40.2532079}, {"id": "697e26ff22179a57e0b4ac8e", "name": "ESPAÇO BRASIL", "lat": -20.1980408, "lng": -40.2385996}, {"id": "697e26ff22179a57e0b4ac8d", "name": "EUROASIA", "lat": -20.1971784, "lng": -40.2375431}, {"id": "697e26ff22179a57e0b4ac8c", "name": "IGREJA AD MAGNÍFICO", "lat": -20.1968605, "lng": -40.2369409}, {"id": "697e26ff22179a57e0b4ac8a", "name": "Ifes", "lat": -20.1985418, "lng": -40.2180642}, {"id": "697e26ff22179a57e0b4ac89", "name": "DE CASTRO PIZZARIA", "lat": -20.1959071, "lng": -40.2376286}, {"id": "697e26ff22179a57e0b4ac88", "name": "ADNV igreja", "lat": -20.1953596, "lng": -40.2380839}, {"id": "697e26ff22179a57e0b4ac87", "name": "SUPERGASBRAS", "lat": -20.1946809, "lng": -40.2392258}, {"id": "697e26ff22179a57e0b4ac86", "name": "Villaggio Manguinhos Condomínio Porto Fino", "lat": -20.1993347, "lng": -40.2222766}, {"id": "697e26ff22179a57e0b4ac85", "name": "Colégio Adventista 2", "lat": -20.1997416, "lng": -40.2225951}, {"id": "697e26ff22179a57e0b4ac84", "name": "Beach Tênis 2", "lat": -20.1987526, "lng": -40.2236493}, {"id": "697e26ff22179a57e0b4ac83", "name": "Beach Tênis Morada 1", "lat": -20.199257, "lng": -40.223842}, {"id": "697e26ff22179a57e0b4ac82", "name": "Drogasil Morada de Laranjeiras", "lat": -20.1990971, "lng": -40.2253504}, {"id": "697e26ff22179a57e0b4ac81", "name": "Ventura Essencial Life", "lat": -20.1990112, "lng": -40.2277748}, {"id": "697e26ff22179a57e0b4ac7f", "name": "Condomínio Via Laranjeiras, 4", "lat": -20.1979197, "lng": -40.2288206}, {"id": "697e26ff22179a57e0b4ac7e", "name": "Condomínio Via Laranjeiras, Torre 1", "lat": -20.1974203, "lng": -40.2288534}, {"id": "697e26ff22179a57e0b4ac7c", "name": "Condomínio Via Sol 2", "lat": -20.1962243, "lng": -40.2292024}, {"id": "697e26ff22179a57e0b4ac7b", "name": "Em frente a farmácia Drogasil", "lat": -20.199504, "lng": -40.2249867}, {"id": "697e26ff22179a57e0b4ac7a", "name": "Condomínio Via Jardins", "lat": -20.1955459, "lng": -40.2288722}, {"id": "697e26ff22179a57e0b4ac79", "name": "Estacionamento Jaime Santos Neves", "lat": -20.1995411, "lng": -40.2268676}, {"id": "697e26ff22179a57e0b4ac78", "name": "Condomínio Via Sol, 268", "lat": -20.1965242, "lng": -40.2284843}, {"id": "697e26ff22179a57e0b4ac77", "name": "Condomínio Via Laranjeiras 2", "lat": -20.1976868, "lng": -40.2285875}, {"id": "697e26ff22179a57e0b4ac76", "name": "Hospital Jaime dos Santos Neves", "lat": -20.1993344, "lng": -40.2278563}, {"id": "697e26ff22179a57e0b4ac75", "name": "Condomínio Via Laranjeiras 3", "lat": -20.1980424, "lng": -40.2285074}, {"id": "697e26ff22179a57e0b4ac74", "name": "Pracinha", "lat": -20.1995858, "lng": -40.229814}, {"id": "697e26ff22179a57e0b4ac73", "name": "Rua da Feira - Quarta", "lat": -20.1985824, "lng": -40.2284809}, {"id": "697e26ff22179a57e0b4ac72", "name": "Aplick imóveis", "lat": -20.1992205, "lng": -40.2296447}, {"id": "697e26ff22179a57e0b4ac71", "name": "Wolner Fitness", "lat": -20.1971139, "lng": -40.230099}, {"id": "697e26ff22179a57e0b4ac70", "name": "Naturale Residencial", "lat": -20.197543, "lng": -40.2314545}, {"id": "697e26ff22179a57e0b4ac6f", "name": "Igreja Cristã Maranata", "lat": -20.1975751, "lng": -40.23401}, {"id": "697e26ff22179a57e0b4ac6e", "name": "Residencial Civit A2", "lat": -20.1973958, "lng": -40.2342711}, {"id": "697e26ff22179a57e0b4ac6d", "name": "Assembleia de Deus Magnífico", "lat": -20.1966475, "lng": -40.2371046}, {"id": "697e26ff22179a57e0b4ac6c", "name": "Condomínio Cooplares", "lat": -20.1962205, "lng": -40.2371166}, {"id": "697e26ff22179a57e0b4ac6b", "name": "Posto Ipiranga", "lat": -20.1957762, "lng": -40.2377765}, {"id": "697e26ff22179a57e0b4ac6a", "name": "Supergasbras Laranjeiras 2", "lat": -20.1947325, "lng": -40.237407}, {"id": "697e26ff22179a57e0b4ac69", "name": "Supergasbras Laranjeiras", "lat": -20.1945663, "lng": -40.2394726}, {"id": "697e26ff22179a57e0b4ac68", "name": "Supergasbras", "lat": -20.1949128, "lng": -40.2400037}, {"id": "697e26ff22179a57e0b4ac67", "name": "Contemporâneo Residence", "lat": -20.1963725, "lng": -40.2430564}, {"id": "697e26ff22179a57e0b4ac66", "name": "Rotária 4", "lat": -20.1948489, "lng": -40.2451244}, {"id": "697e26ff22179a57e0b4ac65", "name": "Rotária 3", "lat": -20.193897, "lng": -40.2443757}, {"id": "697e26ff22179a57e0b4ac64", "name": "BH Rotária", "lat": -20.1939807, "lng": -40.2426168}, {"id": "697e26ff22179a57e0b4ac63", "name": "Rotária 2", "lat": -20.1938697, "lng": -40.2436512}, {"id": "697e26ff22179a57e0b4ac62", "name": "Hospital Dório Silva", "lat": -20.1958678, "lng": -40.2444605}, {"id": "697e26ff22179a57e0b4ac61", "name": "Rotária 1", "lat": -20.1953848, "lng": -40.24339}, {"id": "697e26ff22179a57e0b4ac60", "name": "Daniel Veículos", "lat": -20.1955314, "lng": -40.245579}, {"id": "697e26ff22179a57e0b4ac5f", "name": "Matriz Automóveis", "lat": -20.1954697, "lng": -40.2465711}, {"id": "697e26ff22179a57e0b4ac5e", "name": "CCAA Inglês é Espanhol", "lat": -20.1954726, "lng": -40.2470411}, {"id": "697e26ff22179a57e0b4ac5d", "name": "Cultura Inglesa", "lat": -20.1955125, "lng": -40.247194}, {"id": "697e26ff22179a57e0b4ac5c", "name": "Doc Vetz 24h", "lat": -20.1951834, "lng": -40.247879}, {"id": "697e26ff22179a57e0b4ac5b", "name": "Av. Eldes Scherrer Souza, Sn", "lat": -20.1950796, "lng": -40.2486917}, {"id": "697e26ff22179a57e0b4ac5a", "name": "Serra Treinamentos", "lat": -20.1950915, "lng": -40.2492295}, {"id": "697e26ff22179a57e0b4ac59", "name": "Metropolitano Tower, 588", "lat": -20.1946771, "lng": -40.2497384}, {"id": "697e26ff22179a57e0b4ac58", "name": "Centro Frios", "lat": -20.1949959, "lng": -40.2513233}, {"id": "697e26ff22179a57e0b4ac57", "name": "Dalla Home Center Laranjeiras", "lat": -20.1945582, "lng": -40.2511221}, {"id": "697e26ff22179a57e0b4ac56", "name": "Padaria Vittoria", "lat": -20.1949373, "lng": -40.2515244}, {"id": "697e26ff22179a57e0b4ac55", "name": "Atacadão SP Laranjeiras", "lat": -20.1944524, "lng": -40.2520793}, {"id": "697e26ff22179a57e0b4ac54", "name": "Sicred", "lat": -20.1948064, "lng": -40.2524069}, {"id": "697e26ff22179a57e0b4ac53", "name": "BH Laranjeiras 1", "lat": -20.1943678, "lng": -40.2535371}, {"id": "697e26ff22179a57e0b4ac52", "name": "Terminal Laranjeiras 1", "lat": -20.1943083, "lng": -40.2541124}, {"id": "697e26ff22179a57e0b4ac51", "name": "Drogasil", "lat": -20.1947577, "lng": -40.2541088}, {"id": "697610e0c729063e637bd134", "name": "Supermercado Rede Show", "lat": -20.1604054, "lng": -40.1881579}, {"id": "697610e0c729063e637bd133", "name": "R. Prof. Geraldo Costa Alves 351-251", "lat": -20.1582523, "lng": -40.1871313}, {"id": "697610e0c729063e637bd132", "name": "Rua. Wilsom César 2-74", "lat": -20.158685, "lng": -40.1862445}, {"id": "697610e0c729063e637bd131", "name": "Pousada Castelo do Mar", "lat": -20.1593564, "lng": -40.1877804}, {"id": "697610e0c729063e637bd130", "name": "Papelaria Papua", "lat": -20.1612558, "lng": -40.1880104}, {"id": "697610e0c729063e637bd12f", "name": "Condomínio perto do terminal de Jacaraípe", "lat": -20.1597671, "lng": -40.1945356}, {"id": "697610e0c729063e637bd12e", "name": "Terminal de Jacaraipe 1", "lat": -20.1600009, "lng": -40.1954043}, {"id": "697610e0c729063e637bd12d", "name": "Ponto de ônibus", "lat": -20.1580562, "lng": -40.1926439}, {"id": "697610e0c729063e637bd12c", "name": "Studio Vitale", "lat": -20.1571393, "lng": -40.1920445}, {"id": "697610e0c729063e637bd12b", "name": "Conjunto Habitacional Jacaraipe 1° Etapa, Quadra C", "lat": -20.1590825, "lng": -40.1916958}, {"id": "697610e0c729063e637bd12a", "name": "Condomínio Habitacional Jacaraípe", "lat": -20.1601032, "lng": -40.1901843}, {"id": "697610e0c729063e637bd129", "name": "Condomínio Quadra 5", "lat": -20.1611544, "lng": -40.189958}, {"id": "697610e0c729063e637bd128", "name": "Conjunto Jacaraípe Quadra 5", "lat": -20.1610282, "lng": -40.1902286}, {"id": "69693ca94910c3a5225fc70c", "name": "Wellness Jacaraipe", "lat": -20.1374797, "lng": -40.1839288}, {"id": "69693ca94910c3a5225fc70b", "name": "Burguer & Pub", "lat": -20.1382635, "lng": -40.1839566}, {"id": "69693ca94910c3a5225fc70a", "name": "Eskimó Jacaraipe", "lat": -20.138899, "lng": -40.1839546}, {"id": "69693ca94910c3a5225fc709", "name": "Medicação Clínica Veterinária", "lat": -20.1395695, "lng": -40.1838962}, {"id": "69693ca94910c3a5225fc708", "name": "Sicredi Jacaraipe", "lat": -20.1399756, "lng": -40.1838359}, {"id": "69693ca94910c3a5225fc707", "name": "ARFilms", "lat": -20.1407081, "lng": -40.1838768}, {"id": "69693ca94910c3a5225fc706", "name": "OK Vidraçaria", "lat": -20.1421664, "lng": -40.1842439}, {"id": "69693ca94910c3a5225fc705", "name": "Casarão VET", "lat": -20.1429259, "lng": -40.1844139}, {"id": "69693ca94910c3a5225fc704", "name": "Arena Jacaraipe 2", "lat": -20.1441378, "lng": -40.1853181}, {"id": "69693ca94910c3a5225fc703", "name": "Arena Jacaraipe 1", "lat": -20.1445514, "lng": -40.1851545}, {"id": "69693ca94910c3a5225fc702", "name": "Casagrande 2", "lat": -20.1453969, "lng": -40.1851113}, {"id": "69693ca94910c3a5225fc701", "name": "Casagrande 1", "lat": -20.145824, "lng": -40.1852139}, {"id": "69693ca94910c3a5225fc700", "name": "Kumon Jacaraipe", "lat": -20.1466166, "lng": -40.185467}, {"id": "69693ca94910c3a5225fc6ff", "name": "Feminina Praia", "lat": -20.1471416, "lng": -40.1854851}, {"id": "69693ca94910c3a5225fc6fe", "name": "Parque de Diversões Jacaraipe", "lat": -20.1477107, "lng": -40.1859116}, {"id": "69693ca94910c3a5225fc6fd", "name": "Posto Shell Jacaraipe", "lat": -20.148406, "lng": -40.1860889}, {"id": "69693ca94910c3a5225fc6fc", "name": "Drogarias Pacheco Jacaraipe", "lat": -20.1490723, "lng": -40.1859106}, {"id": "69693ca94910c3a5225fc6fb", "name": "Crefisa Jacaraipe", "lat": -20.1497827, "lng": -40.185988}, {"id": "69693ca94910c3a5225fc6fa", "name": "Rede Show Jacaraipe", "lat": -20.1503414, "lng": -40.1860048}, {"id": "69693ca94910c3a5225fc6f9", "name": "Sipolatti Jacaraipe", "lat": -20.1515365, "lng": -40.1862945}, {"id": "69693ca94910c3a5225fc6f8", "name": "Shopping Jacaraipe", "lat": -20.1508847, "lng": -40.1860259}, {"id": "69693ca94910c3a5225fc6f7", "name": "Rede Farmes Farmácia", "lat": -20.1523942, "lng": -40.1860752}, {"id": "69693ca94910c3a5225fc6f6", "name": "Épou", "lat": -20.1530316, "lng": -40.1861372}, {"id": "69693ca94910c3a5225fc6f5", "name": "Drogasil", "lat": -20.1536671, "lng": -40.1861027}, {"id": "6967ab0fc729063e6389f4db", "name": "Decolar Veículos", "lat": -20.1582161, "lng": -40.1854033}, {"id": "6967aaeac729063e6389f03a", "name": "Petronas AutoExpert", "lat": -20.1588685, "lng": -40.1854248}, {"id": "6967aabdc729063e6389e903", "name": "BR Petrobras Jacaraipe", "lat": -20.1596421, "lng": -40.1855012}, {"id": "6967aa8bc729063e6389e357", "name": "Prime Vistorias", "lat": -20.1608265, "lng": -40.1855864}, {"id": "6967a9e3c729063e6389cb21", "name": "P Marcenaria Pissinate", "lat": -20.1615652, "lng": -40.1855867}, {"id": "6967a9a8c729063e6389c1ef", "name": "União Espírita de Jacaraípe", "lat": -20.1622447, "lng": -40.1856263}, {"id": "6967a92ec729063e6389b013", "name": "Impressão Gráfica e Publicidade", "lat": -20.1629053, "lng": -40.1857051}, {"id": "6967a906c729063e63899788", "name": "Ale Posto de Gasolina", "lat": -20.1635675, "lng": -40.1857262}, {"id": "6967a8dac729063e6389845c", "name": "XPotixaba Moto Peças", "lat": -20.1642265, "lng": -40.1857657}, {"id": "6967a7f9c729063e63893e53", "name": "Portal Madeiras", "lat": -20.1650322, "lng": -40.185818}, {"id": "6967a7cfc729063e6388ede7", "name": "Speed Car", "lat": -20.1668054, "lng": -40.1859545}, {"id": "6967a79ac729063e638874bd", "name": "Escap New", "lat": -20.1661772, "lng": -40.1858958}, {"id": "6967a750c729063e63885d18", "name": "Empório Agro", "lat": -20.1655052, "lng": -40.1858485}, {"id": "6967a657c729063e63866579", "name": "Muito Mais Atacado", "lat": -20.1440122, "lng": -40.1847425}, {"id": "69627365be7bda7b89904591", "name": "Av. Nossa Sra, 623-555", "lat": -20.1617197, "lng": -40.1844012}, {"id": "69627285be7bda7b899024fc", "name": "R. Santa Joana, 143-65", "lat": -20.1262335, "lng": -40.1797234}, {"id": "69627285be7bda7b899024fb", "name": "R. do Rosário, 3010", "lat": -20.1271857, "lng": -40.1801183}, {"id": "69627285be7bda7b899024fa", "name": "R. do Rosário, 958-1102", "lat": -20.1276677, "lng": -40.1803239}, {"id": "69627285be7bda7b899024f9", "name": "R. Goytacazes, 2448-2516", "lat": -20.1288982, "lng": -40.1809009}, {"id": "69627285be7bda7b899024f8", "name": "La em Casa", "lat": -20.1310577, "lng": -40.1816941}, {"id": "69627285be7bda7b899024f7", "name": "R. do Rosário, 564-692", "lat": -20.132101, "lng": -40.1822105}, {"id": "69627285be7bda7b899024f6", "name": "R. do Rosário, 2100", "lat": -20.1336762, "lng": -40.1826685}, {"id": "69627285be7bda7b899024f5", "name": "R. Timbiras, 66", "lat": -20.1347669, "lng": -40.1827861}, {"id": "69627285be7bda7b899024f4", "name": "R. do Rosário, 90", "lat": -20.1360207, "lng": -40.1830118}, {"id": "69627285be7bda7b899024f3", "name": "Nota 10 Reforço Escolar", "lat": -20.1371835, "lng": -40.183283}, {"id": "69627285be7bda7b899024f2", "name": "Av. Nossa Sra, 1068-1104", "lat": -20.1662747, "lng": -40.1850881}, {"id": "69627285be7bda7b899024f1", "name": "Av. Nossa Sra, 932", "lat": -20.1656969, "lng": -40.1851398}, {"id": "69627285be7bda7b899024f0", "name": "Rua Aratú, 325-235", "lat": -20.1650413, "lng": -40.1851207}, {"id": "69627285be7bda7b899024ef", "name": "Av. Nossa Sra, 786", "lat": -20.1643247, "lng": -40.1850379}, {"id": "69627285be7bda7b899024ee", "name": "Av. Nossa Sra, 712", "lat": -20.1637711, "lng": -40.1848407}, {"id": "69627285be7bda7b899024ed", "name": "Av. Nossa Sra, 626-698", "lat": -20.1630327, "lng": -40.1845336}, {"id": "69627285be7bda7b899024ec", "name": "R. Goytacazes, 2433", "lat": -20.1289133, "lng": -40.1808999}, {"id": "69627285be7bda7b899024eb", "name": "Everse Surf", "lat": -20.1300812, "lng": -40.1812543}, {"id": "69617f32f221e4ade2dd310a", "name": "Parque Central", "lat": -20.155332, "lng": -40.184803}, {"id": "696121cf4668785b5a4a31cf", "name": "ЕxtraBom", "lat": -20.154417, "lng": -40.186275}, {"id": "6960042bff15bdb751f69fd6", "name": "Casa Azul", "lat": -20.129167, "lng": -40.18008}, {"id": "6960042bff15bdb751f69fd5", "name": "Valente Pizzaria", "lat": -20.135043, "lng": -40.1821421}, {"id": "6960042bff15bdb751f69fd4", "name": "Restaurante sensação de verão", "lat": -20.1375282, "lng": -40.1823191}, {"id": "6960042bff15bdb751f69fd3", "name": "Rampa Decker", "lat": -20.1388949, "lng": -40.182304}, {"id": "6960042bff15bdb751f69fd2", "name": "Prédio azul", "lat": -20.1415186, "lng": -40.1820371}, {"id": "6960042bff15bdb751f69fd1", "name": "Recanto do agrião", "lat": -20.1427969, "lng": -40.1828106}, {"id": "6960042bff15bdb751f69fd0", "name": "Quiosque sabor divino", "lat": -20.1437837, "lng": -40.1832619}, {"id": "6960042bff15bdb751f69fcf", "name": "Americana bar", "lat": -20.1456078, "lng": -40.1837608}, {"id": "6960042bff15bdb751f69fce", "name": "ASAS Associação dos Artesãos", "lat": -20.1474582, "lng": -40.1843603}, {"id": "6960042bff15bdb751f69fcd", "name": "FR bar e petiscos", "lat": -20.1484264, "lng": -40.1846825}, {"id": "6960042bff15bdb751f69fcc", "name": "Inter Hotel", "lat": -20.1496609, "lng": -40.1849453}, {"id": "6960042bff15bdb751f69fcb", "name": "AC Surf Boards", "lat": -20.1503291, "lng": -40.185006}, {"id": "6960042bff15bdb751f69fca", "name": "Restaurante Berro D’água", "lat": -20.1522803, "lng": -40.1848672}, {"id": "6960042bff15bdb751f69fc9", "name": "Contêiner laranja", "lat": -20.1535884, "lng": -40.1847867}, {"id": "6960042bff15bdb751f69fc8", "name": "Academia Global", "lat": -20.1548864, "lng": -40.1846939}, {"id": "6960042bff15bdb751f69fc7", "name": "Letreiro Serra sou Feliz", "lat": -20.1557006, "lng": -40.1858006}, {"id": "6960042bff15bdb751f69fc6", "name": "Quiosque + verão", "lat": -20.1597019, "lng": -40.1845661}, {"id": "6960042bff15bdb751f69fc5", "name": "Quiosque point dos amigos", "lat": -20.1589503, "lng": -40.1845973}, {"id": "6960042bff15bdb751f69fc4", "name": "Bar e restaurante Castanheiras", "lat": -20.1573206, "lng": -40.1846989}, {"id": "6960042bff15bdb751f69fc3", "name": "Restaurante Bar Petiscaria da Rosa", "lat": -20.1574173, "lng": -40.1852182}, {"id": "6960042bff15bdb751f69fc2", "name": "Quiosque 7 Mares", "lat": -20.1582658, "lng": -40.1845869}, {"id": "6960042bff15bdb751f69fc1", "name": "Colônia de Férias dos Ferroviários da Vale", "lat": -20.160519, "lng": -40.1844605}, {"id": "6960042bff15bdb751f69fc0", "name": "Pico do Coral", "lat": -20.1616183, "lng": -40.1844716}, {"id": "6960042bff15bdb751f69fbf", "name": "Casa & Vídeo", "lat": -20.1553185, "lng": -40.1858147}, {"id": "6960042bff15bdb751f69fbe", "name": "Praça 1", "lat": -20.1551467, "lng": -40.185525}, {"id": "6960042bff15bdb751f69fbd", "name": "Orla Beach Gastrobar", "lat": -20.1541974, "lng": -40.1845889}, {"id": "6960042bff15bdb751f69fbc", "name": "Morena Jambo", "lat": -20.1529853, "lng": -40.1847173}, {"id": "6960042bff15bdb751f69fbb", "name": "Sorveteria & Pastelaria Sabor do Verão", "lat": -20.1516706, "lng": -40.1848213}, {"id": "6960042bff15bdb751f69fba", "name": "Distribuidora da Orla", "lat": -20.1509335, "lng": -40.1848273}, {"id": "6960042bff15bdb751f69fb9", "name": "Sal da Terra", "lat": -20.1490267, "lng": -40.18477}, {"id": "6960042bff15bdb751f69fb8", "name": "Vila Tropical", "lat": -20.147993, "lng": -40.1844427}, {"id": "6960042bff15bdb751f69fb7", "name": "Bravos Choperia", "lat": -20.1468256, "lng": -40.1840619}, {"id": "6960042bff15bdb751f69fb6", "name": "Parquinho Marlin Azul", "lat": -20.1464626, "lng": -40.1838865}, {"id": "6960042bff15bdb751f69fb5", "name": "40 Sabores Jacaraípe", "lat": -20.1450179, "lng": -40.1834969}, {"id": "6960042bff15bdb751f69fb4", "name": "Paty Galetos", "lat": -20.1443714, "lng": -40.1832964}, {"id": "6960042bff15bdb751f69fb3", "name": "Quiosque Tô Na Onda", "lat": -20.1432577, "lng": -40.182987}, {"id": "6960042bff15bdb751f69fb2", "name": "Ed. Disco 1401", "lat": -20.1423455, "lng": -40.1823449}, {"id": "6960042bff15bdb751f69fb1", "name": "Orla Norte", "lat": -20.1408318, "lng": -40.1817813}, {"id": "6960042bff15bdb751f69fb0", "name": "Energia 5", "lat": -20.140194, "lng": -40.1819228}, {"id": "6960042bff15bdb751f69faf", "name": "Churrasquinho das Meninas", "lat": -20.1395692, "lng": -40.1821049}, {"id": "6960042bff15bdb751f69fae", "name": "Lamar Gastrobar", "lat": -20.138244, "lng": -40.1822269}, {"id": "6960042bff15bdb751f69fad", "name": "Delícias da Zu", "lat": -20.1362883, "lng": -40.1821515}, {"id": "6960042bff15bdb751f69fac", "name": "Av. Nossa Sra, 2253", "lat": -20.1337851, "lng": -40.1817877}, {"id": "6960042bff15bdb751f69fab", "name": "Energia 7", "lat": -20.1324926, "lng": -40.181325}, {"id": "6960042bff15bdb751f69faa", "name": "Av. Nossa Sra. 2525", "lat": -20.1315255, "lng": -40.1809964}, {"id": "6960042bff15bdb751f69fa9", "name": "Posto 18", "lat": -20.1302339, "lng": -40.1804496}, {"id": "6960042bff15bdb751f69fa8", "name": "Igreja Mar", "lat": -20.1276734, "lng": -40.1793881}]}